id,hospital_name,site_name,lat,lon,street,house_number,postcode,city,cc,country,emergency,cap_beds,cap_prac,cap_rooms,facility_type,public_private,list_specs,tel,email,url,ref_date,pub_date,geo_qual
771077,Josephs-Hospital Warendorf,,51.960420529706,8.002352893336,Am Krankenhaus,2,48231,Warendorf,DE,Germany (until 1990 former territory of the FRG),,,,,standort,,,,,,01/01/2020,28/03/2020,-1
771770,Hauptstandort,,51.960538935624,12.09354137759,Friedrich-Naumann-Straße,53,39261,Zerbst/Anhalt,DE,Germany (until 1990 former territory of the FRG),,,,,standort,,,,,,01/01/2020,28/03/2020,-1
771997,Evangelisches Krankenhaus Witten gGmbH,,51.445604014753,7.343875944598,Pferdebachstraße,27,58455,Witten,DE,Germany (until 1990 former territory of the FRG),,,,,standort,,,,,,01/01/2020,28/03/2020,-1
772573,Sophienklinik GmbH,,52.362268389496,9.777482271129,Bischofsholer Damm,160,30173,Hannover,DE,Germany (until 1990 former territory of the FRG),,,,,standort,,,,,,01/01/2020,28/03/2020,-1
773308,BG Klinikum Duisburg gGmbH,,51.380675639817,6.785428762469,Großenbaumer Allee,250,47249,Duisburg,DE,Germany (until 1990 former territory of the FRG),,,,,standort,,,,,,01/01/2020,28/03/2020,-1
773597,Klinikum Garmisch-Partenkirchen Standort Murnau,,47.671590022337,11.219773683697,Prof.-Küntscher-Straße,8,82418,Murnau am Staffelsee,DE,Germany (until 1990 former territory of the FRG),,,,,standort,,,,,,01/01/2020,28/03/2020,-1
773617,Klinikum Garmisch-Partenkirchen,,47.483929564176,11.127636015399,Auenstraße,6,82467,Garmisch-Partenkirchen,DE,Germany (until 1990 former territory of the FRG),,,,,standort,,,,,,01/01/2020,28/03/2020,-1
771364,Kreiskrankenhaus Osterholz,,53.23344318708,8.793386220932,Am Krankenhaus,4,27711,Osterholz-Scharmbeck,DE,Germany (until 1990 former territory of the FRG),,,,,standort,,,,,,01/01/2020,28/03/2020,-1
772118,St. Franziskus-Hospital Winterberg gGmbH,,51.193310232526,8.5381085872,Franziskusstraße,2,59955,"Winterberg, Westfalen",DE,Germany (until 1990 former territory of the FRG),,,,,standort,,,,,,01/01/2020,28/03/2020,-1
771835,Helios Klinikum Erfurt GmbH,,50.994088107174,11.011598825553,Nordhäuser Straße,74,99089,Erfurt,DE,Germany (until 1990 former territory of the FRG),,,,,standort,,,,,,01/01/2020,28/03/2020,-1
772303,LWL-Klinik Dortmund - Elisabeth-Klinik - Kinder- und Jugendpsychiatrie Psychotherapie · Psychosomatik,,51.503072843858,7.547493696147,Marsbruchstraße,162a,44287,Dortmund,DE,Germany (until 1990 former territory of the FRG),,,,,standort,,,,,,01/01/2020,28/03/2020,-1
772304,LWL-Tagesklinik Dortmund  Kinder- und Jugendpsychiatrie · Psychosomatik,,51.509104715874,7.455439746363,Beurhausstraße,47,44137,Dortmund,DE,Germany (until 1990 former territory of the FRG),,,,,standort,,,,,,01/01/2020,28/03/2020,-1
772561,St. Barbara Klinik Hamm-Heessen,,51.708239818582,7.841748386613,Am Heessener Wald,1,59073,"Hamm, Westfalen",DE,Germany (until 1990 former territory of the FRG),,,,,standort,,,,,,01/01/2020,28/03/2020,-1
772562,St. Josef-Krankenhaus Hamm-Bockum-Hövel,,51.698388463495,7.762981832011,Albert-Struck-Str.,1,59075,"Hamm, Westfalen",DE,Germany (until 1990 former territory of the FRG),,,,,standort,,,,,,01/01/2020,28/03/2020,-1
772963,Hauptstandort Herz-Zentrum,,47.671732707494,9.185561120494,Luisenstraße,9a,78464,Konstanz,DE,Germany (until 1990 former territory of the FRG),,,,,standort,,,,,,01/01/2020,28/03/2020,-1
771727,VAMED Klinik Bad Berleburg,,51.060568548166,8.402625381873,An der Gontardslust,7,57319,Bad Berleburg,DE,Germany (until 1990 former territory of the FRG),,,,,standort,,,,,,01/01/2020,28/03/2020,-1
771535,Helios Klinikum Schwelm,,51.293446626116,7.311882555468,Dr.-Moeller-Straße,15,58332,Schwelm,DE,Germany (until 1990 former territory of the FRG),,,,,standort,,,,,,01/01/2020,28/03/2020,-1
772936,Hauptstandort,,50.992215873468,6.923839330698,Graseggerstr.,105,50737,Köln,DE,Germany (until 1990 former territory of the FRG),,,,,standort,,,,,,01/01/2020,28/03/2020,-1
773675,Hauptstandort,,53.589913025365,9.974761963022,Martinistraße,52,20251,Hamburg,DE,Germany (until 1990 former territory of the FRG),,,,,standort,,,,,,01/01/2020,28/03/2020,-1
773676,Bernhard-Nocht-Institut,,53.546943961731,9.965663910043,Bernhard-Nocht-Straße,74,20359,Hamburg,DE,Germany (until 1990 former territory of the FRG),,,,,standort,,,,,,01/01/2020,28/03/2020,-1
772586,Johanniter Tagesklinik Koblenz,,50.350807367331,7.559179544514,Koblenzer Straße,157b,56073,Koblenz am Rhein,DE,Germany (until 1990 former territory of the FRG),,,,,standort,,,,,,01/01/2020,28/03/2020,-1
773289,Franziskus Hospital,,52.023233817794,8.523210525709,Kiskerstrassse,26,33615,Bielefeld,DE,Germany (until 1990 former territory of the FRG),,,,,standort,,,,,,01/01/2020,28/03/2020,-1
773290,Mathilden Hospital,,52.112178478842,8.675173759657,Renntormauer,1-3,32052,Herford,DE,Germany (until 1990 former territory of the FRG),,,,,standort,,,,,,01/01/2020,28/03/2020,-1
773291,Sankt Vinzenz Hospital,,51.833002974089,8.330376863578,St.-Vinzenz-Straße,1,33378,Rheda-Wiedenbrück,DE,Germany (until 1990 former territory of the FRG),,,,,standort,,,,,,01/01/2020,28/03/2020,-1
771063,Tagesklinik Alteburger Straße gGmbH,,50.922022744784,6.961371481402,Alteburger Straße,8-12,50678,Köln,DE,Germany (until 1990 former territory of the FRG),,,,,standort,,,,,,01/01/2020,28/03/2020,-1
771539,"Virchowstraße 174, 45147 Essen",,51.433783520247,6.986943125758,Virchowstraße,174,45147,Essen,DE,Germany (until 1990 former territory of the FRG),,,,,standort,,,,,,01/01/2020,28/03/2020,-1
771540,"Wickenburgstraße 21, 45147 Essen",,51.440003454576,6.969621419939,Wickenburgstraße,21,45147,Essen,DE,Germany (until 1990 former territory of the FRG),,,,,standort,,,,,,01/01/2020,28/03/2020,-1
771541,"Overbergstraße 27, 45141 Essen",,51.472229876166,7.012279272112,Overbergstraße,27,45141,Essen,DE,Germany (until 1990 former territory of the FRG),,,,,standort,,,,,,01/01/2020,28/03/2020,-1
771542,"Düsseldorfer Straße 136-138, 45481 Mülheim an der Ruhr",,51.408088895493,6.870079278979,Düsseldorfer Straße,136-138,45481,Mülheim an der Ruhr,DE,Germany (until 1990 former territory of the FRG),,,,,standort,,,,,,01/01/2020,28/03/2020,-1
772061,St. Marien-Krankenhaus Siegen,,50.879455893095,8.030419528468,Kampenstraße,51,57072,Siegen,DE,Germany (until 1990 former territory of the FRG),,,,,standort,,,,,,01/01/2020,28/03/2020,-1
772966,MediClin Reha-Zentrum Bad Orb,,50.216243891937,9.354513466342,Spessartstraße,20,63619,Bad Orb,DE,Germany (until 1990 former territory of the FRG),,,,,standort,,,,,,01/01/2020,28/03/2020,-1
773665,Hauptstandort,,47.947182357075,11.096890282461,Klosterhof,20,86911,Dießen am Ammersee,DE,Germany (until 1990 former territory of the FRG),,,,,standort,,,,,,01/01/2020,28/03/2020,-1
771922,Krankenhaus,,49.536069595531,8.575010418908,Seegartenstraße,4,68519,Viernheim,DE,Germany (until 1990 former territory of the FRG),,,,,standort,,,,,,01/01/2020,28/03/2020,-1
772863,Hauptstandort,,49.315695817169,8.421648941003,Holzstraße,4A,67346,Speyer,DE,Germany (until 1990 former territory of the FRG),,,,,standort,,,,,,01/01/2020,28/03/2020,-1
773026,St.-Clemens-Hospital,,51.528499725763,6.327309285953,Clemensstraße,6,47608,Geldern,DE,Germany (until 1990 former territory of the FRG),,,,,standort,,,,,,01/01/2020,28/03/2020,-1
773333,"Psychiatrische Tagesklinik Heide, Brücke Schleswig-Holstein gGmbH",,54.19221696234,9.093926668102,Neue Anlage,18,25746,"Heide, Holst",DE,Germany (until 1990 former territory of the FRG),,,,,standort,,,,,,01/01/2020,28/03/2020,-1
773334,"Psychiatrische Institutsambulanz Heide, Brücke Schleswig-Holstein gGmbH",,54.192267179086,9.093926668102,Neue Anlage,18,25746,"Heide, Holst",DE,Germany (until 1990 former territory of the FRG),,,,,standort,,,,,,01/01/2020,28/03/2020,-1
771849,Paracelsus-Klinik am Silbersee,,52.434121822202,9.757717609536,Oertzeweg,24,30851,"Langenhagen, Han",DE,Germany (until 1990 former territory of the FRG),,,,,standort,,,,,,01/01/2020,28/03/2020,-1
772202,"Hunsrück Klinik, kreuznacher diakonie",,49.980434681353,7.517382698134,Holzbacher Straße,1,55469,"Simmern, Hunsrück",DE,Germany (until 1990 former territory of the FRG),,,,,standort,,,,,,01/01/2020,28/03/2020,-1
771998,St. Johannes Hospital,,53.392550366892,8.139644443972,Bleichenpfad,9,26316,"Varel, Jadebusen",DE,Germany (until 1990 former territory of the FRG),,,,,standort,,,,,,01/01/2020,28/03/2020,-1
772614,Krankenhaus Maria Hilf GmbH,,51.44174889685,8.355967283233,Hospitalstr.,3-7,59581,Warstein,DE,Germany (until 1990 former territory of the FRG),,,,,standort,,,,,,01/01/2020,28/03/2020,-1
771043,Krankenhaus St. Joseph-Stift Dresden,,51.047260729446,13.761893731153,Wintergartenstraße,15/17,01307,Dresden,DE,Germany (until 1990 former territory of the FRG),,,,,standort,,,,,,01/01/2020,28/03/2020,-1
771163,Standort,,47.834088760404,12.389730691975,Rasthausstraße,25,83233,Bernau am Chiemsee,DE,Germany (until 1990 former territory of the FRG),,,,,standort,,,,,,01/01/2020,28/03/2020,-1
771994,Lubinus Clinicum,,54.353174510392,10.116285771123,Steenbeker Weg,25,24106,Kiel,DE,Germany (until 1990 former territory of the FRG),,,,,standort,,,,,,01/01/2020,28/03/2020,-1
771993,Sankt Elisabeth Krankenhaus Kiel,,54.316855314927,10.127381131049,Königsweg,8,24103,Kiel,DE,Germany (until 1990 former territory of the FRG),,,,,standort,,,,,,01/01/2020,28/03/2020,-1
771563,Krankenhaus St. Josef,,51.260170938981,7.143887758239,Bergstr.,6 -12,42105,Wuppertal,DE,Germany (until 1990 former territory of the FRG),,,,,standort,,,,,,01/01/2020,28/03/2020,-1
771564,St. Anna-Klinik,,51.274514722201,7.142563820016,Vogelsangstraße,106,42109,Wuppertal,DE,Germany (until 1990 former territory of the FRG),,,,,standort,,,,,,01/01/2020,28/03/2020,-1
771562,Petrus-Krankenhaus,,51.275534912024,7.191768407756,Carnaper Str.,48,42283,Wuppertal,DE,Germany (until 1990 former territory of the FRG),,,,,standort,,,,,,01/01/2020,28/03/2020,-1
771846,Hauptstandort Telgte,,51.977963140494,7.764253199084,Am Rochus-Hospital,1,48291,Telgte,DE,Germany (until 1990 former territory of the FRG),,,,,standort,,,,,,01/01/2020,28/03/2020,-1
771845,Tagesklinik Warendorf,,51.947335528808,7.97716145217,Von-Ketteler-Straße,39,48231,Warendorf,DE,Germany (until 1990 former territory of the FRG),,,,,standort,,,,,,01/01/2020,28/03/2020,-1
771844,Tagesklinik Ahlen,,51.769618002432,7.883884951468,Parkstraße,49,59227,"Ahlen, Westfalen",DE,Germany (until 1990 former territory of the FRG),,,,,standort,,,,,,01/01/2020,28/03/2020,-1
772758,AMEOS Institut Süd,,48.26383405213,13.014651060039,Jakob-Weindler-Straße,1,84359,Simbach am Inn,DE,Germany (until 1990 former territory of the FRG),,,,,standort,,,,,,01/01/2020,28/03/2020,-1
772759,AMEOS Klinikum Inntal,,48.263782271136,13.01463979481,Jakob-Weindler-Straße,1,84359,Simbach am Inn,DE,Germany (until 1990 former territory of the FRG),,,,,standort,,,,,,01/01/2020,28/03/2020,-1
772495,Hauptstandort,,50.111161470425,10.992414593729,Am Kurpark,11,96231,Bad Staffelstein,DE,Germany (until 1990 former territory of the FRG),,,,,standort,,,,,,01/01/2020,28/03/2020,-1
773336,Psychiatrische Tagesklinik Preetz,,54.23624772599,10.28632897137,Wakendorfer Straße,18,24211,"Preetz, Holst",DE,Germany (until 1990 former territory of the FRG),,,,,standort,,,,,,01/01/2020,28/03/2020,-1
772549,Memmingen,,47.982971923559,10.169085323819,Bismarckstraße,23,87700,Memmingen,DE,Germany (until 1990 former territory of the FRG),,,,,standort,,,,,,01/01/2020,28/03/2020,-1
772653,Hauptstandort,,47.953166506683,9.635003328258,Safranmoosstraße,5,88326,"Aulendorf, Württemberg",DE,Germany (until 1990 former territory of the FRG),,,,,standort,,,,,,01/01/2020,28/03/2020,-1
771951,GRN-Klinik Sinsheim,,49.251958261548,8.890484064809,Alte Waibstadter Straße,2,74889,"Sinsheim, Elsenz",DE,Germany (until 1990 former territory of the FRG),,,,,standort,,,,,,01/01/2020,28/03/2020,-1
771584,Tagesklinik,,51.323694623637,6.966521322711,Südring,161,42579,Heiligenhaus,DE,Germany (until 1990 former territory of the FRG),,,,,standort,,,,,,01/01/2020,28/03/2020,-1
771585,Helios Klinikum Niederberg,,51.350371418841,7.01174873112,Robert-Koch-Straße,2,42549,Velbert,DE,Germany (until 1990 former territory of the FRG),,,,,standort,,,,,,01/01/2020,28/03/2020,-1
771586,ASV Rheumazentrum Ratingen,,51.297951554735,6.860622346385,Calor-Emag-Straße,3,40878,Ratingen,DE,Germany (until 1990 former territory of the FRG),,,,,standort,,,,,,01/01/2020,28/03/2020,-1
771907,Evangelisches Geriatriezentrum Berlin gGmbH,,52.554378711771,13.362906932962,Reinickendorfer Straße,61,13347,Berlin,DE,Germany (until 1990 former territory of the FRG),,,,,standort,,,,,,01/01/2020,28/03/2020,-1
771923,BG Klinikum Unfallkrankenhaus Berlin gGmbH,,52.519049415154,13.566016137584,Warener  Straße,7,12683,Berlin,DE,Germany (until 1990 former territory of the FRG),,,,,standort,,,,,,01/01/2020,28/03/2020,-1
773385,Hauptstandort,,48.084920459785,11.55648744103,Seybothstrasse,65,81545,München,DE,Germany (until 1990 former territory of the FRG),,,,,standort,,,,,,01/01/2020,28/03/2020,-1
772870,Hauptstandort,,53.423516218972,10.385719299447,Johannes-Ritter-Straße,100,21502,Geesthacht,DE,Germany (until 1990 former territory of the FRG),,,,,standort,,,,,,01/01/2020,28/03/2020,-1
773656,Standort Altperlach,,48.099778091228,11.63238336565,Putzbrunner Straße,9,81737,München,DE,Germany (until 1990 former territory of the FRG),,,,,standort,,,,,,01/01/2020,28/03/2020,-1
771952,GRN-Klinik Eberbach,,49.46337696797,8.990470513697,Scheuerberg,3,69412,"Eberbach, Baden",DE,Germany (until 1990 former territory of the FRG),,,,,standort,,,,,,01/01/2020,28/03/2020,-1
773405,Hauptstandort,,52.688817186788,7.292885273687,Ludmillenstraße,4-6,49716,Meppen,DE,Germany (until 1990 former territory of the FRG),,,,,standort,,,,,,01/01/2020,28/03/2020,-1
772924,Asklepios klinik Wandsbek,,53.569835328196,10.089032649994,Alphonsstraße,14,22043,Hamburg,DE,Germany (until 1990 former territory of the FRG),,,,,standort,,,,,,01/01/2020,28/03/2020,-1
772313,Helios Aukamm-Klinik Wiesbaden GmbH,,50.091255765061,8.265354216082,Leibnizstraße,21,65191,Wiesbaden,DE,Germany (until 1990 former territory of the FRG),,,,,standort,,,,,,01/01/2020,28/03/2020,-1
773542,Helios Kliniken Mittelweser GmbH- Krankenhaus Nienburg,,52.635514407833,9.223802768811,Ziegelkampstraße,39,31582,Nienburg(Weser),DE,Germany (until 1990 former territory of the FRG),,,,,standort,,,,,,01/01/2020,28/03/2020,-1
771350,"Krankenhaus für Psychiatrie, Psychotherapie und Psychosomatische Medizin Schloss Werneck",,49.978692609636,10.098724544032,Balthasar-Neumann-Platz,1,97440,Werneck,DE,Germany (until 1990 former territory of the FRG),,,,,standort,,,,,,01/01/2020,28/03/2020,-1
771349,Tagesklinik für Psychiatrie Schweinfurt,,50.055002536815,10.229472309343,Dittelbrunner Straße,13 - 15,97422,Schweinfurt,DE,Germany (until 1990 former territory of the FRG),,,,,standort,,,,,,01/01/2020,28/03/2020,-1
771304,Helios Klinik Lengerich,,52.19879125876,7.843791612904,Martin-Luther-Straße,49,49525,"Lengerich, Westfalen",DE,Germany (until 1990 former territory of the FRG),,,,,standort,,,,,,01/01/2020,28/03/2020,-1
771808,Standort 1,,50.806362446003,7.879177057771,Bahnhofstraße,24,57548,Kirchen(Sieg),DE,Germany (until 1990 former territory of the FRG),,,,,standort,,,,,,01/01/2020,28/03/2020,-1
772386,Krankenhaus,,52.555278906928,13.370569467479,Heinz-Galinski-Straße,1,13347,Berlin,DE,Germany (until 1990 former territory of the FRG),,,,,standort,,,,,,01/01/2020,28/03/2020,-1
772796,Marienhospital Stuttgart,,48.761254645194,9.163320243383,Böheimstraße,37,70199,Stuttgart,DE,Germany (until 1990 former territory of the FRG),,,,,standort,,,,,,01/01/2020,28/03/2020,-1
773307,Klinik Fallingbostel,,52.868827023068,9.706089699157,Kolkweg,1,29683,Bad Fallingbostel,DE,Germany (until 1990 former territory of the FRG),,,,,standort,,,,,,01/01/2020,28/03/2020,-1
771351,Orthopädisches Krankenhaus Schloss Werneck,,49.980161301004,10.101361960165,Balthasar-Neumann-Platz,1,97440,Werneck,DE,Germany (until 1990 former territory of the FRG),,,,,standort,,,,,,01/01/2020,28/03/2020,-1
772367,Bleicherode,,51.443248519549,10.56665253649,Barbarastraße,11,99752,Bleicherode,DE,Germany (until 1990 former territory of the FRG),,,,,standort,,,,,,01/01/2020,28/03/2020,-1
773444,"Universitätsklinikum Carl Gustav Carus an der TU Dresden, Fetscherstr. 74, 01307 Dresden",,51.056819087868,13.781290769675,Fetscherstr.,74,01307,Dresden,DE,Germany (until 1990 former territory of the FRG),,,,,standort,,,,,,01/01/2020,28/03/2020,-1
772008,Hauptstandort,,51.112182970769,9.108039915545,Dr.-Born-Straße,9,34537,Bad Wildungen,DE,Germany (until 1990 former territory of the FRG),,,,,standort,,,,,,01/01/2020,28/03/2020,-1
772377,Frauenklinik Dr. Geisenhofer GmbH,,48.151521195776,11.596060753,Hirschauer Straße,6,80538,München,DE,Germany (until 1990 former territory of the FRG),,,,,standort,,,,,,01/01/2020,28/03/2020,-1
773166,Evang. Krankenhaus Essen-Werden,,51.389826096284,7.00573603157,Pattbergstr.,1-3,45239,"Essen, Ruhr",DE,Germany (until 1990 former territory of the FRG),,,,,standort,,,,,,01/01/2020,28/03/2020,-1
773167,Evang. Krankenhaus Essen-Steele,,51.44219026249,7.06172844395,Am Deimelsberg,34a,45276,"Essen, Ruhr",DE,Germany (until 1990 former territory of the FRG),,,,,standort,,,,,,01/01/2020,28/03/2020,-1
773168,Evang. Huyssens-Stiftung in Essen-Huttrop,,51.441965400604,7.030423083343,Henricistr.,92,45136,"Essen, Ruhr",DE,Germany (until 1990 former territory of the FRG),,,,,standort,,,,,,01/01/2020,28/03/2020,-1
773533,Kliniken der Stadt Köln gGmbH - Kinderkrankenhaus Amsterdamer Strasse,,50.962863088277,6.966712832418,Amsterdamerstr.,59,50735,Köln,DE,Germany (until 1990 former territory of the FRG),,,,,standort,,,,,,01/01/2020,28/03/2020,-1
773534,Kliniken der Stadt gGmbH - Standort Holweide - Kinder-und Jugendpsychiatrie,,50.965094625798,7.056777119669,Florentine-Eichler-Str.,1,51067,Köln,DE,Germany (until 1990 former territory of the FRG),,,,,standort,,,,,,01/01/2020,28/03/2020,-1
773292,Psychiatrische Tagesklinik Buchholz,,53.333455000899,9.873097658092,Steinbecker Straße,44,21244,Buchholz in der Nordheide,DE,Germany (until 1990 former territory of the FRG),,,,,standort,,,,,,01/01/2020,28/03/2020,-1
773293,Psychiatrische Tagesklinik Stade Kinder und Jugendliche,,53.594598179178,9.44188594206,Bremervörder Straße,111,21682,"Stade, Niederelbe",DE,Germany (until 1990 former territory of the FRG),,,,,standort,,,,,,01/01/2020,28/03/2020,-1
773294,Psychiatrische Tagesklinik Heidekreis Kinder und Jugendliche,,52.989557896186,9.856532335216,Oeninger Weg,30,29614,Soltau,DE,Germany (until 1990 former territory of the FRG),,,,,standort,,,,,,01/01/2020,28/03/2020,-1
773295,Psychiatrische Institutsambulanz Uelzen Kinder und Jugendliche,,52.963249928723,10.552758157237,Dieterichsstraße,26,29525,"Uelzen, Lüneburger Heide",DE,Germany (until 1990 former territory of the FRG),,,,,standort,,,,,,01/01/2020,28/03/2020,-1
773296,Psychiatrische Institutsambulanz Winsen,,53.364454235416,10.204553782924,Deichstraße,1,21423,Winsen(Luhe),DE,Germany (until 1990 former territory of the FRG),,,,,standort,,,,,,01/01/2020,28/03/2020,-1
773297,Tagesklinik Uelzen Kinder und Jugendliche,,53.086512816218,10.592782080157,Lerchenweg,3,29549,Bad Bevensen,DE,Germany (until 1990 former territory of the FRG),,,,,standort,,,,,,01/01/2020,28/03/2020,-1
773507,Psychiatrische Klinik Lüneburg gGmbH,,53.253525897745,10.386661291122,Am Wienebütteler Weg,1,21339,Lüneburg,DE,Germany (until 1990 former territory of the FRG),,,,,standort,,,,,,01/01/2020,28/03/2020,-1
773602,Passauer Wolf Bad Gögging - Neurologisches Zentrum für Bewegungsstörungen,,48.819610678566,11.790887296183,Kaiser-Augustus-Straße,9,93333,Neustadt an der Donau,DE,Germany (until 1990 former territory of the FRG),,,,,standort,,,,,,01/01/2020,28/03/2020,-1
771734,Klinikum der Universität München - Standort Innenstadt,,48.132668345376,11.56221556666,Ziemssenstraße,1,80336,München,DE,Germany (until 1990 former territory of the FRG),,,,,standort,,,,,,01/01/2020,28/03/2020,-1
771735,Klinikum der Universität München - Außenstelle Tropenmedizin,,48.154081864292,11.582317113926,Leopoldstraße,5,80802,München,DE,Germany (until 1990 former territory of the FRG),,,,,standort,,,,,,01/01/2020,28/03/2020,-1
771736,Klinikum der Universität München - Standort Großhadern,,48.111138440404,11.471995174934,Marchioninistraße,15,81377,München,DE,Germany (until 1990 former territory of the FRG),,,,,standort,,,,,,01/01/2020,28/03/2020,-1
772336,Klinikum der Universität München - Außenstelle Augustinum,,48.122446592812,11.488039076312,Marchioninistraße,15,81377,München,DE,Germany (until 1990 former territory of the FRG),,,,,standort,,,,,,01/01/2020,28/03/2020,-1
771093,Haßberg-Kliniken Haus Haßfurt,,50.0403132101,10.514809727702,Hofheimer Straße,69,97437,Haßfurt,DE,Germany (until 1990 former territory of the FRG),,,,,standort,,,,,,01/01/2020,28/03/2020,-1
771094,Haßberg-Kliniken Haus Ebern,,50.097006387061,10.798469424281,Coburger Straße,21,96106,Ebern,DE,Germany (until 1990 former territory of the FRG),,,,,standort,,,,,,01/01/2020,28/03/2020,-1
771543,Helios Klinik Rottweil,,48.165042443185,8.612275958094,Krankenhausstraße,30,78628,Rottweil,DE,Germany (until 1990 former territory of the FRG),,,,,standort,,,,,,01/01/2020,28/03/2020,-1
771544,Albklinik,,48.404089859142,9.489466935388,Lautertalstraße,47,72525,"Münsingen, Württemberg",DE,Germany (until 1990 former territory of the FRG),,,,,standort,,,,,,01/01/2020,28/03/2020,-1
772023,Asklepios Orthopädische Klinik Hohwald,,51.046812185075,14.290974318965,Hohwaldstraße,40,01844,Neustadt i. Sam,DE,Germany (until 1990 former territory of the FRG),,,,,standort,,,,,,01/01/2020,28/03/2020,-1
772588,Asklepios Klinik Seligenstadt,,50.041686138228,8.964987516338,Dudenhöfer Straße,9,63500,"Seligenstadt, Hess",DE,Germany (until 1990 former territory of the FRG),,,,,standort,,,,,,01/01/2020,28/03/2020,-1
772704,Kreiskrankenhaus Frankenberg gGmbH,,51.062222506323,8.792190223928,Forststraße,9,35066,Frankenberg(Eder),DE,Germany (until 1990 former territory of the FRG),,,,,standort,,,,,,01/01/2020,28/03/2020,-1
773553,Helios Kliniken Mittelweser GmbH- Krankenhaus Stolzenau,,52.51483018802,9.068628931163,Holzhäuser Weg,28,31592,"Stolzenau, Weser",DE,Germany (until 1990 former territory of the FRG),,,,,standort,,,,,,01/01/2020,28/03/2020,-1
773298,St. Ansgar Krankenhaus,,51.78536599817,9.365723597871,Brenkhäuser Straße,71,37671,Höxter,DE,Germany (until 1990 former territory of the FRG),,,,,standort,,,,,,01/01/2020,28/03/2020,-1
773299,St. Vincenz Hospital,,51.72769994922,9.180609682148,Danziger Straße,17,33034,"Brakel, Westfalen",DE,Germany (until 1990 former territory of the FRG),,,,,standort,,,,,,01/01/2020,28/03/2020,-1
773300,St. Josef Hospital,,51.741993251764,9.01045219277,Elmarstraße,38,33014,Bad Driburg,DE,Germany (until 1990 former territory of the FRG),,,,,standort,,,,,,01/01/2020,28/03/2020,-1
773301,St. Rochus Krankenhaus,,51.856601380292,9.089313268514,Nieheimer Straße,34,32839,"Steinheim, Westfalen",DE,Germany (until 1990 former territory of the FRG),,,,,standort,,,,,,01/01/2020,28/03/2020,-1
771391,AGAPLESION EVANGELISCHES KRANKENHAUS Holzminden gGmbH,,51.834643855496,9.454921960896,Forster Weg,34,37603,Holzminden,DE,Germany (until 1990 former territory of the FRG),,,,,standort,,,,,,01/01/2020,28/03/2020,-1
772073,Hauptstandort,,54.065914474962,9.992158770528,Friesenstraße,11,24534,Neumünster,DE,Germany (until 1990 former territory of the FRG),,,,,standort,,,,,,01/01/2020,28/03/2020,-1
771565,Klinikum am Steinenberg,,48.483743343529,9.21819368004,Steinenbergstraße,31,72764,Reutlingen,DE,Germany (until 1990 former territory of the FRG),,,,,standort,,,,,,01/01/2020,28/03/2020,-1
771566,Ermstalklinik,,48.496248125295,9.389001309855,Stuttgarter Straße,100,72574,Bad Urach,DE,Germany (until 1990 former territory of the FRG),,,,,standort,,,,,,01/01/2020,28/03/2020,-1
772074,Kreiskrankenhaus Demmin GmbH,,53.902698241062,13.041572767388,Wollweberstraße,21,17109,"Demmin, Hansestadt",DE,Germany (until 1990 former territory of the FRG),,,,,standort,,,,,,01/01/2020,28/03/2020,-1
771936,Hauptstandort,,53.112105072622,8.217821824574,Rahel-Straus-Straße,10,26133,Oldenburg(Oldb),DE,Germany (until 1990 former territory of the FRG),,,,,standort,,,,,,01/01/2020,28/03/2020,-1
773465,Hauptstandort,,52.086288647157,11.638070583376,Gustav-Ricker-Straße,4,39120,Magdeburg,DE,Germany (until 1990 former territory of the FRG),,,,,standort,,,,,,01/01/2020,28/03/2020,-1
773603,Rheinisch-westfälisches Zentrum für Frührehabilitation und Beatmung in der Dr. Becker Rhein-Sieg-Klinik,,50.907410212183,7.549379825723,Höhenstraße,30,51588,Nümbrecht,DE,Germany (until 1990 former territory of the FRG),,,,,standort,,,,,,01/01/2020,28/03/2020,-1
771006,Klinikum Wahrendorff -Ilten/Köthenwald-,,52.344230214838,9.931095331899,Rudolf-Wahrendorff-Straße,22,31319,Sehnde,DE,Germany (until 1990 former territory of the FRG),,,,,standort,,,,,,01/01/2020,28/03/2020,-1
771007,Tagesklinik Borgentrickstr.,,52.338644678375,9.766833364947,Borgentrickstr.,4,30519,Hannover,DE,Germany (until 1990 former territory of the FRG),,,,,standort,,,,,,01/01/2020,28/03/2020,-1
771008,Tagesklinik Lehrte,,52.380165765524,9.982906758769,Manskestraße,22A,31275,Lehrte bei Hannover,DE,Germany (until 1990 former territory of the FRG),,,,,standort,,,,,,01/01/2020,28/03/2020,-1
771009,Tagesklinik Linden,,52.368204689553,9.720056444398,Schwarzer Bär,8,30449,Hannover,DE,Germany (until 1990 former territory of the FRG),,,,,standort,,,,,,01/01/2020,28/03/2020,-1
771010,Tageskliniken Gartenstr./Welfenplatz,,52.380632385695,9.746704459158,Gartenstraße,19,30161,Hannover,DE,Germany (until 1990 former territory of the FRG),,,,,standort,,,,,,01/01/2020,28/03/2020,-1
771270,Vitos psychiatrische Ambulanz Bad Emstal,,51.227946143158,9.260580897339,Landgraf-Philipp-Straße,9,34308,Bad Emstal,DE,Germany (until 1990 former territory of the FRG),,,,,standort,,,,,,01/01/2020,28/03/2020,-1
771270,Vitos psychiatrische Ambulanz Bad Emstal,,51.225705418675,9.261841535576,Klosterweg,2,34308,Bad Emstal,DE,Germany (until 1990 former territory of the FRG),,,,,standort,,,,,,01/01/2020,28/03/2020,-1
771279,"Vitos Klinik für Psychiatrie und Psychotherapie Bad Emstal, Haus 4",,51.226336998236,9.260339498528,Klosterweg,4,34308,Bad Emstal,DE,Germany (until 1990 former territory of the FRG),,,,,standort,,,,,,01/01/2020,28/03/2020,-1
771283,Vitos Klinik für Psychiatrie und Psychotherapie Kassel,,51.311762124477,9.429656624843,Wilhelmshöher Allee,345A,34131,"Kassel, Hess",DE,Germany (until 1990 former territory of the FRG),,,,,standort,,,,,,01/01/2020,28/03/2020,-1
771282,Vitos Klinik Bad Wilhelmshöhe,,51.313919860165,9.454394102113,Herkulesstraße,111,34119,"Kassel, Hess",DE,Germany (until 1990 former territory of the FRG),,,,,standort,,,,,,01/01/2020,28/03/2020,-1
771281,Vitos kinder- und jugendpsychiatrische Ambulanz und Tagesklinik Eschwege,,51.183520317536,10.053141287019,Luisenstraße,23,37269,Eschwege,DE,Germany (until 1990 former territory of the FRG),,,,,standort,,,,,,01/01/2020,28/03/2020,-1
771280,Vitos kinder- und jugendpsychiatrische Ambulanz und Tagesklinik Hofgeismar,,51.502522690086,9.402897861671,Gesundbrunnen,2,34369,Hofgeismar,DE,Germany (until 1990 former territory of the FRG),,,,,standort,,,,,,01/01/2020,28/03/2020,-1
771278,Vitos Klinik für Psychiatrie und Psychotherapie Hofgeismar,,51.496075005529,9.368926048287,Liebenauer Straße,1,34369,Hofgeismar,DE,Germany (until 1990 former territory of the FRG),,,,,standort,,,,,,01/01/2020,28/03/2020,-1
771277,Vitos psychiatrische Ambulanz und Tagesklinik Kassel,,51.313431989412,9.485602140435,Karthäuserstraße,3,34117,"Kassel, Hess",DE,Germany (until 1990 former territory of the FRG),,,,,standort,,,,,,01/01/2020,28/03/2020,-1
771276,Vitos psychiatrische Ambulanz und Tagesklinik Melsungen,,51.137185253334,9.539943695077,Kasseler Straße,80,34212,Melsungen,DE,Germany (until 1990 former territory of the FRG),,,,,standort,,,,,,01/01/2020,28/03/2020,-1
771275,Vitos kinder- und jugendpsychiatrische Ambulanz und Tagesklinik Wabern,,51.104594765265,9.341508507737,Kurfürstenstraße,26,34590,"Wabern, Hess",DE,Germany (until 1990 former territory of the FRG),,,,,standort,,,,,,01/01/2020,28/03/2020,-1
771274,Vitos kinder- und jugendpsychiatrische Ambulanz und Tagesklinik Korbach,,51.280466069401,8.867292129858,Skagerrakstraße,4,34497,Korbach,DE,Germany (until 1990 former territory of the FRG),,,,,standort,,,,,,01/01/2020,28/03/2020,-1
771273,Vitos kinder- und jugendpsychiatrische Ambulanz Witzenhausen,,51.342533067967,9.860111904441,Carl-Ludwig-Straße,20,37213,Witzenhausen,DE,Germany (until 1990 former territory of the FRG),,,,,standort,,,,,,01/01/2020,28/03/2020,-1
771272,Vito Klinik für Psychosomatik Kassel,,51.311752064865,9.42963516713,Wilhelmshöher Allee,345A,34131,"Kassel, Hess",DE,Germany (until 1990 former territory of the FRG),,,,,standort,,,,,,01/01/2020,28/03/2020,-1
772244,Helios Klinik Blankenhain,,50.859854352109,11.339337408526,Wirthstraße,5,99444,"Blankenhain, Thüringen",DE,Germany (until 1990 former territory of the FRG),,,,,standort,,,,,,01/01/2020,28/03/2020,-1
772305,"Klinikum Westbrandenburg, Standort Potsdam",,52.401382990772,13.065048694643,Charlottenstraße,72,14467,Potsdam,DE,Germany (until 1990 former territory of the FRG),,,,,standort,,,,,,01/01/2020,28/03/2020,-1
772306,"Klinikum Westbrandenburg, Standort Brandenburg a.d. Havel",,52.4138414325,12.545166850123,Hochstraße,29,14770,Brandenburg an der Havel,DE,Germany (until 1990 former territory of the FRG),,,,,standort,,,,,,01/01/2020,28/03/2020,-1
772167,Marienkrankenhaus Cochem,,50.155737767425,7.179316520887,Avallonstraße,32,56812,Cochem,DE,Germany (until 1990 former territory of the FRG),,,,,standort,,,,,,01/01/2020,28/03/2020,-1
772696,medius KLINIK OSTFILDERN - RUIT,,48.741633665497,9.254379630056,Hedelfinger Straße,166,73760,Ostfildern,DE,Germany (until 1990 former territory of the FRG),,,,,standort,,,,,,01/01/2020,28/03/2020,-1
772994,Klinikgebäude,,49.359312861769,12.158093149819,Lindenlohe,18,92421,"Schwandorf, Bayern",DE,Germany (until 1990 former territory of the FRG),,,,,standort,,,,,,01/01/2020,28/03/2020,-1
773648,Hauptstandort,,50.11826840075,11.61301930435,Goldene Adlerhütte,2,95339,Wirsberg,DE,Germany (until 1990 former territory of the FRG),,,,,standort,,,,,,01/01/2020,28/03/2020,-1
771138,Hauptstandort,,49.40264302376,8.688714086993,Landhausstraße,25,69115,"Heidelberg, Neckar",DE,Germany (until 1990 former territory of the FRG),,,,,standort,,,,,,01/01/2020,28/03/2020,-1
772912,Limburg,,50.387810499459,8.051592886432,Auf dem Schafsberg,0,65549,Limburg an der Lahn,DE,Germany (until 1990 former territory of the FRG),,,,,standort,,,,,,01/01/2020,28/03/2020,-1
773162,Klinik,,51.212824209987,9.705641502096,Am Mühlenberg,20,37235,Hessisch Lichtenau,DE,Germany (until 1990 former territory of the FRG),,,,,standort,,,,,,01/01/2020,28/03/2020,-1
773305,"AMEOS Klinikum Haldensleben, Somatik",,52.285076554018,11.377711772166,Kiefholzstraße,27,39340,Haldensleben,DE,Germany (until 1990 former territory of the FRG),,,,,standort,,,,,,01/01/2020,28/03/2020,-1
771080,München Klinik Bogenhausen,,48.155259263671,11.624686360392,Englschalkinger Straße,77,81925,München,DE,Germany (until 1990 former territory of the FRG),,,,,standort,,,,,,01/01/2020,28/03/2020,-1
771608,Hauptstandort,,52.198412712174,8.336137711985,Engelgarten,3,49324,"Melle, Wiehengeb",DE,Germany (until 1990 former territory of the FRG),,,,,standort,,,,,,01/01/2020,28/03/2020,-1
771416,Waldshut,,47.622573569654,8.20764105767,Kaiserstraße,95,79761,Waldshut-Tiengen,DE,Germany (until 1990 former territory of the FRG),,,,,standort,,,,,,01/01/2020,28/03/2020,-1
771547,Lungenklinik Neustadt,,51.560000720476,10.839835524657,Badestraße,23,99762,Neustadt/Harz,DE,Germany (until 1990 former territory of the FRG),,,,,standort,,,,,,01/01/2020,28/03/2020,-1
771986,Freital,,50.991660570445,13.645339464893,Bürgerstr.,7,01705,Freital,DE,Germany (until 1990 former territory of the FRG),,,,,standort,,,,,,01/01/2020,28/03/2020,-1
771985,Klinik Dippoldiswalde,,50.901410457206,13.667824315671,Rabenauer Straße,9,01744,Dippoldiswalde,DE,Germany (until 1990 former territory of the FRG),,,,,standort,,,,,,01/01/2020,28/03/2020,-1
771987,Pädiatrie Pirna,,50.95851525232,13.952973389351,Struppener Str.,13,01796,Pirna,DE,Germany (until 1990 former territory of the FRG),,,,,standort,,,,,,01/01/2020,28/03/2020,-1
772959,Standort Bad Soden,,50.144632634797,8.509577821205,Sebastian-Kneipp-Straße,11,65812,Bad Soden am Taunus,DE,Germany (until 1990 former territory of the FRG),,,,,standort,,,,,,01/01/2020,28/03/2020,-1
772960,Standort Kiedrich,,50.043940411477,8.080659662937,Suttonstraße,24,65399,"Kiedrich, Rheingau",DE,Germany (until 1990 former territory of the FRG),,,,,standort,,,,,,01/01/2020,28/03/2020,-1
772378,Städt. Klinikum Görlitz gGmbH,,51.161540703266,14.969681301154,Girbigsdorfer Straße,1-3,02828,"Görlitz, Neiße",DE,Germany (until 1990 former territory of the FRG),,,,,standort,,,,,,01/01/2020,28/03/2020,-1
773306,MediClin Krankenhaus am Crivitzer See,,53.575004444812,11.648212764958,Amtsstraße,1,19089,Crivitz,DE,Germany (until 1990 former territory of the FRG),,,,,standort,,,,,,01/01/2020,28/03/2020,-1
773619,Donau-Ries Klinik Donauwörth,,48.724110670375,10.754439353959,Neudegger Allee,6,86609,Donauwörth,DE,Germany (until 1990 former territory of the FRG),,,,,standort,,,,,,01/01/2020,28/03/2020,-1
773620,Stiftungskrankenhaus Nördlingen,,48.837036815159,10.498657465014,Stoffelsberg,4,86720,Nördlingen,DE,Germany (until 1990 former territory of the FRG),,,,,standort,,,,,,01/01/2020,28/03/2020,-1
773621,Donau-Ries Klinik Oettingen,,48.956965663396,10.597310185449,Kellerstraße,15,86732,Oettingen in Bayern,DE,Germany (until 1990 former territory of the FRG),,,,,standort,,,,,,01/01/2020,28/03/2020,-1
771082,München Klinik Thalkirchner Straße,,48.128759452289,11.564486861262,Thalkirchner Straße,48,80337,München,DE,Germany (until 1990 former territory of the FRG),,,,,standort,,,,,,01/01/2020,28/03/2020,-1
771573,Hauptstandort,,52.497606316962,7.488681435552,Klosterstraße,4,49832,"Thuine, Emsl",DE,Germany (until 1990 former territory of the FRG),,,,,standort,,,,,,01/01/2020,28/03/2020,-1
771430,Hauptstandort,,48.023886676398,7.815443426371,Wirthstraße,11,79110,Freiburg im Breisgau,DE,Germany (until 1990 former territory of the FRG),,,,,standort,,,,,,01/01/2020,28/03/2020,-1
771430,Hauptstandort,,48.023886676398,7.815443426371,Wirthstraße,11,79110,Freiburg im Breisgau,DE,Germany (until 1990 former territory of the FRG),,,,,standort,,,,,,01/01/2020,28/03/2020,-1
771310,Hauptstandort,,48.917105955223,12.810395479137,Dekan-Graf-Straße,2-6,94374,"Schwarzach, Niederbayern",DE,Germany (until 1990 former territory of the FRG),,,,,standort,,,,,,01/01/2020,28/03/2020,-1
773371,Helios Dr. Horst-Schmidt-Kliniken,,50.065690632694,8.191581665733,Ludwig-Erhard-Straße,100,65199,Wiesbaden,DE,Germany (until 1990 former territory of the FRG),,,,,standort,,,,,,01/01/2020,28/03/2020,-1
773141,Helios Wilhelm Fresenius Klinik,,50.087525286587,8.274588042509,Aukammallee,39,65191,Wiesbaden,DE,Germany (until 1990 former territory of the FRG),,,,,standort,,,,,,01/01/2020,28/03/2020,-1
772000,Herne-Mitte,,51.534453885174,7.230587482518,Wiescherstraße,24,44623,"Herne, Westfalen",DE,Germany (until 1990 former territory of the FRG),,,,,standort,,,,,,01/01/2020,28/03/2020,-1
771999,Herne-Eickel,,51.510657213551,7.175529241595,Hordeler Str.,7-9,44651,Herne,DE,Germany (until 1990 former territory of the FRG),,,,,standort,,,,,,01/01/2020,28/03/2020,-1
772463,Potsdamer Chaussee 69,,52.423614771379,13.204680472604,Potsdamer Chaussee,69,14129,Berlin,DE,Germany (until 1990 former territory of the FRG),,,,,standort,,,,,,01/01/2020,28/03/2020,-1
772464,Kamenzer Damm 1,,52.434132451463,13.356549829236,Kamenzer Damm,1E,12249,Berlin,DE,Germany (until 1990 former territory of the FRG),,,,,standort,,,,,,01/01/2020,28/03/2020,-1
772321,Johanniter Tagesklinik Düsseldorf gGmbH   Klinik für Psychiatrie und Psychotherapie,,51.164464915594,6.86401265858,Marbacher Str.,79-81,40597,Düsseldorf,DE,Germany (until 1990 former territory of the FRG),,,,,standort,,,,,,01/01/2020,28/03/2020,-1
771083,München Klinik Harlaching,,48.085567292582,11.557083964381,Sanatoriumsplatz,2,81545,München,DE,Germany (until 1990 former territory of the FRG),,,,,standort,,,,,,01/01/2020,28/03/2020,-1
771308,Klinikum Fichtelgebirge - Haus Marktredwitz,,50.001792732594,12.067034768852,Schillerhain,1,95615,Marktredwitz,DE,Germany (until 1990 former territory of the FRG),,,,,standort,,,,,,01/01/2020,28/03/2020,-1
771309,Klinikum Fichtelgebirge - Haus Selb,,50.16874332031,12.118507862124,Weißenbacher Straße,62,95100,Selb,DE,Germany (until 1990 former territory of the FRG),,,,,standort,,,,,,01/01/2020,28/03/2020,-1
773618,die stadtklinik im diako,,48.368319252393,10.888340055967,Frölichstraße,17,86150,"Augsburg, Bayern",DE,Germany (until 1990 former territory of the FRG),,,,,standort,,,,,,01/01/2020,28/03/2020,-1
771779,Fachklinik Hornheide,,52.01326383455,7.709048509532,Dorbaumstraße,300,48157,"Münster, Westfalen",DE,Germany (until 1990 former territory of the FRG),,,,,standort,,,,,,01/01/2020,28/03/2020,-1
772029,Evangelische Kliniken Luise-Henrietten-Stift Lehnin,,52.322206966322,12.744667321449,Klosterkirchplatz,8a,14797,Kloster Lehnin,DE,Germany (until 1990 former territory of the FRG),,,,,standort,,,,,,01/01/2020,28/03/2020,-1
772846,"Kaiserswerther Diakonie        Florence-Nightingale-Krankenhaus, Kreuzbergstrasse 79, 40489 Düsseldorf",,51.300317890771,6.749400258032,Kreuzbergstraße,79,40489,Düsseldorf,DE,Germany (until 1990 former territory of the FRG),,,,,standort,,,,,,01/01/2020,28/03/2020,-1
773540,Waldklinik Bernburg GmbH,,51.79329531819,11.718135595256,Keßlerstraße,8,06406,Bernburg(Saale),DE,Germany (until 1990 former territory of the FRG),,,,,standort,,,,,,01/01/2020,28/03/2020,-1
771084,München Klinik Neuperlach,,48.095395999887,11.656508088145,Oskar-Maria-Graf-Ring,51,81737,München,DE,Germany (until 1990 former territory of the FRG),,,,,standort,,,,,,01/01/2020,28/03/2020,-1
771144,Hauptstandort,,49.0070151794,12.118438124689,Landshuter Straße,65,93053,Regensburg,DE,Germany (until 1990 former territory of the FRG),,,,,standort,,,,,,01/01/2020,28/03/2020,-1
773137,Hauptstandort,,47.787945360369,9.621534937132,Elisabethenstraße,15,88212,"Ravensburg, Württemberg",DE,Germany (until 1990 former territory of the FRG),,,,,standort,,,,,,01/01/2020,28/03/2020,-1
772016,St. Josef Krankenhaus Essen-Werden GmbH,,51.389033346782,7.00595211998,Propsteistr.,2,45239,"Essen, Ruhr",DE,Germany (until 1990 former territory of the FRG),,,,,standort,,,,,,01/01/2020,28/03/2020,-1
772016,St. Josef Krankenhaus Essen-Werden GmbH,,51.389033346782,7.00595211998,Propsteistr.,2,45239,"Essen, Ruhr",DE,Germany (until 1990 former territory of the FRG),,,,,standort,,,,,,01/01/2020,28/03/2020,-1
772682,Einziger Standort,,49.290550240755,7.113414645228,Klaus-Tussing-Straße,1,66386,St. Ingbert,DE,Germany (until 1990 former territory of the FRG),,,,,standort,,,,,,01/01/2020,28/03/2020,-1
773309,Zentrale Notaufnahme,,48.048700332184,10.855548977852,Bürgermeister-Dr.-Hartmann-Straße,50,86899,Landsberg am Lech,DE,Germany (until 1990 former territory of the FRG),,,,,standort,,,,,,01/01/2020,28/03/2020,-1
771085,München Klinik Schwabing,,48.170562997054,11.577624321017,Kölner Platz,1,80804,München,DE,Germany (until 1990 former territory of the FRG),,,,,standort,,,,,,01/01/2020,28/03/2020,-1
771908,Wichernkrankenhaus inklusive Tagesklinik,,52.569410528029,13.192334532787,Schönwalder Allee,26,13587,Berlin,DE,Germany (until 1990 former territory of the FRG),,,,,standort,,,,,,01/01/2020,28/03/2020,-1
772024,Inselkrankenhaus Borkum,,53.58488183671,6.671117305887,Gartenstraße,20,26757,Borkum,DE,Germany (until 1990 former territory of the FRG),,,,,standort,,,,,,01/01/2020,28/03/2020,-1
772553,Tagesklinik Mayen,,50.326201063534,7.218805342904,Siegfriedstraße,20,56727,Mayen,DE,Germany (until 1990 former territory of the FRG),,,,,standort,,,,,,01/01/2020,28/03/2020,-1
772439,Tagesklinik Cochem,,50.154834687447,7.178239613763,Avallonstraße,30,56812,Cochem,DE,Germany (until 1990 former territory of the FRG),,,,,standort,,,,,,01/01/2020,28/03/2020,-1
772551,Rhein-Mosel-Fachklinik,,50.428970325021,7.397550433866,Vulkanstraße,58,56626,Andernach,DE,Germany (until 1990 former territory of the FRG),,,,,standort,,,,,,01/01/2020,28/03/2020,-1
772552,Tagesklinik Koblenz,,50.349074891983,7.590063706036,Neversstraße,11,56068,Koblenz am Rhein,DE,Germany (until 1990 former territory of the FRG),,,,,standort,,,,,,01/01/2020,28/03/2020,-1
772955,Helios Klinikum Emil von Behring,,52.422884442758,13.25299161671,Walterhöferstraße,11,14165,Berlin,DE,Germany (until 1990 former territory of the FRG),,,,,standort,,,,,,01/01/2020,28/03/2020,-1
773692,Perinatalzentrum Schnelsen,,53.631448907265,9.905438303986,Süntelstraße,11a,22457,Hamburg,DE,Germany (until 1990 former territory of the FRG),,,,,standort,,,,,,01/01/2020,28/03/2020,-1
773693,Hauptstandort,,53.551159545356,9.913026809845,Bleickenallee,38,22763,Hamburg,DE,Germany (until 1990 former territory of the FRG),,,,,standort,,,,,,01/01/2020,28/03/2020,-1
773608,Helios Klinikum Berlin-Buch,,52.631418701813,13.511301755971,Schwanebecker Chaussee,50,13125,Berlin,DE,Germany (until 1990 former territory of the FRG),,,,,standort,,,,,,01/01/2020,28/03/2020,-1
771052,Oberhavel Klinik Gransee GmbH,,52.999037967658,13.144247111663,Meseberger Weg,12-13,16775,Gransee,DE,Germany (until 1990 former territory of the FRG),,,,,standort,,,,,,01/01/2020,28/03/2020,-1
771457,Sana Krankenhaus Radevormwald,,51.19860988881,7.351010084185,Siepenstraße,33,42477,Radevormwald,DE,Germany (until 1990 former territory of the FRG),,,,,standort,,,,,,01/01/2020,28/03/2020,-1
772262,Hauptstandort,,50.788435460491,7.218443512884,Mühlengrabenstr.,2,53721,Siegburg,DE,Germany (until 1990 former territory of the FRG),,,,,standort,,,,,,01/01/2020,28/03/2020,-1
773200,Evangelisches Krankenhaus Bergisch Gladbach gGmbH,,50.990031223958,7.137549161944,Ferrenbergstraße,24,51465,Bergisch Gladbach,DE,Germany (until 1990 former territory of the FRG),,,,,standort,,,,,,01/01/2020,28/03/2020,-1
773328,Fachklinik Freudenholm-Ruhleben,,54.137210295381,10.446381747706,Missionsweg,3,24306,Bösdorf bei Plön,DE,Germany (until 1990 former territory of the FRG),,,,,standort,,,,,,01/01/2020,28/03/2020,-1
773329,Fachklink Freudenholm-Ruhleben,,54.216950736336,10.311813712087,Freudenholm,3,24211,"Schellhorn bei Preetz, Holst",DE,Germany (until 1990 former territory of the FRG),,,,,standort,,,,,,01/01/2020,28/03/2020,-1
771011,Harzklinikum  Standort Quedlinburg,,51.795329141617,11.163533091594,Ditfurter Weg,24,06484,Quedlinburg,DE,Germany (until 1990 former territory of the FRG),,,,,standort,,,,,,01/01/2020,28/03/2020,-1
771012,"Harzklinikum, Standort Wernigerode",,51.835429468458,10.77440893655,Ilsenburger Straße,15,38855,Wernigerode,DE,Germany (until 1990 former territory of the FRG),,,,,standort,,,,,,01/01/2020,28/03/2020,-1
771013,Klinik für Kinder-und Jugendmedizin,,51.81654941914,10.74723976853,Steinbergstraße,1,38855,Wernigerode,DE,Germany (until 1990 former territory of the FRG),,,,,standort,,,,,,01/01/2020,28/03/2020,-1
771014,Klinik für Psychiatrie und Psychotherapie,,51.792862330888,10.955030500913,Tiestraße,7 - 10,38889,Blankenburg,DE,Germany (until 1990 former territory of the FRG),,,,,standort,,,,,,01/01/2020,28/03/2020,-1
771996,Krankenhaus Neuenbürg,,48.852759102414,8.588635504229,Marxzeller Straße,46,75305,"Neuenbürg, Württemberg",DE,Germany (until 1990 former territory of the FRG),,,,,standort,,,,,,01/01/2020,28/03/2020,-1
772369,VAMED Klinik Schloss Pulsnitz,,51.179913789671,14.014127432874,Wittgensteiner Straße,1,01896,Pulsnitz,DE,Germany (until 1990 former territory of the FRG),,,,,standort,,,,,,01/01/2020,28/03/2020,-1
772833,Hauptstandort,,50.936776052749,6.904641151559,Aachener Str.,445,50933,Köln,DE,Germany (until 1990 former territory of the FRG),,,,,standort,,,,,,01/01/2020,28/03/2020,-1
772876,Klinikum Werra-Meißner GmbH - Standort Eschwege,,51.18258131113,10.050348758714,Elsa-Brändström-Straße,1,37269,Eschwege,DE,Germany (until 1990 former territory of the FRG),,,,,standort,,,,,,01/01/2020,28/03/2020,-1
772877,Klinikum Werra-Meißner GmbH - Standort Witzenhausen,,51.343361885523,9.859974145897,Steinstraße,18-26,37213,Witzenhausen,DE,Germany (until 1990 former territory of the FRG),,,,,standort,,,,,,01/01/2020,28/03/2020,-1
772878,Psychiatrische Institutsambulanz Eschwege,,51.186006028275,10.047912776454,Reichensächser Straße,21,37269,Eschwege,DE,Germany (until 1990 former territory of the FRG),,,,,standort,,,,,,01/01/2020,28/03/2020,-1
772879,Psychiatrische Institutsambulanz Hessisch-Lichtenau,,51.19649211642,9.723537147029,Heinrichstraße,13,37235,Hessisch Lichtenau,DE,Germany (until 1990 former territory of the FRG),,,,,standort,,,,,,01/01/2020,28/03/2020,-1
773331,Psychiatrische Institutsambulanz Rickling in Kaltenkirchen,,53.831703586309,9.960637450185,Flottkamp,15a,24568,"Kaltenkirchen, Holst",DE,Germany (until 1990 former territory of the FRG),,,,,standort,,,,,,01/01/2020,28/03/2020,-1
773330,Psychiatrische Institusambulanz Rickling in Bad Segeberg,,53.94387143271,10.303659796682,Schillerstraße,13a,23795,Bad Segeberg,DE,Germany (until 1990 former territory of the FRG),,,,,standort,,,,,,01/01/2020,28/03/2020,-1
773365,Psychiatrische Institutsambulanz Rickling in Norderstedt,,53.736325771407,9.988229066125,Beim Umspannwerk,6,22844,Norderstedt,DE,Germany (until 1990 former territory of the FRG),,,,,standort,,,,,,01/01/2020,28/03/2020,-1
773366,Psychiatrisches Krankenhaus Rickling,,53.999535096333,10.174523770793,Daldorfer Straße,2,24635,Rickling,DE,Germany (until 1990 former territory of the FRG),,,,,standort,,,,,,01/01/2020,28/03/2020,-1
771666,Hauptstandort,,49.705675494301,10.804631155543,Spitalstraße,5,91315,Höchstadt an der Aisch,DE,Germany (until 1990 former territory of the FRG),,,,,standort,,,,,,01/01/2020,28/03/2020,-1
771166,Haupstandort,,51.144133726251,8.325611114633,Annostraße,1,57392,Schmallenberg,DE,Germany (until 1990 former territory of the FRG),,,,,standort,,,,,,01/01/2020,28/03/2020,-1
771346,kbo-Lech-Mangfall-Klinik Agatharied,,47.767159346046,11.827181339395,St.-Agatha-Straße,1a,83734,Hausham,DE,Germany (until 1990 former territory of the FRG),,,,,standort,,,,,,01/01/2020,28/03/2020,-1
772782,Helios Klinikum Krefeld,,51.319885882105,6.565841674346,Lutherplatz,40,47805,Krefeld,DE,Germany (until 1990 former territory of the FRG),,,,,standort,,,,,,01/01/2020,28/03/2020,-1
772315,Helios Cäcilien Hospital Hüls,,51.376167951067,6.514596462266,Fette Henn,50,47839,Krefeld,DE,Germany (until 1990 former territory of the FRG),,,,,standort,,,,,,01/01/2020,28/03/2020,-1
771789,Hephata-Klinik,,50.909542936904,9.167831718905,Schimmelpfengstraße,6,34613,Schwalmstadt,DE,Germany (until 1990 former territory of the FRG),,,,,standort,,,,,,01/01/2020,28/03/2020,-1
772388,Psychiatrische Tagklinik Lindau,,47.546772023759,9.688163638148,Fischergasse,14,88131,Lindau(Bodensee),DE,Germany (until 1990 former territory of the FRG),,,,,standort,,,,,,01/01/2020,28/03/2020,-1
772604,Hauptstandort,,51.945977756306,14.714145898688,Dr.-Ayrer-Straße,1,03172,Guben,DE,Germany (until 1990 former territory of the FRG),,,,,standort,,,,,,01/01/2020,28/03/2020,-1
773216,Standort 00 LWL-Klinik Warstein,,51.459829692291,8.364730596477,Franz-Hegemann-Straße,23,59581,Warstein,DE,Germany (until 1990 former territory of the FRG),,,,,standort,,,,,,01/01/2020,28/03/2020,-1
773615,Paracelsus Krankenhaus Unterlengenhardt e.V.,,48.781873613018,8.723368227465,Burghaldenweg,60,75378,Bad Liebenzell,DE,Germany (until 1990 former territory of the FRG),,,,,standort,,,,,,01/01/2020,28/03/2020,-1
771226,St. Josef Krankenhaus Moers,,51.445547477624,6.639752465771,Asberger Straße,4,47441,Moers,DE,Germany (until 1990 former territory of the FRG),,,,,standort,,,,,,01/01/2020,28/03/2020,-1
771227,St. Nikolaus Hospital Rheinberg,,51.54160814473,6.608257537946,Orsoyer Straße,55,47495,Rheinberg,DE,Germany (until 1990 former territory of the FRG),,,,,standort,,,,,,01/01/2020,28/03/2020,-1
771345,kbo-Lech-Mangfall-Klinik Landsberg am Lech,,48.048473259358,10.855728149545,Bürgermeister-Dr.-Hartmann-Straße,50 -52,86899,Landsberg am Lech,DE,Germany (until 1990 former territory of the FRG),,,,,standort,,,,,,01/01/2020,28/03/2020,-1
772834,Katholisches Klinkum Mainz (Hauptstandort),,49.989290260498,8.270441025643,An der Goldgrube,11,55131,Mainz am Rhein,DE,Germany (until 1990 former territory of the FRG),,,,,standort,,,,,,01/01/2020,28/03/2020,-1
771805,"Biedermannstraße 84, 04277 Leipzig",,51.30319757913,12.37856197331,Biedermannstraße,84,04277,Leipzig,DE,Germany (until 1990 former territory of the FRG),,,,,standort,,,,,,01/01/2020,28/03/2020,-1
773158,Asklepios Stadtklinik,,51.117245594667,9.114189147622,Brunnenallee,19,34537,Bad Wildungen,DE,Germany (until 1990 former territory of the FRG),,,,,standort,,,,,,01/01/2020,28/03/2020,-1
772948,Standort 02 LWL-Klinik Lippstadt/Tagesklinik Psychiatrie Lippstadt,,51.679653919156,8.341642141277,Am Nordbahnhof,15,59555,Lippstadt,DE,Germany (until 1990 former territory of the FRG),,,,,standort,,,,,,01/01/2020,28/03/2020,-1
773215,Standort 01 LWL-Klinik Lippstadt,,51.655964835945,8.234890222484,Im Hofholz,6,59556,Lippstadt,DE,Germany (until 1990 former territory of the FRG),,,,,standort,,,,,,01/01/2020,28/03/2020,-1
772947,Standort 03 LWL-Klinik Lippstadt/Tagesklinik Psychiatrie Soest,,51.574837906615,8.11121025682,Widumgasse,3,59494,"Soest, Westfalen",DE,Germany (until 1990 former territory of the FRG),,,,,standort,,,,,,01/01/2020,28/03/2020,-1
773532,Hauptstandort,,50.361702756107,11.634557958751,Berliner Str.,2,95138,Bad Steben,DE,Germany (until 1990 former territory of the FRG),,,,,standort,,,,,,01/01/2020,28/03/2020,-1
771042,Standort Heide,,54.199694819113,9.080427056679,Esmarchstraße,50,25746,"Heide, Holst",DE,Germany (until 1990 former territory of the FRG),,,,,standort,,,,,,01/01/2020,28/03/2020,-1
771041,Standort Brunsbüttel,,53.899929843295,9.145465904248,Delbrückstraße,2,25541,Brunsbüttel,DE,Germany (until 1990 former territory of the FRG),,,,,standort,,,,,,01/01/2020,28/03/2020,-1
771147,gpz Gemeindepsychiatrisches Zentrum,,51.945245327406,8.891151130183,Schlabrendorffweg,2-6,32756,Detmold,DE,Germany (until 1990 former territory of the FRG),,,,,standort,,,,,,01/01/2020,28/03/2020,-1
771148,Tagesklinik Horn-Bad Meinberg,,51.894789743776,8.987682223369,Pyrmonter Straße,12c,32805,Horn-Bad Meinberg,DE,Germany (until 1990 former territory of the FRG),,,,,standort,,,,,,01/01/2020,28/03/2020,-1
771149,Tagesklinik Lage,,51.992991839318,8.793876528789,Hindenburgstraße,1,32791,"Lage, Lippe",DE,Germany (until 1990 former territory of the FRG),,,,,standort,,,,,,01/01/2020,28/03/2020,-1
771319,kbo-Lech-Mangfall-Klinik Peißenberg,,47.800113712925,11.072006464037,Hauptstraße,55,82380,Peißenberg,DE,Germany (until 1990 former territory of the FRG),,,,,standort,,,,,,01/01/2020,28/03/2020,-1
771344,kbo-Lech-Mangfall-Klinik Garmisch-Partenkirchen,,47.48325707461,11.128948688638,Auenstraße,6,82467,Garmisch-Partenkirchen,DE,Germany (until 1990 former territory of the FRG),,,,,standort,,,,,,01/01/2020,28/03/2020,-1
772810,Klinikum Bayreuth,,49.94384828447,11.534236907992,Preuschwitzer Straße,101,95445,Bayreuth,DE,Germany (until 1990 former territory of the FRG),,,,,standort,,,,,,01/01/2020,28/03/2020,-1
772661,Klinik Hohe Warte Bayreuth,,49.96700357452,11.584785819086,Hohe Warte,8,95445,Bayreuth,DE,Germany (until 1990 former territory of the FRG),,,,,standort,,,,,,01/01/2020,28/03/2020,-1
772595,Paracelsus-Klinik Golzheim,,51.254307612708,6.759437084329,Friedrich-Lau-Straße,11,40474,Düsseldorf,DE,Germany (until 1990 former territory of the FRG),,,,,standort,,,,,,01/01/2020,28/03/2020,-1
772954,Hauptstandort,,51.155795604281,10.841630597133,Badeweg,2,99955,Bad Tennstedt,DE,Germany (until 1990 former territory of the FRG),,,,,standort,,,,,,01/01/2020,28/03/2020,-1
773326,Hauptstandort,,52.277359874648,8.003710107878,Am Finkenhügel,1,49076,Osnabrück,DE,Germany (until 1990 former territory of the FRG),,,,,standort,,,,,,01/01/2020,28/03/2020,-1
773327,Infektiologisches Zentrum,,52.291979501499,8.003559904173,Sedanstraße,115,49090,Osnabrück,DE,Germany (until 1990 former territory of the FRG),,,,,standort,,,,,,01/01/2020,28/03/2020,-1
771003,Hauptstandort,,54.07175069965,12.107268333402,Südring,81,18059,Rostock,DE,Germany (until 1990 former territory of the FRG),,,,,standort,,,,,,01/01/2020,28/03/2020,-1
772564,Ludwig-Noll Krankenhaus,,51.270380036772,9.48870491975,Dennhäuser Straße,156,34134,"Kassel, Hess",DE,Germany (until 1990 former territory of the FRG),,,,,standort,,,,,,01/01/2020,28/03/2020,-1
772565,Klinikum Kassel,,51.328164739627,9.509411573345,Mönchebergstraße,41-43,34125,"Kassel, Hess",DE,Germany (until 1990 former territory of the FRG),,,,,standort,,,,,,01/01/2020,28/03/2020,-1
771786,Haupthaus,,48.565603604898,8.155235481272,Markgraf-Bernhard-Straße,2,77883,Ottenhöfen im Schwarzwald,DE,Germany (until 1990 former territory of the FRG),,,,,standort,,,,,,01/01/2020,28/03/2020,-1
771787,Tagesklinik Achern,,48.630278125446,8.071950477306,Kirchstraße,1,77855,"Achern, Baden",DE,Germany (until 1990 former territory of the FRG),,,,,standort,,,,,,01/01/2020,28/03/2020,-1
772466,Hauptstandort,,53.258854772451,7.917847216113,Lange Straße,38,26655,Westerstede,DE,Germany (until 1990 former territory of the FRG),,,,,standort,,,,,,01/01/2020,28/03/2020,-1
772762,Heinrich Sengelmann Tagesklinik Ahrensburg,,53.672676259449,10.241473317228,Carl-Barkmann-Straße,5,22926,Ahrensburg,DE,Germany (until 1990 former territory of the FRG),,,,,standort,,,,,,01/01/2020,28/03/2020,-1
772763,Heinrich Sengelmann Tagesklinik Bargteheide,,53.730688444294,10.263334393526,Mittelweg,5-7,22941,Bargteheide,DE,Germany (until 1990 former territory of the FRG),,,,,standort,,,,,,01/01/2020,28/03/2020,-1
772764,Heinrich Sengelmann Tagesklinik Reinbek,,53.52150482226,10.246197223614,Kinauweg,9,21465,Reinbek,DE,Germany (until 1990 former territory of the FRG),,,,,standort,,,,,,01/01/2020,28/03/2020,-1
772868,Heinrich Sengelmann Krankenhaus,,53.757380601104,10.153661012027,Kayhuder Straße,65,23863,Bargfeld-Stegen,DE,Germany (until 1990 former territory of the FRG),,,,,standort,,,,,,01/01/2020,28/03/2020,-1
773399,Heinrich Sengelmann Tagesklinik Hamburg Uhlenhorst,,53.574437024027,10.021689891864,Winterhuder Weg,29,22085,Hamburg,DE,Germany (until 1990 former territory of the FRG),,,,,standort,,,,,,01/01/2020,28/03/2020,-1
772953,Damme,,52.521027497434,8.194305516968,Lindenstraße,3-7,49401,"Damme, Dümmer",DE,Germany (until 1990 former territory of the FRG),,,,,standort,,,,,,01/01/2020,28/03/2020,-1
773610,Hauptstandort,,49.981481618861,10.099645614755,Balthasar-Neumann-Platz,5,97440,Werneck,DE,Germany (until 1990 former territory of the FRG),,,,,standort,,,,,,01/01/2020,28/03/2020,-1
771953,GRN-Klinik Schwetzingen,,49.378075351197,8.570155084117,Bodelschwinghstraße,10,68723,Schwetzingen,DE,Germany (until 1990 former territory of the FRG),,,,,standort,,,,,,01/01/2020,28/03/2020,-1
772389,Hauptstandort,,49.491427119948,8.487168073589,Theodor-Kutzer-Ufer,1-3,68167,Mannheim,DE,Germany (until 1990 former territory of the FRG),,,,,standort,,,,,,01/01/2020,28/03/2020,-1
773086,AMEOS Klinikum Oldenburg (Neurologie),,54.289812378347,10.87997158058,Mühlenkamp,5,23758,Oldenburg in Holstein,DE,Germany (until 1990 former territory of the FRG),,,,,standort,,,,,,01/01/2020,28/03/2020,-1
772926,AMEOS Klinikum Heiligenhafen,,54.372917913308,10.963461790234,Friedrich-Ebert-Straße,100,23774,"Heiligenhafen, Holst",DE,Germany (until 1990 former territory of the FRG),,,,,standort,,,,,,01/01/2020,28/03/2020,-1
772927,AMEOS Klinikum Kiel,,54.296553157168,10.185263352469,Tiroler Ring,621,24147,Kiel,DE,Germany (until 1990 former territory of the FRG),,,,,standort,,,,,,01/01/2020,28/03/2020,-1
772928,AMEOS Klinikum Preetz,,54.238802838404,10.276860790327,Am Krankenhaus,5a,24211,"Preetz, Holst",DE,Germany (until 1990 former territory of the FRG),,,,,standort,,,,,,01/01/2020,28/03/2020,-1
772929,AMEOS Klinikum Oldenburg (Psychiatrie),,54.292260851992,10.880609946325,Hoheluftstraße,10,23758,Oldenburg in Holstein,DE,Germany (until 1990 former territory of the FRG),,,,,standort,,,,,,01/01/2020,28/03/2020,-1
772956,Hauptstandort,,51.132872601762,9.277409076576,Am Hospital,6,34560,Fritzlar,DE,Germany (until 1990 former territory of the FRG),,,,,standort,,,,,,01/01/2020,28/03/2020,-1
773664,Hauptstandort,,47.862875503877,12.010689872559,Rosenheimer Str.,6-8,83043,Bad Aibling,DE,Germany (until 1990 former territory of the FRG),,,,,standort,,,,,,01/01/2020,28/03/2020,-1
773730,Vitos kinder- und jugendpsychatrische Tagesklinik und Ambulanz Dietzenbach,,50.021122560126,8.783229231867,Offenbacher Straße,17-19,63128,Dietzenbach,DE,Germany (until 1990 former territory of the FRG),,,,,standort,,,,,,01/01/2020,28/03/2020,-1
772634,Vitos Klinikum Herborn,,50.674955409735,8.304090142283,Austraße,40,35745,"Herborn, Hess",DE,Germany (until 1990 former territory of the FRG),,,,,standort,,,,,,01/01/2020,28/03/2020,-1
772635,Vitos kinder- und jugendpsychiatrische Tagesklinik und Ambulanz Hanau,,50.139297494768,8.913734793696,Geibelstraße,18,63450,Hanau,DE,Germany (until 1990 former territory of the FRG),,,,,standort,,,,,,01/01/2020,28/03/2020,-1
772636,Vitos kinder- und jugendpsychiatrische Tagesklinik und Ambulanz Limburg,,50.387694209524,8.057761430773,Saarlandstraße,2,65549,Limburg an der Lahn,DE,Germany (until 1990 former territory of the FRG),,,,,standort,,,,,,01/01/2020,28/03/2020,-1
772637,Vitos kinder- und jugendpsychiatrische sowie psychiatrische Tageskliniken und Ambulanzen  Wetzlar,,50.560161809345,8.496043503301,Sophienstraße,7,35576,Wetzlar,DE,Germany (until 1990 former territory of the FRG),,,,,standort,,,,,,01/01/2020,28/03/2020,-1
772638,Vitos psychiatrische Ambulanz Haiger,,50.74497770436,8.202144742045,Rodenbacher Straße,15,35708,Haiger,DE,Germany (until 1990 former territory of the FRG),,,,,standort,,,,,,01/01/2020,28/03/2020,-1
772639,Vitos kinder- und jugendpsychiatrische Ambulanz Gelnhausen,,50.210092191202,9.170438289675,Zum Wartturm,1,63571,Gelnhausen,DE,Germany (until 1990 former territory of the FRG),,,,,standort,,,,,,01/01/2020,28/03/2020,-1
771483,"Psychiatrische Tagesklinik Pforzheim ""Alte Mühle""",,48.909580788093,8.746513920996,Ludwig-Wolf-Straße,1,75181,Pforzheim,DE,Germany (until 1990 former territory of the FRG),,,,,standort,,,,,,01/01/2020,28/03/2020,-1
771954,GRN-Klinik Weinheim,,49.549707590859,8.645036995395,Röntgenstraße,1,69469,"Weinheim, Bergstr",DE,Germany (until 1990 former territory of the FRG),,,,,standort,,,,,,01/01/2020,28/03/2020,-1
773040,LWL-Klinik Dortmund,,51.507921109524,7.549341201848,Marsbruchstraße,179,44287,Dortmund,DE,Germany (until 1990 former territory of the FRG),,,,,standort,,,,,,01/01/2020,28/03/2020,-1
773041,LWL-Klinik Dortmund -Dependance Unna,,51.532924489826,7.677067779041,Holbeinstraße,10,59423,Unna,DE,Germany (until 1990 former territory of the FRG),,,,,standort,,,,,,01/01/2020,28/03/2020,-1
772503,LWL-Tagesklinik Dortmund - Aplerbeck,,51.504648920691,7.548238277468,Allerstraße,1,44287,Dortmund,DE,Germany (until 1990 former territory of the FRG),,,,,standort,,,,,,01/01/2020,28/03/2020,-1
773040,LWL-Klinik Dortmund,,51.507921109524,7.549341201848,Marsbruchstraße,179,44287,Dortmund,DE,Germany (until 1990 former territory of the FRG),,,,,standort,,,,,,01/01/2020,28/03/2020,-1
772505,LWL-Tagesklinik Unna,,51.532528451078,7.675889968905,Falkstraße,10,59423,Unna,DE,Germany (until 1990 former territory of the FRG),,,,,standort,,,,,,01/01/2020,28/03/2020,-1
773041,LWL-Klinik Dortmund -Dependance Unna,,51.532924489826,7.677067779041,Holbeinstraße,10,59423,Unna,DE,Germany (until 1990 former territory of the FRG),,,,,standort,,,,,,01/01/2020,28/03/2020,-1
773042,LWL-Tagesklinik Bergkamen,,51.618049856732,7.630533384399,Erich-Ollenhauer-Straße,7,59192,Bergkamen,DE,Germany (until 1990 former territory of the FRG),,,,,standort,,,,,,01/01/2020,28/03/2020,-1
772504,LWL-Tagesklinik Dortmund - Brackel,,51.522779899752,7.549060106294,Schimmelstraße,15,44309,Dortmund,DE,Germany (until 1990 former territory of the FRG),,,,,standort,,,,,,01/01/2020,28/03/2020,-1
772506,LWL-Tagesklinik Lünen,,51.617983241019,7.517639637026,Altstadtstraße,23a,44534,Lünen,DE,Germany (until 1990 former territory of the FRG),,,,,standort,,,,,,01/01/2020,28/03/2020,-1
772822,Psychiatrische Tagesklinik,,47.674425590898,9.492266893321,Merkurstraße,3,88046,Friedrichshafen,DE,Germany (until 1990 former territory of the FRG),,,,,standort,,,,,,01/01/2020,28/03/2020,-1
772925,Hauptstandort,,53.848582132324,10.68986731766,Weidenweg,9,23562,Lübeck,DE,Germany (until 1990 former territory of the FRG),,,,,standort,,,,,,01/01/2020,28/03/2020,-1
772985,Kreiskrankenhaus Freiberg gGmbH/ Pädiatrie Mittweida,,50.980675236454,12.984610319072,Hainichener Straße,4-6,09648,Mittweida,DE,Germany (until 1990 former territory of the FRG),,,,,standort,,,,,,01/01/2020,28/03/2020,-1
772957,Kreiskrankenhaus Freiberg gGmbH,,50.920546649356,13.350871324474,Donatsring,20,09599,"Freiberg, Sachsen",DE,Germany (until 1990 former territory of the FRG),,,,,standort,,,,,,01/01/2020,28/03/2020,-1
773429,Lungenklinik Ballenstedt GmbH,,51.713116912312,11.231196641857,Robert-Koch-Straße,26/27,06493,Ballenstedt,DE,Germany (until 1990 former territory of the FRG),,,,,standort,,,,,,01/01/2020,28/03/2020,-1
773609,Standort Aschau i. Chiemgau,,47.782694176153,12.327617213127,Bernauer Straße,18,83229,Aschau i. Chiemgau,DE,Germany (until 1990 former territory of the FRG),,,,,standort,,,,,,01/01/2020,28/03/2020,-1
771800,"Meckerstraße 15, 52353 Düren",,50.816568068075,6.483098745412,Meckerstraße,15,52353,Düren,DE,Germany (until 1990 former territory of the FRG),,,,,standort,,,,,,01/01/2020,28/03/2020,-1
771799,"Roentgenweg 1, 52477 Alsdorf",,50.876115496412,6.159998238095,Roentgenweg,1,52477,Alsdorf,DE,Germany (until 1990 former territory of the FRG),,,,,standort,,,,,,01/01/2020,28/03/2020,-1
771798,"Rathausstraße 26, 52222 Stolberg",,50.77101360754,6.228246510045,Rathausstraße,26,52222,Stolberg,DE,Germany (until 1990 former territory of the FRG),,,,,standort,,,,,,01/01/2020,28/03/2020,-1
771797,"Klosterstraße 2a, 50126 Bergheim",,50.952497956858,6.638186216387,Klosterstraße,2a,50126,Bergheim,DE,Germany (until 1990 former territory of the FRG),,,,,standort,,,,,,01/01/2020,28/03/2020,-1
771796,"Augustinerallee 1, 50181 Bedburg",,50.998759076924,6.577165961298,Augustinerallee,1,50181,Bedburg,DE,Germany (until 1990 former territory of the FRG),,,,,standort,,,,,,01/01/2020,28/03/2020,-1
772555,Hauptstandort,,51.34312397146,12.320682585223,Georg-Schwarz-Straße,49,04177,Leipzig,DE,Germany (until 1990 former territory of the FRG),,,,,standort,,,,,,01/01/2020,28/03/2020,-1
772660,Hauptstandort,,53.510301099579,10.241016000591,Hamburger Straße,41,21465,Reinbek,DE,Germany (until 1990 former territory of the FRG),,,,,standort,,,,,,01/01/2020,28/03/2020,-1
772836,Hauptstandort,,53.571185658973,9.965228157898,Hohe Weide,17,20259,Hamburg,DE,Germany (until 1990 former territory of the FRG),,,,,standort,,,,,,01/01/2020,28/03/2020,-1
773363,Hauptstandort,,52.729411697539,13.489616632396,Brandenburgallee,1,16321,Bernau bei Berlin,DE,Germany (until 1990 former territory of the FRG),,,,,standort,,,,,,01/01/2020,28/03/2020,-1
773631,Artemed Fachklinik München,,48.130358133326,11.554821252757,Mozartstraße,14a-16,80336,München,DE,Germany (until 1990 former territory of the FRG),,,,,standort,,,,,,01/01/2020,28/03/2020,-1
771657,Marienhospital Gelsenkirchen,,51.495339621896,7.101417616004,Virchowstraße,135,45886,Gelsenkirchen,DE,Germany (until 1990 former territory of the FRG),,,,,standort,,,,,,01/01/2020,28/03/2020,-1
771713,Krankenhaus Freyung,,48.805360146165,13.546157062037,Krankenhausstraße,6,94078,"Freyung, Niederbayern",DE,Germany (until 1990 former territory of the FRG),,,,,standort,,,,,,01/01/2020,28/03/2020,-1
771712,Krankenhaus Grafenau,,48.859193454945,13.39277762173,Schwarzmaierstraße,21,94481,"Grafenau, Niederbayern",DE,Germany (until 1990 former territory of the FRG),,,,,standort,,,,,,01/01/2020,28/03/2020,-1
772044,Oberkirch,,48.53493419283,8.079521119644,Franz-Schubert-Straße,15,77704,"Oberkirch, Baden",DE,Germany (until 1990 former territory of the FRG),,,,,standort,,,,,,01/01/2020,28/03/2020,-1
772210,Achern,,48.625259643984,8.067199265724,Josef-Wurzler-Straße,7,77855,"Achern, Baden",DE,Germany (until 1990 former territory of the FRG),,,,,standort,,,,,,01/01/2020,28/03/2020,-1
772659,Zeisigwaldkliniken Bethanien Chemnitz,,50.840603646608,12.962685406192,Zeisigwaldstraße,101,09130,"Chemnitz, Sachsen",DE,Germany (until 1990 former territory of the FRG),,,,,standort,,,,,,01/01/2020,28/03/2020,-1
772387,Klinikum Fürstenfeldbruck,,48.180615104002,11.259284198268,Dachauer Str.,33,82256,Fürstenfeldbruck,DE,Germany (until 1990 former territory of the FRG),,,,,standort,,,,,,01/01/2020,28/03/2020,-1
771656,Elisabeth-Krankenhaus,,51.563127204068,7.084763824923,Cranger Straße,226,45891,Gelsenkirchen,DE,Germany (until 1990 former territory of the FRG),,,,,standort,,,,,,01/01/2020,28/03/2020,-1
771831,ELBLANDKLINIKUM Meißen,,51.174052457983,13.505172774192,Nassauweg,7,01662,"Meißen, Sachsen",DE,Germany (until 1990 former territory of the FRG),,,,,standort,,,,,,01/01/2020,28/03/2020,-1
772178,"Kaiser-Karl-Ring 20, 53111 Bonn",,50.745334121303,7.089146018061,Kaiser-Karl-Ring,20,53111,Bonn,DE,Germany (until 1990 former territory of the FRG),,,,,standort,,,,,,01/01/2020,28/03/2020,-1
772179,"Bonner Straße 84, 50389 Wesseling",,50.82211766325,6.98625648025,Bonner Straße,84,50389,Wesseling,DE,Germany (until 1990 former territory of the FRG),,,,,standort,,,,,,01/01/2020,28/03/2020,-1
772180,"Siebengebirgsring 42, 53340 Meckenheim",,50.624404340572,7.044422864947,Siebengebirgsring,42,53340,Meckenheim,DE,Germany (until 1990 former territory of the FRG),,,,,standort,,,,,,01/01/2020,28/03/2020,-1
772181,"Hospitalstraße 7, 53783 Eitorf",,50.767874524906,7.452923297915,Hospitalstraße,7,53783,Eitorf,DE,Germany (until 1990 former territory of the FRG),,,,,standort,,,,,,01/01/2020,28/03/2020,-1
772182,"Gottfried-Disse-Straße 40, 53879 Euskirchen",,50.642965098744,6.791512012514,Gottfried-Disse-Straße,40,53879,Euskirchen,DE,Germany (until 1990 former territory of the FRG),,,,,standort,,,,,,01/01/2020,28/03/2020,-1
772183,"Waldenburger Ring 46, 53119 Bonn",,50.752719827412,7.042995929751,Waldenburger Ring,46,53119,Bonn,DE,Germany (until 1990 former territory of the FRG),,,,,standort,,,,,,01/01/2020,28/03/2020,-1
772268,Hauptstandort,,50.55095207072,9.640059828726,Münsterfeldallee,2,36041,Fulda,DE,Germany (until 1990 former territory of the FRG),,,,,standort,,,,,,01/01/2020,28/03/2020,-1
771305,St. Antonius-Krankenhaus Bottrop-Kirchhellen,,51.605775968504,6.922704773024,Gartenstraße,17,46244,Bottrop,DE,Germany (until 1990 former territory of the FRG),,,,,standort,,,,,,01/01/2020,28/03/2020,-1
771306,St. Barbara-Hospital Gladbeck,,51.574207398182,6.987962918356,Barbarastraße,1,45964,Gladbeck,DE,Germany (until 1990 former territory of the FRG),,,,,standort,,,,,,01/01/2020,28/03/2020,-1
771307,St. Josef-Hospital Gelsenkirchen-Horst,,51.541002087418,7.027439670637,Rudolf-Bertram-Platz,1,45899,Gelsenkirchen,DE,Germany (until 1990 former territory of the FRG),,,,,standort,,,,,,01/01/2020,28/03/2020,-1
772237,Krankenhaus Martha-Maria Nürnberg,,49.482298504852,11.135901188823,Stadenstraße,58,90491,"Nürnberg, Mittelfranken",DE,Germany (until 1990 former territory of the FRG),,,,,standort,,,,,,01/01/2020,28/03/2020,-1
772483,Schön Klinik Lorsch SE & Co. KG,,49.65232795372,8.562699079448,Wilhelm-Leuschner-Straße,10,64653,"Lorsch, Hess",DE,Germany (until 1990 former territory of the FRG),,,,,standort,,,,,,01/01/2020,28/03/2020,-1
773332,Standort Kreischa,,50.947148070141,13.767353491858,An der Wolfsschlucht,1-2,01731,Kreischa bei Dresden,DE,Germany (until 1990 former territory of the FRG),,,,,standort,,,,,,01/01/2020,28/03/2020,-1
773626,Behandlungszentrum Kempfenhausen gGmbH,,47.988093326969,11.36419585348,Milchebrg,21,82335,Berg,DE,Germany (until 1990 former territory of the FRG),,,,,standort,,,,,,01/01/2020,28/03/2020,-1
771681,St. Josef Krankenhaus Wiesdorf,,51.031100274518,6.975642442703,Adolfsstraße,15,51373,Leverkusen,DE,Germany (until 1990 former territory of the FRG),,,,,standort,,,,,,01/01/2020,28/03/2020,-1
771680,St. Remigius Krankenhaus Opladen,,51.068081221672,7.004953622818,An St. Remigus,26,51379,Leverkusen,DE,Germany (until 1990 former territory of the FRG),,,,,standort,,,,,,01/01/2020,28/03/2020,-1
773645,St. Johannes Klinik,,49.698287729487,11.619370775297,Krankenhausstraße,1,91275,Auerbach in der Oberpfalz,DE,Germany (until 1990 former territory of the FRG),,,,,standort,,,,,,01/01/2020,28/03/2020,-1
771262,St. Marien-Hospital Haupteingeng,,50.822419271206,6.466680407557,Hospitalstrasse,44,52353,"Düren, Rheinland",DE,Germany (until 1990 former territory of the FRG),,,,,standort,,,,,,01/01/2020,28/03/2020,-1
772131,Helios Klinik für Herzchirurgie Karlsruhe,,49.018093137891,8.375674009258,Franz-Lust-Straße,30,76185,"Karlsruhe, Baden",DE,Germany (until 1990 former territory of the FRG),,,,,standort,,,,,,01/01/2020,28/03/2020,-1
773060,Helios St. Elisabeth Klinik Oberhausen,,51.461968759808,6.854539632732,Josefstr.,3,46045,"Oberhausen, Rheinland",DE,Germany (until 1990 former territory of the FRG),,,,,standort,,,,,,01/01/2020,28/03/2020,-1
772824,Tagesklinik und Ambulanz Celle,,52.627296742013,10.083816021574,Fritzenwiese,15,29221,Celle,DE,Germany (until 1990 former territory of the FRG),,,,,standort,,,,,,01/01/2020,28/03/2020,-1
772825,Hauptstandort,,52.360189275796,9.777680003663,Janusz-Korczak-Allee,12,30173,Hannover,DE,Germany (until 1990 former territory of the FRG),,,,,standort,,,,,,01/01/2020,28/03/2020,-1
773747,Perinatalzentrum Hannover,,52.363216744239,9.828180849536,Schwemannstraße,17,30559,Hannover,DE,Germany (until 1990 former territory of the FRG),,,,,standort,,,,,,01/01/2020,28/03/2020,-1
773067,Tagesklinik Görlitz,,51.138492904899,14.986396618187,Martin-Opitz-Straße,5,02826,"Görlitz, Neiße",DE,Germany (until 1990 former territory of the FRG),,,,,standort,,,,,,01/01/2020,28/03/2020,-1
773068,Tagesklinik Hoyerswerda,,51.441366042139,14.232227001339,Gebrüder-Grimm-Straße,18,02977,Hoyerswerda,DE,Germany (until 1990 former territory of the FRG),,,,,standort,,,,,,01/01/2020,28/03/2020,-1
773069,Tagesklinik Löbau,,51.098489279297,14.660325832665,Äußere Bautzener Straße,26,02708,Löbau,DE,Germany (until 1990 former territory of the FRG),,,,,standort,,,,,,01/01/2020,28/03/2020,-1
772839,Tagesklinik Weißwasser,,51.50470234607,14.62908346206,Carl-Friedrich-Gauß-Straße,3,02943,Weißwasser/Oberlausitz,DE,Germany (until 1990 former territory of the FRG),,,,,standort,,,,,,01/01/2020,28/03/2020,-1
773417,SKH Großschweidnitz,,51.075454656451,14.644254036248,Dr.-Max-Krell-Park,41,02708,Großschweidnitz,DE,Germany (until 1990 former territory of the FRG),,,,,standort,,,,,,01/01/2020,28/03/2020,-1
773043,Asklepios Tagesklinik Stadtroda für Psychiatrie und Psychotherapie,,50.86193846533,11.725795984203,Bahnhofstraße,1a,07646,Stadtroda,DE,Germany (until 1990 former territory of the FRG),,,,,standort,,,,,,01/01/2020,28/03/2020,-1
773044,Asklepios Tagesklinik Gera für Kinder- und Jugendpsychiatrie,,50.837282062566,12.063110589916,Werner-Petzold-Straße,17,07549,Gera,DE,Germany (until 1990 former territory of the FRG),,,,,standort,,,,,,01/01/2020,28/03/2020,-1
773045,Asklepios Tagesklinik Greiz für Psychiatrie und Psychotherapie,,50.662213927189,12.197693109447,Wichmannstraße,12,07973,Greiz,DE,Germany (until 1990 former territory of the FRG),,,,,standort,,,,,,01/01/2020,28/03/2020,-1
773046,Asklepios Tageskinik Pößneck für Psychiatrie und Psychotherapie,,50.698652675786,11.614623784953,Kurzackerstraße,12,07381,Pößneck,DE,Germany (until 1990 former territory of the FRG),,,,,standort,,,,,,01/01/2020,28/03/2020,-1
773047,Asklepios Tagesklinik Stadtroda für Kinder- und Jugendpsychiatrie,,50.862737548212,11.727512597972,Bahnhofstraße,1a,07646,Stadtroda,DE,Germany (until 1990 former territory of the FRG),,,,,standort,,,,,,01/01/2020,28/03/2020,-1
773048,Asklepios Fachklinikum Stadtroda GmbH,,50.861857201897,11.725881814891,Bahnhofstraße,1a,07646,Stadtroda,DE,Germany (until 1990 former territory of the FRG),,,,,standort,,,,,,01/01/2020,28/03/2020,-1
773049,Asklepios Tagesklinik Stadtroda für Psychosomatik und Psychotherapie,,50.862683373534,11.728757142955,Bahnhofstraße,1a,07646,Stadtroda,DE,Germany (until 1990 former territory of the FRG),,,,,standort,,,,,,01/01/2020,28/03/2020,-1
771668,Hauptstandort,,53.586897568381,10.164517521907,Liliencronstraße,130,22149,Hamburg,DE,Germany (until 1990 former territory of the FRG),,,,,standort,,,,,,01/01/2020,28/03/2020,-1
771669,Tagesklinik f. Kinder- u. Jugendpsychiatrie Nord,,53.67649874284,10.029881358196,Tangstedter Landstraße,400,22417,Hamburg,DE,Germany (until 1990 former territory of the FRG),,,,,standort,,,,,,01/01/2020,28/03/2020,-1
771670,Neonatologische Intensivstation (MK),,53.55931382895,10.031658589865,Alfredstraße,9,22087,Hamburg,DE,Germany (until 1990 former territory of the FRG),,,,,standort,,,,,,01/01/2020,28/03/2020,-1
771671,Neonatologische Station am AK Wandsbek,,53.569834053909,10.088993489767,Alphonsstraße,14,22043,Hamburg,DE,Germany (until 1990 former territory of the FRG),,,,,standort,,,,,,01/01/2020,28/03/2020,-1
771672,Epilepsie Monitoring Neuropädiatrie Alsterdorf,,53.613766396202,10.023134529615,Elisabeth-Flügge-Straße,1,22337,Hamburg,DE,Germany (until 1990 former territory of the FRG),,,,,standort,,,,,,01/01/2020,28/03/2020,-1
772048,Klinikum am Gesundbrunnen,,49.153964321063,9.191268878058,Am Gesundbrunnen,20-26,74078,Heilbronn,DE,Germany (until 1990 former territory of the FRG),,,,,standort,,,,,,01/01/2020,28/03/2020,-1
773025,Hauptstandort,,54.105314933453,10.823203682908,Rettiner Weg,30,23730,Neustadt in Holstein,DE,Germany (until 1990 former territory of the FRG),,,,,standort,,,,,,01/01/2020,28/03/2020,-1
772236,Krankenhaus Martha-Maria München,,48.085313640154,11.534259063024,Wolfratshauser Straße,109,81479,München,DE,Germany (until 1990 former territory of the FRG),,,,,standort,,,,,,01/01/2020,28/03/2020,-1
772992,München-Gauting,,48.06630037314,11.353591203624,Robert-Koch-Allee,2,82131,Gauting,DE,Germany (until 1990 former territory of the FRG),,,,,standort,,,,,,01/01/2020,28/03/2020,-1
772032,"Klinikum am Plattenwald, Bad Friedrichshall",,49.211829227608,9.23586923629,Am Plattenwald,1,74177,Bad Friedrichshall,DE,Germany (until 1990 former territory of the FRG),,,,,standort,,,,,,01/01/2020,28/03/2020,-1
773413,Ochsenzoll,,53.673676258961,10.004052436234,Langenhorner Chaussee,560,22419,Hamburg,DE,Germany (until 1990 former territory of the FRG),,,,,standort,,,,,,01/01/2020,28/03/2020,-1
773462,Horn,,53.546577814033,10.084706783266,Horner Landstraße,302,22111,Hamburg,DE,Germany (until 1990 former territory of the FRG),,,,,standort,,,,,,01/01/2020,28/03/2020,-1
773463,Heidberg,,53.674729747362,10.029191494004,Tangstedter Landstraße,400,22417,Hamburg,DE,Germany (until 1990 former territory of the FRG),,,,,standort,,,,,,01/01/2020,28/03/2020,-1
773415,Volksdorf,,53.652460682089,10.16162540278,Kattjahren,24,22359,Hamburg,DE,Germany (until 1990 former territory of the FRG),,,,,standort,,,,,,01/01/2020,28/03/2020,-1
773464,Steilshoop,,53.605471210175,10.054123163109,Steilshooper Straße,293,22309,Hamburg,DE,Germany (until 1990 former territory of the FRG),,,,,standort,,,,,,01/01/2020,28/03/2020,-1
773754,Private Tagesklinik Walddörfer,,53.653452386351,10.161017936584,Halenreie,40,22359,Hamburg,DE,Germany (until 1990 former territory of the FRG),,,,,standort,,,,,,01/01/2020,28/03/2020,-1
773461,Alstertor,,53.553891482418,9.987520694749,Hohe Bleichen,22,20354,Hamburg,DE,Germany (until 1990 former territory of the FRG),,,,,standort,,,,,,01/01/2020,28/03/2020,-1
773414,Wandsbek,,53.569166183458,10.086681371777,Jüthornstraße,71,22043,Hamburg,DE,Germany (until 1990 former territory of the FRG),,,,,standort,,,,,,01/01/2020,28/03/2020,-1
772329,Vamed Ostseeklinik Damp,,54.586144328334,10.022007465395,Seute-Deern-Ring,20,24351,Damp,DE,Germany (until 1990 former territory of the FRG),,,,,standort,,,,,,01/01/2020,28/03/2020,-1
772606,Fachklinik Kamillushaus Heidhausen,,51.373972123145,7.017751514895,Heidhauser Str.,273,45239,"Essen, Ruhr",DE,Germany (until 1990 former territory of the FRG),,,,,standort,,,,,,01/01/2020,28/03/2020,-1
773058,St. Josef-Krankenhaus Kupferdreh - Hauptstandort,,51.391509018616,7.085933268054,Heidbergweg,22,45257,"Essen, Ruhr",DE,Germany (until 1990 former territory of the FRG),,,,,standort,,,,,,01/01/2020,28/03/2020,-1
773059,St. Elisabeth-Krankenhaus Niederwenigern,,51.403157227669,7.135053366414,Essener Straße,31,45529,"Hattingen, Ruhr",DE,Germany (until 1990 former territory of the FRG),,,,,standort,,,,,,01/01/2020,28/03/2020,-1
772975,Hauptstandort,,50.604356958361,8.38470768922,Stegwiese,27,35630,"Ehringshausen, Dill",DE,Germany (until 1990 former territory of the FRG),,,,,standort,,,,,,01/01/2020,28/03/2020,-1
771015,Klinik Zwenkau,,51.220289604117,12.330016672595,Pestalozzistraße,9,04442,Zwenkau,DE,Germany (until 1990 former territory of the FRG),,,,,standort,,,,,,01/01/2020,28/03/2020,-1
771016,Klinikum Borna,,51.134329159685,12.504938006368,Rudolf-Virchow-Straße,2,04552,Borna bei Leipzig,DE,Germany (until 1990 former territory of the FRG),,,,,standort,,,,,,01/01/2020,28/03/2020,-1
771664,Kreiskrankenhaus Delitzsch GmbH Klinik Eilenburg,,51.459966461965,12.620404529644,Wilhelm-Grune-Straße,5 - 8,04838,Eilenburg,DE,Germany (until 1990 former territory of the FRG),,,,,standort,,,,,,01/01/2020,28/03/2020,-1
771665,Kreiskrankenhaus Delitzsch GmbH Klinik Delitzsch,,51.526558420228,12.33797859576,Dübener Straße,3-9,04509,Delitzsch,DE,Germany (until 1990 former territory of the FRG),,,,,standort,,,,,,01/01/2020,28/03/2020,-1
772997,Medizincampus,,48.384278099312,10.838583201162,Stenglinstraße,2,86156,"Augsburg, Bayern",DE,Germany (until 1990 former territory of the FRG),,,,,standort,,,,,,01/01/2020,28/03/2020,-1
773108,Medizincampus Süd,,48.306043988873,10.916624754659,Sauerbruchstraße,6,86179,"Augsburg, Bayern",DE,Germany (until 1990 former territory of the FRG),,,,,standort,,,,,,01/01/2020,28/03/2020,-1
772899,Fachkrankenhaus für Dermatologie Schloss Friedensburg GmbH,,50.565224027584,11.458464995021,Schloßstraße,25,07338,"Leutenberg, Thüringen",DE,Germany (until 1990 former territory of the FRG),,,,,standort,,,,,,01/01/2020,28/03/2020,-1
771839,Helios Klinikum Bad Saarow,,52.284712952122,14.063543915945,Pieskower Straße,33,15526,Bad Saarow,DE,Germany (until 1990 former territory of the FRG),,,,,standort,,,,,,01/01/2020,28/03/2020,-1
771682,ARCUS Klinik,,48.8979197406,8.665266215785,Rastatter Straße,17-19,75179,Pforzheim,DE,Germany (until 1990 former territory of the FRG),,,,,standort,,,,,,01/01/2020,28/03/2020,-1
771792,Krankenhaus Schwabach,,49.332652542007,11.01252150529,Regelsbacher Straße,7,91126,Schwabach,DE,Germany (until 1990 former territory of the FRG),,,,,standort,,,,,,01/01/2020,28/03/2020,-1
773132,Hauptstandort,,50.81526897788,8.805859994882,Baldingerstraße,0,35043,Marburg,DE,Germany (until 1990 former territory of the FRG),,,,,standort,,,,,,01/01/2020,28/03/2020,-1
773133,Universitätsklinikum Marburg - Klinik für Psychiatrie und Psychotherapie,,50.817644554732,8.782162651469,Rudolf-Bultmann-Str.,8,35039,Marburg,DE,Germany (until 1990 former territory of the FRG),,,,,standort,,,,,,01/01/2020,28/03/2020,-1
773134,"Universitätsklinikum Marburg - Ambulanz der Klinik für Kinder- und Jugendpsychiatrie, Psychosomatik und Psychotherapie",,50.817883305515,8.780713829192,Schützenstraße,49,35039,Marburg,DE,Germany (until 1990 former territory of the FRG),,,,,standort,,,,,,01/01/2020,28/03/2020,-1
773135,"Universitätsklinikum Marburg - Klinik für Kinder- und Jugendpsychiatrie, Psychosomatik und Psychotherapie; Außenstelle Butzbach",,50.433922170445,8.675312375872,Schloßplatz,2,35510,Butzbach,DE,Germany (until 1990 former territory of the FRG),,,,,standort,,,,,,01/01/2020,28/03/2020,-1
773136,"Universitätsklinikum Marburg - Klinik für Kinder- und Jugendpsychiatrie, Psychosomatik und Psychotherapie (stationär)",,50.818654115512,8.782263850753,Hans-Sachs-Straße,4,35039,Marburg,DE,Germany (until 1990 former territory of the FRG),,,,,standort,,,,,,01/01/2020,28/03/2020,-1
772971,St. Vincenz Krankenhaus Diez,,50.374190667258,8.00911581513,Adelheidstraße,2,65582,Diez,DE,Germany (until 1990 former territory of the FRG),,,,,standort,,,,,,01/01/2020,28/03/2020,-1
772974,Diakonie Klinikum Neunkirchen gGmbH,,49.340971867017,7.183249779046,Brunnenstraße,20,66538,"Neunkirchen, Saar",DE,Germany (until 1990 former territory of the FRG),,,,,standort,,,,,,01/01/2020,28/03/2020,-1
772974,Diakonie Klinikum Neunkirchen gGmbH,,49.340971867017,7.183249779046,Brunnenstraße,20,66538,"Neunkirchen, Saar",DE,Germany (until 1990 former territory of the FRG),,,,,standort,,,,,,01/01/2020,28/03/2020,-1
771368,St. Antonius Krankenhaus Hörstel,,52.301980747059,7.584188461369,Krankenhausstr.,17,48477,Hörstel,DE,Germany (until 1990 former territory of the FRG),,,,,standort,,,,,,01/01/2020,28/03/2020,-1
773646,St. Anna Krankenhaus,,49.504915584592,11.729883151129,Krankenhausstraße,16,92237,Sulzbach-Rosenberg,DE,Germany (until 1990 former territory of the FRG),,,,,standort,,,,,,01/01/2020,28/03/2020,-1
772281,Psorisol Hautklinik GmbH,,49.508569703454,11.433953404394,Mühlstraße,31,91217,Hersbruck,DE,Germany (until 1990 former territory of the FRG),,,,,standort,,,,,,01/01/2020,28/03/2020,-1
772492,Schön Klinik Roseneck - Haus Rosenheim,,47.866422223529,12.119930505687,Droste-Hülshoff-Straße,4,83024,"Rosenheim, Oberbayern",DE,Germany (until 1990 former territory of the FRG),,,,,standort,,,,,,01/01/2020,28/03/2020,-1
772491,Schön Klinik Tagesklinik München,,48.136201041303,11.614044427806,Einsteinstraße,130,81675,München,DE,Germany (until 1990 former territory of the FRG),,,,,standort,,,,,,01/01/2020,28/03/2020,-1
772493,Schön Klinik Roseneck,,47.85977125025,12.362917184764,Am Roseneck,6,83209,Prien am Chiemsee,DE,Germany (until 1990 former territory of the FRG),,,,,standort,,,,,,01/01/2020,28/03/2020,-1
773505,Berglandklinik Lüdenscheid GmbH & Co. KG,,51.207194273598,7.637462925904,Am Hundebrink,6,58511,Lüdenscheid,DE,Germany (until 1990 former territory of the FRG),,,,,standort,,,,,,01/01/2020,28/03/2020,-1
773186,Humboldt-Klinikum,,52.589849052234,13.308975112432,Am Nordgraben,2,13509,Berlin,DE,Germany (until 1990 former territory of the FRG),,,,,standort,,,,,,01/01/2020,28/03/2020,-1
773188,Klinikum Neukölln Riesestraße Tagesklinik,,52.454565929436,13.444740647146,Riesestraße,1,12347,Berlin,DE,Germany (until 1990 former territory of the FRG),,,,,standort,,,,,,01/01/2020,28/03/2020,-1
773190,Klinikum Neukölln Wuhlheide Tagesklinik,,52.455768767021,13.552810228048,An der Wuhlheide,232A,12459,Berlin,DE,Germany (until 1990 former territory of the FRG),,,,,standort,,,,,,01/01/2020,28/03/2020,-1
773189,Klinikum Neukölln Emser Straße Tagesklinik,,52.468786896941,13.432428181122,Emser Straße,31,12051,Berlin,DE,Germany (until 1990 former territory of the FRG),,,,,standort,,,,,,01/01/2020,28/03/2020,-1
773193,Auguste-Viktoria-Klinikum Dominicusstraße Tagesklinik,,52.483889330733,13.346123707288,Dominicusstraße,5-9,10823,Berlin,DE,Germany (until 1990 former territory of the FRG),,,,,standort,,,,,,01/01/2020,28/03/2020,-1
773180,Klinikum im Friedrichshain / Prenzlauer Berg,,52.539841623792,13.428984975926,Fröbelstraße,15,10405,Berlin,DE,Germany (until 1990 former territory of the FRG),,,,,standort,,,,,,01/01/2020,28/03/2020,-1
773181,Klinikum Am Urban,,52.494626963901,13.409019953042,Dieffenbachstraße,1,10967,Berlin,DE,Germany (until 1990 former territory of the FRG),,,,,standort,,,,,,01/01/2020,28/03/2020,-1
773182,Klinikum Kaulsdorf,,52.505880739655,13.592644169935,Myslowitzer Straße,45,12621,Berlin,DE,Germany (until 1990 former territory of the FRG),,,,,standort,,,,,,01/01/2020,28/03/2020,-1
773192,Klinikum Kaulsdorf Mehrower Allee Tagesklinik,,52.555327830048,13.561675572382,Mehrower Allee,22,12687,Berlin,DE,Germany (until 1990 former territory of the FRG),,,,,standort,,,,,,01/01/2020,28/03/2020,-1
773186,Humboldt-Klinikum / Am Nordgraben,,52.589849052234,13.308975112432,Am Nordgraben,2,13509,Berlin,DE,Germany (until 1990 former territory of the FRG),,,,,standort,,,,,,01/01/2020,28/03/2020,-1
773188,Klinikum Neukölln Riesestraße,,52.454565929436,13.444740647146,Riesestraße,1,12347,Berlin,DE,Germany (until 1990 former territory of the FRG),,,,,standort,,,,,,01/01/2020,28/03/2020,-1
773190,Klinikum Neukölln Wuhlheide,,52.455768767021,13.552810228048,An der Wuhlheide,232A,12459,Berlin,DE,Germany (until 1990 former territory of the FRG),,,,,standort,,,,,,01/01/2020,28/03/2020,-1
773189,Klinikum Neukölln Emser Str,,52.468786896941,13.432428181122,Emser Straße,31,12051,Berlin,DE,Germany (until 1990 former territory of the FRG),,,,,standort,,,,,,01/01/2020,28/03/2020,-1
773181,Klinikum am Urban,,52.494626963901,13.409019953042,Dieffenbachstraße,1,10967,Berlin,DE,Germany (until 1990 former territory of the FRG),,,,,standort,,,,,,01/01/2020,28/03/2020,-1
773182,Klinikum Hellersdorf,,52.505880739655,13.592644169935,Myslowitzer Straße,45,12621,Berlin,DE,Germany (until 1990 former territory of the FRG),,,,,standort,,,,,,01/01/2020,28/03/2020,-1
773750,Humboldt-Klinikum Waldstraße Tagesklinik,,52.575376530307,13.326651727921,Waldstraße,86,13403,Berlin,DE,Germany (until 1990 former territory of the FRG),,,,,standort,,,,,,01/01/2020,28/03/2020,-1
773179,Klinikum im Friedrichshain,,52.524480767485,13.438961398661,Landsberger Allee,49,10249,Berlin,DE,Germany (until 1990 former territory of the FRG),,,,,standort,,,,,,01/01/2020,28/03/2020,-1
773183,Klinikum Neukölln,,52.438175472559,13.458396685182,Rudower Straße,48,12351,Berlin,DE,Germany (until 1990 former territory of the FRG),,,,,standort,,,,,,01/01/2020,28/03/2020,-1
773184,Auguste-Viktoria-Klinikum,,52.463038638404,13.345513236582,Rubensstraße,125,12157,Berlin,DE,Germany (until 1990 former territory of the FRG),,,,,standort,,,,,,01/01/2020,28/03/2020,-1
773185,Wenckebach-Klinikum,,52.458933342177,13.389266073737,Wenckebachstraße,23,12099,Berlin,DE,Germany (until 1990 former territory of the FRG),,,,,standort,,,,,,01/01/2020,28/03/2020,-1
773187,Klinikum Spandau,,52.550156762079,13.206896755114,Neue Bergstraße,6,13585,Berlin,DE,Germany (until 1990 former territory of the FRG),,,,,standort,,,,,,01/01/2020,28/03/2020,-1
773191,Klinikum Neukölln Sonnenalle Tagesklinik,,52.485516190626,13.432406723532,Sonnenallee,47,12045,Berlin,DE,Germany (until 1990 former territory of the FRG),,,,,standort,,,,,,01/01/2020,28/03/2020,-1
771112,Paulinenhaus Krankenanstalt e.V.,,52.508026341004,13.233626604015,Dickensweg,25,14055,Berlin,DE,Germany (until 1990 former territory of the FRG),,,,,standort,,,,,,01/01/2020,28/03/2020,-1
771234,Radebeul KJP,,51.111706850035,13.689862847336,Augustusweg,112,01445,Radebeul,DE,Germany (until 1990 former territory of the FRG),,,,,standort,,,,,,01/01/2020,28/03/2020,-1
771231,Kamenz PSY,,51.264292277132,14.122671604173,Nebelschützer Straße,40,01917,Kamenz,DE,Germany (until 1990 former territory of the FRG),,,,,standort,,,,,,01/01/2020,28/03/2020,-1
771232,Kamenz KJP TK,,51.280608820118,14.10412976146,Macherstraße,45,01917,Kamenz,DE,Germany (until 1990 former territory of the FRG),,,,,standort,,,,,,01/01/2020,28/03/2020,-1
771233,Kamenz KJP PIA,,51.283645957336,14.103641143366,Garnisonsplatz,7,01917,Kamenz,DE,Germany (until 1990 former territory of the FRG),,,,,standort,,,,,,01/01/2020,28/03/2020,-1
771257,Arnsdorf,,51.095021846439,13.997342705743,Hufelandstraße,15,01477,Arnsdorf bei Dresden,DE,Germany (until 1990 former territory of the FRG),,,,,standort,,,,,,01/01/2020,28/03/2020,-1
772437,Diakonie-Klinikum Schwäbisch Hall gGmbH - Hauptstandort,,49.124631741102,9.741652250323,Diakoniestraße,10,74523,Schwäbisch Hall,DE,Germany (until 1990 former territory of the FRG),,,,,standort,,,,,,01/01/2020,28/03/2020,-1
771873,35216 Biedenkopf,,50.913512149301,8.523131199181,Hainstraße,71-75,35216,Biedenkopf,DE,Germany (until 1990 former territory of the FRG),,,,,standort,,,,,,01/01/2020,28/03/2020,-1
772066,Evangelisches Krankenhaus Oldenburg,,53.142667947088,8.205731391972,Steinweg,13,26122,Oldenburg(Oldb),DE,Germany (until 1990 former territory of the FRG),,,,,standort,,,,,,01/01/2020,28/03/2020,-1
772701,Vamed Klinik Kipfenberg,,48.95200937965,11.394290506823,Konrad-Regler-Straße,1,85110,"Kipfenberg, Oberbayern",DE,Germany (until 1990 former territory of the FRG),,,,,standort,,,,,,01/01/2020,28/03/2020,-1
773706,Ahrtal-Klinik,,50.558075738372,7.212368443614,Hauptstraße,166,53489,"Sinzig, Rhein",DE,Germany (until 1990 former territory of the FRG),,,,,standort,,,,,,01/01/2020,28/03/2020,-1
771075,SRH Fachkrankenhaus Neresheim,,48.756547723471,10.335906922801,Kösinger Straße,1 1,73450,Neresheim,DE,Germany (until 1990 former territory of the FRG),,,,,standort,,,,,,01/01/2020,28/03/2020,-1
771816,Hauptstandort,,51.286352899542,7.092869996959,Erfurthweg,28,42489,Wülfrath,DE,Germany (until 1990 former territory of the FRG),,,,,standort,,,,,,01/01/2020,28/03/2020,-1
772159,Standort,,53.588397363216,9.972768545085,Martinistraße,78,20251,Hamburg,DE,Germany (until 1990 former territory of the FRG),,,,,standort,,,,,,01/01/2020,28/03/2020,-1
773027,Elisabeth-Krankenhaus Kassel GmbH,,51.310112318715,9.491412341595,Weinbergstr.,7,34117,"Kassel, Hess",DE,Germany (until 1990 former territory of the FRG),,,,,standort,,,,,,01/01/2020,28/03/2020,-1
773031,Krankenhaus St. Marienwörth,,49.84654639954,7.861477375063,Mühlenstraße,41,55543,Bad Kreuznach,DE,Germany (until 1990 former territory of the FRG),,,,,standort,,,,,,01/01/2020,28/03/2020,-1
773194,Vivantes Ida-Wolff-Krankenhaus,,52.434620577035,13.457398903429,Juchaczweg,21,12351,Berlin,DE,Germany (until 1990 former territory of the FRG),,,,,standort,,,,,,01/01/2020,28/03/2020,-1
773627,Drensteinfurt,,51.761843160121,7.793447166673,Dorfstraße,9,48317,Drensteinfurt,DE,Germany (until 1990 former territory of the FRG),,,,,standort,,,,,,01/01/2020,28/03/2020,-1
771392,Universitätsklinikum Leipzig AöR,,51.331383154482,12.386209113038,Liebigstraße,18,04103,Leipzig,DE,Germany (until 1990 former territory of the FRG),,,,,standort,,,,,,01/01/2020,28/03/2020,-1
773654,Universitätsklinikum Leipzig AöR_Standort II,,51.338933465701,12.354305148092,Marschnerstr.,29,04109,Leipzig,DE,Germany (until 1990 former territory of the FRG),,,,,standort,,,,,,01/01/2020,28/03/2020,-1
772033,Klinik Löwenstein,,49.090184701511,9.402691321447,Geißhölzle,62,74245,"Löwenstein, Württemberg",DE,Germany (until 1990 former territory of the FRG),,,,,standort,,,,,,01/01/2020,28/03/2020,-1
772025,Psychiatrische Institutsambulanz,,50.992076170404,5.994756203138,Katharina-Kasper-Straße,10,52538,Gangelt,DE,Germany (until 1990 former territory of the FRG),,,,,standort,,,,,,01/01/2020,28/03/2020,-1
772026,Tagesklinik Gangelt,,50.992862469481,5.991992801373,Katharina-Kasper-Straße,6,52538,Gangelt,DE,Germany (until 1990 former territory of the FRG),,,,,standort,,,,,,01/01/2020,28/03/2020,-1
772027,Tagesklinik Heinsberg,,51.065625396451,6.096322238336,Genneper Straße,2,52525,"Heinsberg, Rheinland",DE,Germany (until 1990 former territory of the FRG),,,,,standort,,,,,,01/01/2020,28/03/2020,-1
772077,Tagesklinik Erkelenz,,51.075695642606,6.313213035437,Goswinstraße,28,41812,Erkelenz,DE,Germany (until 1990 former territory of the FRG),,,,,standort,,,,,,01/01/2020,28/03/2020,-1
772220,Hauptstandort,,50.992708840434,5.99205605683,Katharina-Kasper-Straße,6,52538,Gangelt,DE,Germany (until 1990 former territory of the FRG),,,,,standort,,,,,,01/01/2020,28/03/2020,-1
773195,Heidekreis-Klinikum Krankenhaus Soltau,,52.989070611951,9.855869293115,Oeninger Weg,30,29614,Soltau,DE,Germany (until 1990 former territory of the FRG),,,,,standort,,,,,,01/01/2020,28/03/2020,-1
773623,Hauptstandort Neukirchen,,49.259766072157,12.967734136619,Krankenhausstraße,9,93453,Neukirchen bei Hl. Blut,DE,Germany (until 1990 former territory of the FRG),,,,,standort,,,,,,01/01/2020,28/03/2020,-1
773624,Haus Rötz,,49.342213528005,12.524351575412,Neunburger Straße,7,92444,"Rötz, Oberpfalz",DE,Germany (until 1990 former territory of the FRG),,,,,standort,,,,,,01/01/2020,28/03/2020,-1
772717,Tagesklinik St. Bernhard,,51.186910501175,6.706293404086,Berghäuschensweg,4,41464,Neuss,DE,Germany (until 1990 former territory of the FRG),,,,,standort,,,,,,01/01/2020,28/03/2020,-1
772718,Tagesklinik St. Benedikt im Memory Zentrum,,51.205271833103,6.668137371507,Steinhausstraße,40,41462,Neuss,DE,Germany (until 1990 former territory of the FRG),,,,,standort,,,,,,01/01/2020,28/03/2020,-1
772719,Hauptstandort,,51.191089254936,6.700852409001,Nordkanalallee,99,41464,Neuss,DE,Germany (until 1990 former territory of the FRG),,,,,standort,,,,,,01/01/2020,28/03/2020,-1
772712,Tagesklinik St. Anna,,51.214876512597,6.659747421709,Am Hasenberg,46,41462,Neuss,DE,Germany (until 1990 former territory of the FRG),,,,,standort,,,,,,01/01/2020,28/03/2020,-1
772713,Tagesklinik St. Fabiola,,51.194444843908,6.513550937143,Hindenburgstraße,56,41352,Korschenbroich,DE,Germany (until 1990 former territory of the FRG),,,,,standort,,,,,,01/01/2020,28/03/2020,-1
772714,Tagesklinik St. Augustinus,,51.089769247414,6.595140784971,Montanusstraße,54,41515,Grevenbroich,DE,Germany (until 1990 former territory of the FRG),,,,,standort,,,,,,01/01/2020,28/03/2020,-1
772715,Ambulanz für Kinder- und Jugendpsychiatrie/-psychotherapie,,51.191045128469,6.670398205511,Preußenstraße,84,41464,Neuss,DE,Germany (until 1990 former territory of the FRG),,,,,standort,,,,,,01/01/2020,28/03/2020,-1
772716,Tagesklinik St. Luzia,,51.071212757605,6.809221565691,Elsa-Brändström-Straße,17,41540,Dormagen,DE,Germany (until 1990 former territory of the FRG),,,,,standort,,,,,,01/01/2020,28/03/2020,-1
771705,Tagesklinik Künzelsau,,49.276588055509,9.690578162654,Stettenstraße,32,74653,Künzelsau,DE,Germany (until 1990 former territory of the FRG),,,,,standort,,,,,,01/01/2020,28/03/2020,-1
771706,Tagesklinik Heilbronn,,49.138412284207,9.23166829346,Gutenbergstraße,11,74074,"Heilbronn, Neckar",DE,Germany (until 1990 former territory of the FRG),,,,,standort,,,,,,01/01/2020,28/03/2020,-1
771707,Tagesklinik für Kinder- und Jugendpsychiatrie Winnenden,,48.872726543369,9.397471725924,Schloßstraße,50,71364,"Winnenden, Württemberg",DE,Germany (until 1990 former territory of the FRG),,,,,standort,,,,,,01/01/2020,28/03/2020,-1
771708,Tagesklinik Ludwigsburg,,48.898300610047,9.205151975139,Harteneckstraße,32,71640,"Ludwigsburg, Württemberg",DE,Germany (until 1990 former territory of the FRG),,,,,standort,,,,,,01/01/2020,28/03/2020,-1
771709,Tagesklinik Schwäbisch Hall,,49.10826280971,9.732157766803,Ringstraße,1,74523,Schwäbisch Hall,DE,Germany (until 1990 former territory of the FRG),,,,,standort,,,,,,01/01/2020,28/03/2020,-1
771710,Klinik für Psychosomatische Medizin,,49.153217008565,9.19058221577,Am Gesundbrunnen,20,74078,"Heilbronn, Neckar",DE,Germany (until 1990 former territory of the FRG),,,,,standort,,,,,,01/01/2020,28/03/2020,-1
771711,Klinikum am Weissenhof,,49.165539207845,9.289430737463,Weißenhof,0,74189,Weinsberg,DE,Germany (until 1990 former territory of the FRG),,,,,standort,,,,,,01/01/2020,28/03/2020,-1
773669,Psychiatrische Institutsambulanz Erwachsenenpsychiatrie,,49.072584976177,9.062189161778,Wendelstraße,11,74336,Brackenheim,DE,Germany (until 1990 former territory of the FRG),,,,,standort,,,,,,01/01/2020,28/03/2020,-1
773106,Hauptstandort BW,,47.924434205718,9.76083535591,Robert-Koch-Straße,38,88339,Bad Waldsee,DE,Germany (until 1990 former territory of the FRG),,,,,standort,,,,,,01/01/2020,28/03/2020,-1
771872,Orthopädische Klinik Volmarstein,,51.369035939496,7.375201463519,Lothar-Gau-Straße,11,58300,Wetter(Ruhr),DE,Germany (until 1990 former territory of the FRG),,,,,standort,,,,,,01/01/2020,28/03/2020,-1
773235,Klinikum Herford AöR,,52.126395097108,8.700473427789,Schwarzenmoorstraße,70,32049,Herford,DE,Germany (until 1990 former territory of the FRG),,,,,standort,,,,,,01/01/2020,28/03/2020,-1
773236,Tagesklinik Bünde,,52.210570428023,8.595275044408,Spradower Schweiz,12,32257,Bünde,DE,Germany (until 1990 former territory of the FRG),,,,,standort,,,,,,01/01/2020,28/03/2020,-1
773237,Tagesklinik Herford,,52.113447654723,8.667844998827,Unter den Linden,41,32052,Herford,DE,Germany (until 1990 former territory of the FRG),,,,,standort,,,,,,01/01/2020,28/03/2020,-1
773337,Panorama Fachklinik für Psychosomatik Scheidegg,,47.573685987909,9.858266328993,Kurstraße,22,88175,"Scheidegg, Allgäu",DE,Germany (until 1990 former territory of the FRG),,,,,standort,,,,,,01/01/2020,28/03/2020,-1
773625,Krankenhaus St. Elisabeth Dillingen,,48.575521066276,10.478583946824,Ziegelstraße,38,89407,Dillingen an der Donau,DE,Germany (until 1990 former territory of the FRG),,,,,standort,,,,,,01/01/2020,28/03/2020,-1
772035,Krankenhaus Zwiefalten,,48.231575192252,9.462701976709,Hauptstraße,9,88529,"Zwiefalten, Württemberg",DE,Germany (until 1990 former territory of the FRG),,,,,standort,,,,,,01/01/2020,28/03/2020,-1
772036,TAZ Riedlingen,,48.160342527434,9.478869795767,Zwiefalter Straße,56,88499,"Riedlingen, Württemberg",DE,Germany (until 1990 former territory of the FRG),,,,,standort,,,,,,01/01/2020,28/03/2020,-1
771360,Standort Leezen,,53.660304275963,11.491370379908,Wittgensteiner Platz,1,19067,"Leezen bei Schwerin, Mecklenburg",DE,Germany (until 1990 former territory of the FRG),,,,,standort,,,,,,01/01/2020,28/03/2020,-1
771361,Standort Schwerin,,53.651231002341,11.40658038853,Wismarsche Straße,393,19053,"Schwerin, Mecklenburg",DE,Germany (until 1990 former territory of the FRG),,,,,standort,,,,,,01/01/2020,28/03/2020,-1
771620,St. Josef-Krankenhaus,,50.985778797605,7.378701209891,Wohlandstraße,30,51766,Engelskirchen,DE,Germany (until 1990 former territory of the FRG),,,,,standort,,,,,,01/01/2020,28/03/2020,-1
773718,kbo Kinderzentrum München Schwabing,,48.170781230979,11.579748630556,Kölner Platz,1,80804,München,DE,Germany (until 1990 former territory of the FRG),,,,,standort,,,,,,01/01/2020,28/03/2020,-1
771832,kbo-Kinderzentrum München Fachklinik für Sozialpädiatrie,,48.107042538371,11.478387951884,Heiglhofstraße,65,81377,München,DE,Germany (until 1990 former territory of the FRG),,,,,standort,,,,,,01/01/2020,28/03/2020,-1
772601,Neinstedt,,51.751864268491,11.094308388456,Suderöder Straße (Neinstedt),11,06502,Thale,DE,Germany (until 1990 former territory of the FRG),,,,,standort,,,,,,01/01/2020,28/03/2020,-1
772749,DKD Helios Klinik Wiesbaden,,50.086819296068,8.269077122195,Aukammallee,33,65191,Wiesbaden,DE,Germany (until 1990 former territory of the FRG),,,,,standort,,,,,,01/01/2020,28/03/2020,-1
773732,Nebenbetriebsstätte Kinder- und Jugendmedizin- HSK Wiesbaden,,50.065560538312,8.191899240001,Ludwig-Erhard-Straße,100,65199,Wiesbaden,DE,Germany (until 1990 former territory of the FRG),,,,,standort,,,,,,01/01/2020,28/03/2020,-1
