id,hospital_name,site_name,lat,lon,geo_qual,street,house_number,postcode,city,cc,country,cap_beds,cap_prac,cap_rooms,emergency,facility_type,public_private,list_specs,tel,email,url,ref_date,pub_date,comments
00078/20/2017,Uniwersytecki Szpital Kliniczny w Białymstoku,,53.12585,23.1616,1,M. Curie-Skłodowskiej,24A,15-276,Białystok,PL,Poland,,,,,,,,85 83 18 328,sor.usk@poczta-usk.pl,,29/03/2020,16/04/2020,
00001/30/2017,WIELOSPECJALISTYCZNY SZPITAL MIEJSKI IM. JÓZEFA STRUSIA Z ZAKŁADEM OPIEKUŃCZO - LECZNICZYM. SAMODZIELNY PUBLICZNY ZAKŁAD OPIEKI ZDROWOTNEJ Z SIEDZIBĄ W POZNANIU PRZY UL. SZWAJCARSKIEJ 3.,,52.38957,16.99503,1,Szwajcarska,3,61-285,Poznań-Nowe Miasto - Poznań,PL,Poland,,,,,,,,618739000,dyrekcja@szpital-strusia.poznan.pl,,29/03/2020,16/04/2020,
00002/30/2017,SZPITAL POWIATOWY IM. PROF. ROMANA DREWSA,,52.9879,16.91478,1,Stefana Żeromskiego,29,64-800,Chodzież,PL,Poland,,,,,,,,67 2826700,szpitalpowiatowy@chodziez.pl,,29/03/2020,16/04/2020,
00004/30/2017,ZESPÓŁ ZAKŁADÓW OPIEKI ZDROWOTNEJ W CZARNKOWIE,,52.89721,16.55618,1,Kościuszki,96,64-700,Czarnków,PL,Poland,,,,,,,,67 3528170,sekretariat@zzozczarnkow.x.pl,,29/03/2020,16/04/2020,
00005/30/2017,SZPITAL POMNIK CHRZTU POLSKI,,52.53842,17.59733,1,św. Jana,9,62-200,Gniezno,PL,Poland,,,,,,,,61 2228300,poczta@zoz.gniezno.pl,,29/03/2020,16/04/2020,
00008/30/2017,"WOJEWÓDZKI SZPITAL DLA NERWOWO I PSYCHICZNIE CHORYCH ""DZIEKANKA""",,52.53325,17.57718,1,Poznańska,15,62-200,Gniezno,PL,Poland,,,,,,,,61 4238500,sekretariat@dziekanka.net,,29/03/2020,16/04/2020,
00011/30/2017,SAMODZIELNY PUBLICZNY ZESPÓŁ OPIEKI ZDROWOTNEJ W GOSTYNIU,,51.88272,17.01073,1,Karola Marcinkowskiego,8,63-800,Gostyń,PL,Poland,,,,,,,,65 5726700,szpital.gostyn@gmail.com,,29/03/2020,16/04/2020,
00012/30/2017,SAMODZIELNY PUBLICZNY ZAKŁAD OPIEKI ZDROWOTNEJ,,52.22818,16.36863,2,Mossego,17,62-065,Grodzisk Wielkopolski,PL,Poland,,,,,,,,61 4445523,szpital@spzoz-grodzisk.pl,,29/03/2020,16/04/2020,
00013/30/2017,'SZPITAL POWIATOWY W JAROCINIE' SPÓŁKA Z OGRANICZONĄ ODPOWIEDZIALNOŚCIĄ,,51.96958,17.50462,1,Szpitalna,1,63-200,Jarocin,PL,Poland,,,,,,,,62 3322350,sekretariat@szpitaljarocin.pl,,29/03/2020,16/04/2020,
00017/30/2017,WOJEWÓDZKI SZPITAL ZESPOLONY IM.LUDWIKA PERZYNY W KALISZU,,51.76421,18.06588,1,Poznańska,79,62-800,Kalisz,PL,Poland,,,,,,,,62 7651356,sekretariat@szpital.kalisz.pl,,29/03/2020,16/04/2020,
00028/30/2017,SAMODZIELNY PUBLICZNY ZAKŁAD OPIEKI ZDROWOTNEJ W KĘPNIE,,51.2768,17.98385,1,Szpitalna,7,63-600,Kępno,PL,Poland,,,,,,,,62 7827309,sekretariat@szpital.kepno.pl,,29/03/2020,16/04/2020,
00029/30/2017,SAMODZIELNY PUBLICZNY ZAKŁAD OPIEKI ZDROWOTNEJ W KOLE,,52.18485,18.61885,1,Józefa Poniatowskiego,25,62-600,Koło,PL,Poland,,,,,,,,63 2626100,sekretariat@spzozkolo.pl,,29/03/2020,16/04/2020,
00030/30/2017,Wojewódzki Szpital Zespolony w Koninie,,52.1949,18.23976,1,Szpitalna,45,62-504,Konin,PL,Poland,,,,,,,,63 2404124,szpital@szpital-konin.pl,,29/03/2020,16/04/2020,
00039/30/2017,WOJEWÓDZKI SZPITAL NEUROPSYCHIATRYCZNY IM.OSKARA BIELAWSKIEGO W KOŚCIANIE,,52.0847,16.63657,1,Plac Ignacego Paderewskiego,1A,64-000,Kościan,PL,Poland,,,,,,,,65 5115100,sekretariat@szpital.koscian.pl,,29/03/2020,16/04/2020,
00048/30/2017,SAMODZIELNY PUBLICZNY ZESPÓŁ OPIEKI ZDROWOTNEJ W KOŚCIANIE,,52.0849,16.64739,1,Szpitalna,7,64-000,Kościan,PL,Poland,,,,,,,,65 5120855,sekretariat@szpital.koscian.pl,,29/03/2020,16/04/2020,
00050/30/2017,SAMODZIELNY PUBLICZNY ZAKŁAD OPIEKI ZDROWOTNEJ W KROTOSZYNIE,,51.69056,17.43888,1,Młyńska,2,63-700,Krotoszyn,PL,Poland,,,,,,,,62 5880401,spzoz@krotoszyn.pl,,29/03/2020,16/04/2020,
00053/30/2017,WOJEWÓDZKI SZPITAL ZESPOLONY W LESZNIE,,51.83886,16.60643,1,Jana Kiepury,45,64-100,Leszno,PL,Poland,,,,,,,,65 5253113,wsz@wsz.leszno.pl,,29/03/2020,16/04/2020,
00060/30/2017,SZPITAL POWIATOWY,,52.59948,15.88974,1,Szpitalna,10,64-400,Międzychód,PL,Poland,,,,,,,,95 7482711,spzozmiedzychod@spzoz-miedzychod.com.pl,,29/03/2020,16/04/2020,
00061/30/2017,SAMODZIELNY PUBLICZNY ZAKŁAD OPIEKI ZDROWOTNEJ IMIENIA DOKTORA KAZIMIERZA HOŁOGI,,52.31597,16.1386,1,Poznańska,30,64-300,Nowy Tomyśl,PL,Poland,,,,,,,,61 4427300,spzoz18@post.pl,,29/03/2020,16/04/2020,
00065/30/2017,SAMODZIELNY PUBLICZNY ZAKŁAD OPIEKI ZDROWOTNEJ W OBORNIKACH,,52.65329,16.81607,1,Szpitalna,2,64-600,Oborniki,PL,Poland,,,,,,,,61 2973600,szpital@szpital.oborniki.info,,29/03/2020,16/04/2020,
00067/30/2017,ZESPÓŁ ZAKŁADÓW OPIEKI ZDROWOTNEJ W OSTROWIE WIELKOPOLSKIM,,51.65447,17.82417,1,Bolesława Limanowskiego,20,63-400,Ostrów Wielkopolski,PL,Poland,,,,,,,,62 5951112,szpital@szpital.osw.pl,,29/03/2020,16/04/2020,
00074/30/2017,OSTRZESZOWSKIE CENTRUM ZDROWIA SPÓŁKA Z OGRANICZONĄ ODPOWIEDZIALNOŚCIĄ,,51.42567,17.92722,1,Aleja Wolności,4,63-500,Ostrzeszów,PL,Poland,,,,,,,,62 5032236,sekretariat@szpital.ostrzeszow.pl,,29/03/2020,16/04/2020,
00075/30/2017,SZPITAL SPECJALISTYCZNY W PILE IM. STANISŁAWA STASZICA,,53.1219,16.71957,1,Ludwika Rydygiera,1,64-920,Piła,PL,Poland,,,,,,,,67 2106666,wszpila@pi.onet.pl,,29/03/2020,16/04/2020,
00083/30/2017,"""Pleszewskie Centrum Medyczne w Pleszewie"" Spółka z ograniczoną odpowiedzialnością",,51.8984774,17.7654486,1,Poznańska,125A,63-300,Pleszew,PL,Poland,,,,,,,,62 7420700,zozpleszew@send.pl,,29/03/2020,16/04/2020,
00085/30/2017,SZPITAL WOJEWÓDZKI W POZNANIU,,52.4411961,16.9061704,1,Juraszów,7,60-479,Poznań-Jeżyce - Poznań,PL,Poland,,,,,,,,61 8212221,szpital@lutycka.pl,,29/03/2020,16/04/2020,
00100/30/2017,SZPITAL MIEJSKI IM. FRANCISZKA RASZEI,,52.41335,16.91288,1,Adama Mickiewicza,2,60-834,Poznań-Jeżyce - Poznań,PL,Poland,,,,,,,,61 2245321,sekretariat@raszeja.poznan.pl,,29/03/2020,16/04/2020,
00102/30/2017,SZPITAL KLINICZNY IM.HELIODORA ŚWIĘCICKIEGO UNIWERSYTETU MEDYCZNEGO IM.KAROLA MARCINKOWSKIEGO W POZNANIU,,52.40355,16.8878,1,Stanisława Przybyszewskiego,49,60-355,Poznań-Grunwald - Poznań,PL,Poland,,,,,,,,61 8691203,szpital@spsk2.pl,,29/03/2020,16/04/2020,
00109/30/2017,SZPITAL KLINICZNY IM. KAROLA JONSCHERA UNIWERSYTETU MEDYCZNEGO IM. KAROLA MARCINKOWSKIEGO W POZNANIU,,52.41272658439695,16.877572934648082,2,Szpitalna,27,60-572,Poznań-Jeżyce - Poznań,PL,Poland,,,,,,,,61 8491200,kancelaria@skp.ump.edu.pl,,29/03/2020,16/04/2020,
00117/30/2017,"""CENTRUM MEDYCZNE HCP"" SPÓŁKA Z OGRANICZONĄ ODPOWIEDZIALNOŚCIĄ",,52.38332,16.91235,1,28 Czerwca 1956 r.,194,61-485,Poznań-Wilda - Poznań,PL,Poland,,,,,,,,61 2274104,sekretariat@cmhcp.eu,,29/03/2020,16/04/2020,
00121/30/2017,SZPITAL KLINICZNY PRZEMIENIENIA PAŃSKIEGO UNIWERSYTETU MEDYCZNEGO IM. KAROLA MARCINKOWSKIEGO W POZNANIU,,52.40364,16.93566,1,Długa,1/2,61-848,Poznań-Stare Miasto - Poznań,PL,Poland,,,,,,,,61 8549243,szpital@skpp.edu.pl,,29/03/2020,16/04/2020,
00124/30/2017,GINEKOLOGICZNO - POŁOŻNICZY SZPITAL KLINICZNY UNIWERSYTETU MEDYCZNEGO IM. KAROLA MARCINKOWSKIEGO W POZNANIU,,52.40961,16.89505,1,Polna,33,60-535,Poznań-Jeżyce - Poznań,PL,Poland,,,,,,,,61 8419224,office@gpsk.ump.edu.pl,,29/03/2020,16/04/2020,
00125/30/2017,SAMODZIELNY PUBLICZNY ZAKŁAD OPIEKI ZDROWOTNEJ MINISTERSTWA SPRAW WEWNĘTRZNYCH I ADMINISTRACJI W POZNANIU IM. PROF. LUDWIKA BIERKOWSKIEGO,,52.4398622,16.902948,1,Dojazd,34,60-631,Poznań-Jeżyce - Poznań,PL,Poland,,,,,,,,61 8464780,sekretariat@szpitalmswia.poznan.pl,,29/03/2020,16/04/2020,
00129/30/2017,SZPITAL W PUSZCZYKOWIE IM. PROF. S.T. DĄBROWSKIEGO SPÓŁKA AKCYJNA,,52.26389,16.86853,1,Józefa Ignacego Kraszewskiego,11,62-041,Puszczykowo,PL,Poland,,,,,,,,61 8984004,kancelaria@szpitalwpuszczykowie.com.pl,,29/03/2020,16/04/2020,
00134/30/2017,ORTOPEDYCZNO-REHABILITACYJNY SZPITAL KLINICZNY IM. WIKTORA DEGI UNIWERSYTETU MEDYCZNEGO IM. KAROLA MARCINKOWSKIEGO W POZNANIU,,52.3890906,16.9192184,1,28 Czerwca 1956 r.,135,61-545,Poznań-Wilda - Poznań,PL,Poland,,,,,,,,61 8310350,orsk@orsk.ump.edu.pl,,29/03/2020,16/04/2020,
00140/30/2017,"""SZPITAL POWIATOWY W RAWICZU"" SPÓŁKA Z OGRANICZONĄ ODPOWIEDZIALNOŚCIĄ",,51.61489,16.84239,1,gen. Grota Roweckiego,6,63-900,Rawicz,PL,Poland,,,,,,,,65 5452162,sekretariat@szpitalrawicz.pl,,29/03/2020,16/04/2020,
00141/30/2017,SAMODZIELNY PUBLICZNY ZAKŁAD OPIEKI ZDROWOTNEJ W SŁUPCY,,52.29115,17.87339,1,Romualda Traugutta,7,62-400,Słupca,PL,Poland,,,,,,,,63 2752300,biuro@szpital.slupca.pl,,29/03/2020,16/04/2020,
00144/30/2017,SZPITAL ŚREDZKI SERCA JEZUSOWEGO SPÓŁKA Z OGRANICZONĄ ODPOWIEDZIALNOŚCIĄ,,52.2275,17.28502,1,Żwirki i Wigury,10,63-000,Środa Wielkopolska,PL,Poland,,,,,,,,61 2854031,sekretariat@szpitalsredzki.pl,,29/03/2020,16/04/2020,
00145/30/2017,WIELKOPOLSKI OŚRODEK REUMATOLOGICZNY SAMODZIELNY PUBLICZNY SPECJALISTYCZNY ZESPÓŁ OPIEKI ZDROWOTNEJ W ŚREMIE,,52.08448,17.02538,1,Adama Mickiewicza,95,63-100,Śrem,PL,Poland,,,,,,,,61 2246300,por@reumatologia.srem.net,,29/03/2020,16/04/2020,
00146/30/2017,SAMODZIELNY PUBLICZNY ZESPÓŁ OPIEKI ZDROWOTNEJ W TURKU,,52.01039,18.49086,1,Poduchowne,1,62-700,Turek,PL,Poland,,,,,,,,63 2805600,sekretariat@szpital.turek.pl,,29/03/2020,16/04/2020,
00148/30/2017,ZESPÓŁ OPIEKI ZDROWOTNEJ W WĄGROWCU,,52.81798,17.20497,1,Kościuszki,74,62-100,Wągrowiec,PL,Poland,,,,,,,,67 2681502,szpital@wagrowiec.pl,,29/03/2020,16/04/2020,
00149/30/2017,SAMODZIELNY PUBLICZNY ZAKŁAD OPIEKI ZDROWOTNEJ W WOLSZTYNIE,,52.11669,16.11729,1,Wschowska,3,64-200,Wolsztyn,PL,Poland,,,,,,,,68 3477300,sekretariat@spzozwolsztyn.pl,,29/03/2020,16/04/2020,
00150/30/2017,SZPITAL POWIATOWY IM. ALFREDA SOKOŁOWSKIEGO W ZŁOTOWIE,,53.35546,17.04493,1,Szpitalna,28,77-400,Złotów,PL,Poland,,,,,,,,67 2632233,sekretariat@szpital.zlotow.pl,,29/03/2020,16/04/2020,
00001/12/2017,NOWY SZPITAL W OLKUSZU SPÓŁKA Z OGRANICZONĄ ODPOWIEDZIALNOŚCIĄ,,50.26925,19.56924,1,1000-lecia,"13        ",32-300,Olkusz,PL,Poland,,,,,,,,41 240 12 68,sekretariat.olkusz@nowyszpital.pl,,29/03/2020,16/04/2020,
00087/28/2017,SAMODZIELNY PUBLICZNY ZAKŁAD OPIEKI ZDROWOTNEJ MINISTERSTWA SPRAW WEWNĘTRZNYCH I ADMINISTRACJI Z WARMIŃSKO-MAZURSKIM CENTRUM ONKOLOGII W OLSZTYNIE,,53.79376,20.48312,1,Aleja Wojska Polskiego,"37        ",10-228,Olsztyn,PL,Poland,,,,,,,,"89 539 83 41,   89 539 82 77",sekretariat@poliklinika.net,,29/03/2020,16/04/2020,
00091/28/2017,"""OLMEDICA W OLECKU - SPÓŁKA Z OGRANICZONĄ ODPOWIEDZIALNOŚCIĄ """,,54.0423,22.49703,1,Gołdapska,1,19-400,Olecko,PL,Poland,,,,,,,,87 520 22 95 wew. 331,olmedica@olmedica.pl,,29/03/2020,16/04/2020,
00092/28/2017,"""PRO-MEDICA"" W EŁKU SPÓŁKA Z OGRANICZONĄ ODPOWIEDZIALNOŚCIĄ ",,53.79353,22.33987,1,Baranki,24,19-300,Ełk,PL,Poland,,,,,,,,87 620 95 90 /  87 620 95 12,biuro-pm@szpital.elk.pl,,29/03/2020,16/04/2020,
00093/28/2017,SZPITAL POWIATOWY W KĘTRZYNIE,,54.08261,21.3774,1,Marii Curie-Skłodowskiej,2,11-400,Kętrzyn,PL,Poland,,,,,,,,664 358 067  /  664 658 050,sekretariat@szpital-ketrzyn.pl,,29/03/2020,16/04/2020,
00094/28/2017,ZESPÓŁ OPIEKI ZDROWOTNEJ W SZCZYTNIE,,53.55738,20.98623,1,Marii Curie-Skłodowskiej,12,12-100,Szczytno,PL,Poland,,,,,,,,89 623 21 21,dyrektor@szpital.szczytno.pl,,29/03/2020,16/04/2020,
00095/28/2017,ZESPÓŁ OPIEKI ZDROWOTNEJ W NIDZICY,,53.35974,20.43252,1,Mickiewicza,23,13-100,Nidzica,PL,Poland,,,,,,,,"89 625 05 18,  570 002 949",szpital@zoz.nidzica.pl,,29/03/2020,16/04/2020,
00096/28/2017,SZPITAL POWIATOWY IM. JANA MIKULICZA W BISKUPCU,,53.86616,20.95711,1,Armii Krajowej,8,11-300,Biskupiec,PL,Poland,,,,,,,,89 715 62 87,info@szpital-biskupiec.pl,,29/03/2020,16/04/2020,
00097/28/2017,UNIWERSYTECKI SZPITAL KLINICZNY W OLSZTYNIE,,53.77251,20.47191,1,Aleja Warszawska,30,10-082,Olsztyn,PL,Poland,,,,,,,,89 524 54 01,kancelaria.szpital@uwm.edu.pl,,29/03/2020,16/04/2020,
00098/28/2017,ZESPÓŁ ZAKŁADÓW OPIEKI ZDROWOTNEJ W DOBRYM MIEŚCIE,,53.98482,20.40336,1,Grunwaldzka,10 B,11-040,Dobre Miasto,PL,Poland,,,,,,,,"89 616 82 28 ",sekretariat@szpitaldobremiasto.pl,,29/03/2020,16/04/2020,
00099/28/2017,ZESPÓŁ OPIEKI ZDROWOTNEJ W LIDZBARKU WARMIŃSKIM,,54.12552,20.58877,1,Kardynała Stefana Wyszyńskiego,37,11-100,Lidzbark Warmiński,PL,Poland,,,,,,,,89 767 75 11,sekretariat@zozlw.pl,,29/03/2020,16/04/2020,
00100/28/2017,MIEJSKI SZPITAL ZESPOLONY W OLSZTYNIE,,53.77024,20.47956,1,Niepodległości,44,10-045,Olsztyn,PL,Poland,,,,,,,,"89 532 62 05,  89 532 62 77 ",sekretariat@szpital.olsztyn.pl,,29/03/2020,16/04/2020,
00101/28/2017,POWIATOWE CENTRUM MEDYCZNE SPÓŁKA Z OGRANICZONĄ ODPOWIEDZIALNOŚCIĄ W BRANIEWIE,,54.37472,19.82901,1,Moniuszki,13,14-500,Braniewo,PL,Poland,,,,,,,,55 620 84 67,sekretariat@szpital-braniewo.home.pl,,29/03/2020,16/04/2020,
00102/28/2017,SZPITAL MIEJSKI W MORĄGU SPÓŁKA Z OGRANICZONĄ ODPOWIEDZIALNOŚCIĄ,,53.9159179,19.9235725,1,Generała Jana Henryka Dąbrowskiego,16,14-300,Morąg,PL,Poland,,,,,,,,"89 757 42 31 wew. 393,  m. 509 961 964",biuro@szpitalmorag.pl,,29/03/2020,16/04/2020,
00103/28/2017,SZPITAL W OSTRÓDZIE SPÓŁKA AKCYJNA,,53.69317,19.97454,1,Władysława Jagiełły,1,14-100,Ostróda,PL,Poland,,,,,,,,89 646 06 18,sekretariat@szpital-ostroda.pl,,29/03/2020,16/04/2020,
00104/28/2017,"SZPITAL POWIATOWY W NOWYM MIEŚCIE LUBAWSKIM SPÓŁKA Z OGRANICZONĄ ODPOWIEDZIALNOŚCIĄ ",,53.42419,19.58665,1,Mickiewicza,10,13-300,Nowe Miasto Lubawskie,PL,Poland,,,,,,,,56 472 41 18,zoznowemiasto@wp.pl,,29/03/2020,16/04/2020,
00105/28/2017,SZPITAL MIEJSKI ŚW. JANA PAWŁA II W ELBLĄGU,,54.15612,19.42491,1,Jana Amosa Komeńskiego,35,82-300,Elbląg,PL,Poland,,,,,,,," 55 239 44 44;   55  643 80 23",sekretariat.ess@elblag.com.pl,,29/03/2020,16/04/2020,
00106/28/2017,"""SZPITAL POWIATOWY SPÓŁKA Z OGRANICZONĄ ODPOWIEDZIALNOSCIĄ W PASŁĘKU""",,54.06204,19.66485,1,Kopernika,24 A,14-400,Pasłęk,PL,Poland,,,,,,,,55 249 15 02,sekretariat@szpitalpaslek.com,,29/03/2020,16/04/2020,
00107/28/2017,MAZURSKIE CENTRUM ZDROWIA SZPITAL POWIATOWY W WĘGORZEWIE PUBLICZNY ZAKŁAD OPIEKI ZDROWOTNEJ,,54.20692,21.73658,1,3 Maja,17,11-600,Węgorzewo,PL,Poland,,,,,,,," 87 427 32 52 wew. 112",sekretariat@szpitalwegorzewo.pl,,29/03/2020,16/04/2020,
00001/26/2017,Wojewódzki Szpital Zespolony w Kielcach,,50.8752065,20.6001394,1,Grunwaldzka,45,25-736,Kielce,PL,Poland,,,,,,,,41 3671301,szpital@wszzkielce.pl,,29/03/2020,16/04/2020,
00094/32/2017,Samodzielny Publiczny Szpital Kliniczny Nr 1 im. prof. Tadeusza Sokołowskiego Pomorskiego Uniwersytetu Medycznego w Szczecinie,,53.44845,14.50463,1,Unii Lubelskiej,1,71-252,Szczecin,PL,Poland,,,,,,,,91 425 30 00,szpital@spsk1.szn.pl,,29/03/2020,16/04/2020,
00111/28/2017,SAMODZIELNY PUBLICZNY ZAKŁAD OPIEKI ZDROWOTNEJ SZPITAL POWIATOWY W PISZU,,53.62602,21.79953,1,Henryka Sienkiewicza,2,12-200,Pisz,PL,Poland,,,,,,,,87 425 45 60,sekretariat@szpitalpisz.pl,,29/03/2020,16/04/2020,
00112/28/2017,SZPITAL MRĄGOWSKI IM. MICHAŁA KAJKI SPÓŁKA Z OGRANICZONĄ ODPOWIEDZIALNOŚCIĄ,,53.87939,21.30368,1,Wolności,12,11-700,Mrągowo,PL,Poland,,,,,,,,"89 741 94 07,  89 741 94 76",sekretariat@szpital-mragowo.pl,,29/03/2020,16/04/2020,
00114/28/2017,SZPITAL POWIATOWY IM. JANA PAWŁA II W BARTOSZYCACH,,54.25854,20.79237,1,Kardynała Wyszyńskiego,11,11-200,Bartoszyce,PL,Poland,,,,,,,,89  675 22 42  /  89 675 22 43,sekretariat@szpital-bartoszyce.pl,,29/03/2020,16/04/2020,
00118/28/2017,WOJEWÓDZKI SZPITAL SPECJALISTYCZNY W OLSZTYNIE,,53.76818,20.49541,1,Żołnierska,18,10-561,Olsztyn,PL,Poland,,,,,,,,"89 538 63 31,  89 538 65 23",szpital@wss.olsztyn.pl,,29/03/2020,16/04/2020,
00124/28/2017,Samodzielny Publiczny Zakład Opieki Zdrowotnej w Działdowie,,53.24178,20.19255,1,Leśna,1,13-200,Działdowo,PL,Poland,,,,,,,,"23 697 22 11 w.113,  116",sekretariat@spzoz-dzialdowo.pl,,29/03/2020,16/04/2020,
00126/28/2017,POWIATOWY SZPITAL IM. WŁADYSŁAWA BIEGAŃSKIEGO W IŁAWIE,,53.58652,19.5668,1,gen. Władysława Andersa,3,14-200,Iława,PL,Poland,,,,,,,,89 644 96 58,kancelaria@szpital.ilawa.pl,,29/03/2020,16/04/2020,
00127/28/2017,WOJEWÓDZKI SZPITAL ZESPOLONY W ELBLĄGU,,54.1797,19.42906,1,Królewiecka,146,82-300,Elbląg,PL,Poland,,,,,,,,55 239 57 59;   55 239 56 58,sekretariat@szpital.elblag.pl,,29/03/2020,16/04/2020,
00130/28/2017,"""SZPITAL GIŻYCKI"" SPÓŁKA Z OGRANICZONĄ ODPOWIEDZIALNOŚCIĄ",,54.03681,21.78217,1,Warszawska,41,11-500,Giżycko,PL,Poland,,,,,,,,"87 429 67 31,  87 429 67 32",sekretariat@zozgiz.pl,,29/03/2020,16/04/2020,
00112/32/2017,Samodzielny Publiczny Szpital Kliniczny Nr 2 PUM w Szczecinie,,53.40816,14.52969,1,Powstańców Wielkopolskich,72,70-111,Szczecin,PL,Poland,,,,,,,,91 466 10 10,spsk2@spsk2-szczecin.pl,,29/03/2020,16/04/2020,
00117/32/2017,Samodzielny Publiczny Wojewódzki Szpital Zespolony w Szczecinie,,53.45285,14.52582,1,Arkońska,4,71-455,Szczecin,PL,Poland,,,,,,,,91 813 90 00,spwsz@spwsz.szczecin.pl,,29/03/2020,16/04/2020,
00131/28/2017,WOJEWÓDZKI SPECJALISTYCZNY SZPITAL DZIECIĘCY IM. PROF. DR STANISŁAWA POPOWSKIEGO W OLSZTYNIE,,53.76818,20.49541,1,Żołnierska,18 a,10-561,Olsztyn,PL,Poland,,,,,,,,"89 539 33 15, 89 539 33 13",sekretariat@wssd.olsztyn.pl,,29/03/2020,16/04/2020,
00144/28/2017,"NIEPUBLICZNY ZAKŁAD OPIEKI ZDROWOTNEJ ""MALARKIEWICZ I SPÓŁKA"" SPÓŁKA JAWNA",,53.80213,20.50791,1,Jagiellońska,78A,10-357,Olsztyn,PL,Poland,,,,,,,,"89 513 02 70,   89 525 21 05",nzoz@szpital-olsztyn.pl,,29/03/2020,16/04/2020,
00134/32/2017,"Samodzielny Publiczny Specjalistyczny Zakład Opieki Zdrowotnej ""ZDROJE""",,53.37295,14.64211,1,Mączna,4,70-780,Szczecin,PL,Poland,,,,,,,,91 880 65 74,sor@zoz-zdroje.szczecin.pl,,29/03/2020,16/04/2020,
00140/32/2017,"SAMODZIELNY PUBLICZNY SPECJALISTYCZNY ZAKŁAD OPIEKI ZDROWOTNEJ ""ZDROJE""",,53.37295,14.64211,1,Mączna,4,70-780,Szczecin,PL,Poland,,,,,,,,91 880 60 64,sor@zoz-zdroje.szczecin.pl,,29/03/2020,16/04/2020,
00147/32/2017,SZPITAL BARLINEK SPÓŁKA Z OGRANICZONĄ ODPOWIEDZIALNOŚCIĄ,,52.99781,15.22447,1,Szpitalna,10,74-320,Barlinek,PL,Poland,,,,,,,,95 749 18 10,izbaprzyjec@szpitalbarlinek.pl,,29/03/2020,16/04/2020,
00150/32/2017,"Samodzielny Publiczny Wielospecjalistyczny Zakład Opieki Zdrowotnej w Stargardzie ",,53.34277,15.03629,1,Wojska Polskiego,27,73-110,Stargard,PL,Poland,,,,,,,,91 578 92 70,sor@zozstargard.pl,,29/03/2020,16/04/2020,
00153/32/2017,Samodzielny Publiczny Zespół Zakładów Opieki Zdrowotnej w Gryficach,,53.9243,15.17442,1,Niechorska,27,72-300,Gryfice,PL,Poland,,,,,,,,91 384 20 61,szpital@medicam.pl,,29/03/2020,16/04/2020,
00100/18/2017,KLINICZNY SZPITAL WOJEWÓDZKI NR 2 IM. ŚW.JADWIGI KRÓLOWEJ W RZESZOWIE,,50.03603,22.03549,1,Lwowska,60,35-301,Rzeszów,PL,Poland,,,,,,,,17 866 49 40,sekretariat@szpital2.rzeszow.pl,,29/03/2020,16/04/2020,
00101/18/2017,SZPITAL SPECJALISTYCZNY W BRZOZOWIE PODKARPACKI OŚRODEK ONKOLOGICZNY IM.KS.B.MARKIEWICZA,,49.69256,22.02463,1,ks. Józefa Bielawskiego,18,36-200,Brzozów,PL,Poland,,,,,,,,13 430 95 00,onkologia@szpital-brzozow.pl,,29/03/2020,16/04/2020,
00109/18/2017,Zespół Opieki Zdrowotnej w Dębicy,,50.03905,21.39317,1,Krakowska,91,39-200,Dębica,PL,Poland,,,,,,,,14 680 82 94,info@zoz-debica.pl,,29/03/2020,16/04/2020,
00122/18/2017,Szpital Specjalistyczny w Jaśle,,49.75238,21.48041,1,Lwowska,22,38-200,Jasło,PL,Poland,,,,,,,,13 443 75 63,szpital@szpital.jaslo.pl,,29/03/2020,16/04/2020,
00128/18/2017,CENTRUM OPIEKI MEDYCZNEJ,,50.01357,22.69341,1,3 Maja,70,37-500,Jarosław,PL,Poland,,,,,,,,16 621 54 21,sekretariat@comjar.pl,,29/03/2020,16/04/2020,
00134/18/2017,SPECJALISTYCZNY PSYCHIATRYCZNY ZESPÓŁ OPIEKI ZDROWOTNEJ IM.PROF.ANTONIEGO KĘPIŃSKIEGO W JAROSŁAWIU,,50.01878,22.67329,1,Tadeusza Kościuszki,18,37-500,Jarosław,PL,Poland,,,,,,,,16 621 46 11,spzoz_jaroslaw@poczta.onet.pl,,29/03/2020,16/04/2020,
00139/18/2017,SAMODZIELNY PUBLICZNY ZESPÓŁ OPIEKI ZDROWOTNEJ W KOLBUSZOWEJ,,50.24256,21.76249,1,Grunwaldzka,4,36-100,Kolbuszowa,PL,Poland,,,,,,,,17 227 12 22,sekretariat@szpital.kolbuszowa.pl,,29/03/2020,16/04/2020,
00145/18/2017,Wojewódzki Szpital Podkarpacki im.Jana Pawła II w Krośnie,,49.70179,21.78273,1,Korczyńska,57,38-400,Krosno,PL,Poland,,,,,,,,13 437 80 00,szpital@krosno.med.pl,,29/03/2020,16/04/2020,
00154/18/2017,INTERCARD SPÓŁKA Z OGRANICZONĄ ODPOWIEDZIALNOŚCIĄ,,50.07281,19.95833,1,Aleja płk. Władysława Beliny-Prażmowskiego,60,31-514,Kraków-Śródmieście - Kraków,PL,Poland,,,,,,,,13 430 82 80,krosno@intercard.net.pl,,29/03/2020,16/04/2020,
00156/18/2017,Samodzielny Publiczny Zespół Opieki Zdrowotnej w Lesku,,49.47069,22.32994,1,Kazimierza Wielkiego,4,38-600,Lesko,PL,Poland,,,,,,,,13 469 65 58,chirurgia@spzozlesko.pl,,29/03/2020,16/04/2020,
00161/18/2017,SAMODZIELNY PUBLICZNY ZESPÓŁ OPIEKI ZDROWOTNEJ W LEŻAJSKU,,50.27183,22.40148,1,Leśna,22,37-300,Leżajsk,PL,Poland,,,,,,,,17 240 48 22,spzoz.lezajsk@pro.onet.pl,,29/03/2020,16/04/2020,
00171/18/2017,SAMODZIELNY PUBLICZNY ZAKŁAD OPIEKI ZDROWOTNEJ W LUBACZOWIE,,50.17112,23.12338,1,Adama Mickiewicza,168,37-600,Lubaczów,PL,Poland,,,,,,,,16 632 81 23,seketariat@szpital.lubaczowski.com,,29/03/2020,16/04/2020,
00176/18/2017,"""CENTRUM MEDYCZNE W ŁAŃCUCIE"" SPÓŁKA Z OGRANICZONĄ ODPOWIEDZIALNOŚCIĄ",,50.06602,22.23272,1,Ignacego Paderewskiego,5,37-100,Łańcut,PL,Poland,,,,,,,,17 224 01 21,sekretariat@cm-lancut.pl,,29/03/2020,16/04/2020,
00187/18/2017,SZPITAL POWIATOWY IM.EDMUNDA BIERNACKIEGO W MIELCU,,50.28823,21.43717,1,Żeromskiego,22,39-300,Mielec,PL,Poland,,,,,,,,17 780 01 63,o.chirurgii@szpital.mielec.pl,,29/03/2020,16/04/2020,
00198/18/2017,American Heart of Poland Spółka Akcyjna,,49.72435,18.82668,1,Sanatoryjna,1,43-450,Ustroń,PL,Poland,,,,,,,,17 780 82 18,paks5@ahop.pl,,29/03/2020,16/04/2020,
00200/18/2017,SAMODZIELNY PUBLICZNY ZESPÓŁ ZAKŁADÓW OPIEKI ZDROWOTNEJ W NISKU,,50.51974,22.14305,1,Tadeusza Kościuszki,1,37-400,Nisko,PL,Poland,,,,,,,,15 841 67 03,info@szpital-nisko.pl,,29/03/2020,16/04/2020,
00214/18/2017,KLINICZNY SZPITAL WOJEWÓDZKI NR 1 IM.FRYDERYKA CHOPINA W RZESZOWIE,,50.03581,22.00932,1,Fryderyka Szopena,2,35-055,Rzeszów,PL,Poland,,,,,,,,17 866 60 86,wsspon@wp.pl,,29/03/2020,16/04/2020,
00221/18/2017,SAMODZIELNY PUBLICZNY ZAKŁAD OPIEKI ZDROWOTNEJ MINISTERSTWA SPRAW WEWNĘTRZNYCH I ADMINISTRACJI W RZESZOWIE,,50.04689,21.98225,1,Krakowska,16,35-111,Rzeszów,PL,Poland,,,,,,,,17 864 33 13,sekretariat@szpitalmsw.rzeszow.pl,,29/03/2020,16/04/2020,
00227/18/2017,WOJEWÓDZKI PODKARPACKI SZPITAL PSYCHIATRYCZNY IM.PROF.EUGENIUSZA BRZEZICKIEGO W ŻURAWICY,,49.82625,22.76813,1,Różana,9,37-710,Żurawica,PL,Poland,,,,,,,,16 672 30 03,szpitalzurawica@poczta.onet.pl,,29/03/2020,16/04/2020,
00229/18/2017,WOJEWÓDZKI SZPITAL IM. ŚW.OJCA PIO W PRZEMYŚLU,,49.80843,22.78332,1,Monte Cassino,18,37-700,Przemyśl,PL,Poland,,,,,,,,19 677 50 00,sekretariat@wszp.pl,,29/03/2020,16/04/2020,
00237/18/2017,SAMODZIELNY PUBLICZNY ZESPÓŁ OPIEKI ZDROWOTNEJ NR 1 W RZESZOWIE,,50.02933,21.99823,1,Tadeusza Czackiego,2,35-051,Rzeszów,PL,Poland,,,,,,,,17 853 25 60,biuro@spzoz1.rzeszow.pl,,29/03/2020,16/04/2020,
00247/18/2017,NOWE TECHNIKI MEDYCZNE SZPITAL SPECJALISTYCZNY IMIENIA ŚWIĘTEJ RODZINY SPÓŁKA Z OGRANICZONĄ ODPOWIEDZIALNOŚCIĄ,,50.105046980836406,21.978575404832643,2,Brzozowa,600,36-060,Głogów Małopolski - Rudna Mała,PL,Poland,,,,,,,,17 866 67 01,sekretariat@klinika-rzeszow.pl,,29/03/2020,16/04/2020,
00254/18/2017,G.V.M.CARINT SPÓŁKA Z OGRANICZONĄ ODPOWIEDZIALNOŚCIĄ,,50.07281,19.95833,1,Aleja płk. Władysława Beliny-Prażmowskiego,60,31-514,Kraków-Śródmieście - Kraków,PL,Poland,,,,,,,,13 464 22 12,nzozsanok@gvmcarint.eu,,29/03/2020,16/04/2020,
00256/18/2017,Zespół Opieki Zdrowotnej w Strzyżowie,,49.8676,21.78735,1,Dąbrowskiego,10,38-100,Strzyżów,PL,Poland,,,,,,,,17 276 12 01,zoz@strzyzow.pl,,29/03/2020,16/04/2020,
00259/18/2017,SAMODZIELNY PUBLICZNY ZESPÓŁ ZAKŁADÓW OPIEKI ZDROWOTNEJ W NOWEJ DĘBIE,,50.41939,21.75555,1,Marii Skłodowskiej-Curie,1A,39-460,Nowa Dęba,PL,Poland,,,,,,,,15 846 26 51,pogotowie@zoznowadeba.pl,,29/03/2020,16/04/2020,
00264/18/2017,WOJEWÓDZKI SZPITAL IM.ZOFII Z ZAMOYSKICH TARNOWSKIEJ W TARNOBRZEGU,,50.56711,21.67038,1,Szpitalna,1,39-400,Tarnobrzeg,PL,Poland,,,,,,,,15 812 34 30,chirurgia@szpital.tbg.pl,,29/03/2020,16/04/2020,
00269/18/2017,Samodzielny Publiczny Zespół Opieki Zdrowotnej w Sanoku,,49.5526,22.19925,1,800-lecia,26,38-500,Sanok,PL,Poland,,,,,,,,13 46 56 100,szpital@zozsanok.pl,,29/03/2020,16/04/2020,
00276/18/2017,Samodzielny Publiczny Zespół Opieki Zdrowotnej w Ustrzykach Dolnych,,49.43482,22.60369,1,29 Listopada,57,38-700,Ustrzyki Dolne,PL,Poland,,,,,,,,13 476 91 55,sekretariat@spzoz-ustrzyki.pl,,29/03/2020,16/04/2020,
00278/18/2017,Samodzielny Publiczny Zakład Opieki Zdrowotnej - Lecznictwo Ambulatoryjne,,50.06486,22.47889,1,Szpitalna,16,37-200,Przeworsk,PL,Poland,,,,,,,,16 649 16 74,spzoz_przeworsk@post.pl,,29/03/2020,16/04/2020,
00279/18/2017,ASKLEPIOS B.P. SPÓŁKA Z OGRANICZONĄ ODPOWIEDZIALNOŚCIĄ,,50.02453,22.00631,1,Podwisłocze,22A,35-309,Rzeszów,PL,Poland,,,,,,,,17 850 37 00,as@asklepios.pl,,29/03/2020,16/04/2020,
00001/18/2018,ZESPÓŁ OPIEKI ZDROWOTNEJ W ROPCZYCACH,,50.05773,21.61555,1,Księdza Kardynała Stefana Wyszyńskiego,54,39-100,Ropczyce,PL,Poland,,,,,,,,17 222 08 32,ochw@zozropczyce.pl,,29/03/2020,16/04/2020,
00001/32/2018,Centrum Kardiologii Scanmed - Ambulatorium w Szczecinku,,53.7131,16.67685,2,Kilińskiego,7,78-400,Szczecinek,PL,Poland,,,,,,,,94 374 35 61,recepcja.szczecinek.@scanmed.pl,,29/03/2020,16/04/2020,
00002/32/2018,Samodzielny Publiczny Zakład Opieki Zdrowotnej w Choszcznie,,53.16562,15.4136,1,Niedziałkowskiego,4A,73-200,Choszczno,PL,Poland,,,,,,,,95 765 25 81,sor@spzozchoszczno.pl,,29/03/2020,16/04/2020,
00009/32/2018,"""SZPITALE POLSKIE"" SPÓŁKA AKCYJNA",,50.23464,18.97704,1,Ligocka,103,40-568,Katowice,PL,Poland,,,,,,,,94 363 03 03,izbaprzyjecdrawsko@gmail.com,,29/03/2020,16/04/2020,
00015/32/2018,"""Szpital Powiatowy w Gryfinie"" Spółka z ograniczoną odpowiedzialnością",,53.25491,14.49105,1,Parkowa,5,74-100,Gryfino,PL,Poland,,,,,,,,91 416 21 09,chirurgia@szpital-gryfino.pl,,29/03/2020,16/04/2020,
00017/32/2018,Szpital w Szczecinku Spółka z ograniczoną odpowiedzialnością,,53.71268,16.67868,1,Kościuszki,38,78-400,Szczecinek,PL,Poland,,,,,,,,94 372 67 00,sekretariat@szpital.szczecinek.pl,,29/03/2020,16/04/2020,
00022/32/2018,Szpitalne Centrum Medyczne  w Goleniowie Spółka z ograniczoną odpowiedzialnością,,53.56904,14.83409,1,Nowogardzka,2,72-100,Goleniów,PL,Poland,,,,,,,,91 466 43 00,izbaprzyjec@szpitalgoleniow.pl,,29/03/2020,16/04/2020,
00026/32/2018,PRZYJAZNY SZPITAL W POŁCZYNIE ZDROJU SPÓŁKA Z OGRANICZONĄ ODPOWIEDZIALNOŚCIĄ,,53.76283,16.0896,1,Szpitalna,5,78-320,Połczyn-Zdrój,PL,Poland,,,,,,,,94 366 18 02,sekretariat@szpitalpolczyn.pl,,29/03/2020,16/04/2020,
00028/32/2018,Przyjazny Szpital w Połczynie Zdroju Spółka z ograniczoną odpowiedzialnością,,53.76283,16.0896,1,Szpitalna,5,78-320,Połczyn-Zdrój,PL,Poland,,,,,,,,94 366 18 02,sekretariat@szpitalpolczyn.pl,,29/03/2020,16/04/2020,
00029/32/2018,Szpital Wojewódzki im. Mikołaja Kopernika w Koszalinie,,54.19794,16.21324,1,Tytusa Chałubińskiego,7,75-581,Koszalin,PL,Poland,,,,,,,,94 348 84 00,szpital@swk.med.pl,,29/03/2020,16/04/2020,
00039/32/2018,Szpital Powiatowy w Sławnie,,54.3692,16.67903,1,I Pułku Ułanów,9,76-100,Sławno,PL,Poland,,,,,,,,59 810 63 12,szpital@szpital-slawno.pl,,29/03/2020,16/04/2020,
00043/32/2018,107 Szpital Wojskowy z Przychodnią - Samodzielny Publiczny Zakład Opieki Zdrowotnej,,53.28193,16.45973,1,Kołobrzeska,44,78-600,Wałcz,PL,Poland,,,,,,,,26 147 28 80,sekretariat@107sw.mil.pl,,29/03/2020,16/04/2020,
00044/32/2018,107 Szpital Wojskowy z Przychodnią - Samodzielny Publiczny Zakład Opieki Zdrowotnej w Wałczu,,53.28193,16.45973,1,Kołobrzeska,44,78-600,Wałcz,PL,Poland,,,,,,,,26 147 28 80,sekretariat@107sw.mil.pl,,29/03/2020,16/04/2020,
00050/32/2018,109 Szpital Wojskowy z Przychodnią Samodzielny Publiczny Zakład Opieki Zdrowotnej,,53.44288,14.54152,1,ks. Piotra Skargi,9 - 11,70-965,Szczecin,PL,Poland,,,,,,,,26 145 58 31,izbaprzyjec@109szpital.pl,,29/03/2020,16/04/2020,
00055/32/2018,Samodzielny Publiczny Zakład Opieki Zdrowotnej Ministerstwa Spraw Wewnętrznych i Administracji w Szczecinie,,53.43482,14.52445,1,Jagiellońska,44,70-382,Szczecin,PL,Poland,,,,,,,,91 432 95 11,izba.przyjec@szpitalmswia.szczecin.pl,,29/03/2020,16/04/2020,
00061/32/2018,Szpital Miejski im. Jana Garduły w Świnoujściu Spółka z ograniczoną odpowiedzialnością,,53.90996,14.25845,1,Mieszka I,7,72-600,Świnoujście,PL,Poland,,,,,,,,91 326 73 37,ip@szpital-swinoujscie.pl,,29/03/2020,16/04/2020,
00065/32/2018,Samodzielny Publiczny Szpital Rejonowy w Nowogardzie,,53.67267,15.10989,1,Wojska Polskiego,7,72-200,Nowogard,PL,Poland,,,,,,,,91 392 15 59,spsr_nowogard@wp.pl,,29/03/2020,16/04/2020,
00068/32/2018,Szpital Powiatowy w Pyrzycach,,53.14675,14.89492,1,Jana Pawła II,2,74-200,Pyrzyce,PL,Poland,,,,,,,,91 579 25 73,izba@szpital.pyrzyce.net.pl,,29/03/2020,16/04/2020,
00072/32/2018,EMC INSTYTUT MEDYCZNY SPÓŁKA AKCYJNA,,51.14781951904297,16.965375900268555,2,Pilczycka,144-148,54-144,Wrocław-Fabryczna - Wrocław,PL,Poland,,,,,,,,91 326 26 00,kamien-pomorski@emc-sa.pl,,29/03/2020,16/04/2020,
00025/28/2018,SCANMED SPÓŁKA AKCYJNA,,50.07158,19.89592,1,Armii Krajowej,18,30-150,Kraków-Krowodrza - Kraków,PL,Poland,,,,,,,,87 441 99 99,sekretariat.elk@scanmed.pl,,29/03/2020,16/04/2020,
00026/28/2018,"""POMORSKIE CENTRA KARDIOLOGICZNE SPÓŁKA Z OGRANICZONĄ ODPOWIEDZIALNOŚCIĄ"" SPÓŁKA KOMANDYTOWO-AKCYJNA",,54.35203,18.58934,1,Piekarnicza,12,80-126,Gdańsk,PL,Poland,,,,,,,,"89 741 94 33,   89 741 94 79",mragowo@centra-kardiologiczne.pl,,29/03/2020,16/04/2020,
00075/32/2018,SZPITAL W DĘBNIE IM. ŚWIĘTEJ MATKI TERESY Z KALKUTY SPÓŁKA Z OGRANICZONĄ ODPOWIEDZIALNOŚCIĄ,,52.73178,14.70385,1,Tadeusza Kościuszki,58,74-400,Dębno,PL,Poland,,,,,,,,95 760 20 63,izba.przyjec@szpital-debno.pl,,29/03/2020,16/04/2020,
00076/32/2018,Szpital w Dębnie im. Świetej Matki Teresy z Kalkuty Spółka z ograniczoną odpowiedzialnością,,52.73178,14.70385,1,Tadeusza Kościuszki,58,74-400,Dębno,PL,Poland,,,,,,,,95 760 20 63,izba.przyjec@szpital-debno.pl,,29/03/2020,16/04/2020,
00078/32/2018,Regionalny Szpital w Kołobrzegu,,54.17462,15.56761,1,ppor. Edmunda Łopuskiego,31 - 33,78-100,Kołobrzeg,PL,Poland,,,,,,,,94 353 02 00,kancelaria@szpital.kolobrzeg.pl,,29/03/2020,16/04/2020,
00088/32/2018,"ZAKŁAD OPIEKI PSYCHIATRYCZNEJ "" SALUS "" JOLANTA MARTYNIUK",,53.71252,16.67965,1,Kościuszki,38C,78-400,Szczecinek,PL,Poland,,,,,,,,94 372 34 13,pzp.salus@wp.pl,,29/03/2020,16/04/2020,
00089/32/2018,"""MEDISON"" Spółka z ograniczoną odpowiedzialnością",,54.19045,16.19224,1,Zwycięstwa,119,75-601,Koszalin,PL,Poland,,,,,,,,94 347 07 54,szpital.medison@gmail.com,,29/03/2020,16/04/2020,
00047/28/2018,GOLDMEDICA SPÓŁKA Z OGRANICZONĄ ODPOWIEDZIALNOŚCIĄ,,54.30913,22.30638,1,Słoneczna,7,19-500,Gołdap,PL,Poland,,,,,,,,87 615 02 75,sekretariat@goldmedica.pl,,29/03/2020,16/04/2020,
00050/28/2018," 1 WOJSKOWY SZPITAL KLINICZNY Z POLIKLINIKĄ SPZOZ W LUBLINIE -  FILIA W EŁKU ",,53.76503,22.33672,1,Tadeusza Kościuszki,30,19-300,Ełk,PL,Poland,,,,,,,,87 621 98 93,szpital@1wszk.elk.pl,,29/03/2020,16/04/2020,
00002/30/2018,"""SZPITAL POWIATOWY WE WRZEŚNI"" SPÓŁKA Z OGRANICZONĄ ODPOWIEDZIALNOŚCIĄ",,52.32506,17.57337,1,ul. Juliusza Słowackiego,2,62-300,Września,PL,Poland,,,,,,,,61 4370525,sekretariat@szpitalwrzesnia.home.pl,,29/03/2020,16/04/2020,
00001/10/2018,SAMODZIELNY PUBLICZNY ZAKŁAD OPIEKI ZDROWOTNEJ CENTRALNY SZPITAL KLINICZNY UNIWERSYTETU MEDYCZNEGO W ŁODZI,,51.77533,19.50693,1,Pomorska,251,92-213,Łódź-Widzew - Łódź,PL,Poland,,,,,,,,42 201 43 13,poczta@csk.umed.pl,,29/03/2020,16/04/2020,
00010/10/2018,Miejskie Centrum Medyczne im. dr. Karola Jonschera w Łodzi,,51.752220153808594,19.487512588500977,2,Milionowa,14,93-113,Łódź-Widzew - Łódź,PL,Poland,,,,,,,,42 672 19 72,sekretariat@jonscher.pl,,29/03/2020,16/04/2020,
00013/10/2018,WOJEWÓDZKI SPECJALISTYCZNY SZPITAL IM DR. WŁ. BIEGAŃSKIEGO W ŁODZI,,51.80004,19.43938,1,gen. Karola Kniaziewicza,1/5,91-347,Łódź-Bałuty - Łódź,PL,Poland,,,,,,,,42 251 61 31,szpital@bieganski.com.pl,,29/03/2020,16/04/2020,
00021/10/2018,Samodzielny Publiczny Zakład Opieki Zdrowotnej Uniwersytecki Szpital Kliniczny im. Wojskowej Akademii Medycznej Uniwersytetu Medycznego w Łodzi - Centralny Szpital Weteranów,,51.7592632,19.4477939,1,Stefana Żeromskiego,113,90-549,Łódź-Polesie - Łódź,PL,Poland,,,,,,,,42 63 93 517,sekretariatwam@skwam.lodz.pl,,29/03/2020,16/04/2020,
00031/10/2018,WOJEWÓDZKI SPECJALISTYCZNY SZPITAL IM. M. PIROGOWA W ŁODZI,,51.7522525,19.4553766,1,Wólczańska,191/195,90-531,Łódź-Polesie - Łódź,PL,Poland,,,,,,,,42 63 67 611 wew. 258,sekretariat@pirogow.pl,,29/03/2020,16/04/2020,
00033/10/2018,Samodzielny Publiczny Zakład Opieki Zdrowotnej Uniwersytecki Szpital Kliniczny Nr 1 im. Norberta Barlickiego Uniwersytetu Medycznego w Łodzi,,51.77377,19.48301,1,dr. Stefana Kopcińskiego,22,90-153,Łódź-Śródmieście - Łódź,PL,Poland,,,,,,,,"885 750 285, 885 750 286",kancelaria@barlicki.pl,,29/03/2020,16/04/2020,
00037/10/2018,Wojewódzki Zespół Zakładów Opieki Zdrowotnej - Centrum Leczenia Chorób Płuc I Rehabilitacji w Łodzi,,51.8473818,19.4751997,1,Okólna,181,91-520,Łódź-Bałuty - Łódź,PL,Poland,,,,,,,,42 617 73 43,clchp@centrumpluc.com.pl,,29/03/2020,16/04/2020,
00041/10/2018,SAMODZIELNY PUBLICZNY ZAKŁAD OPIEKI ZDROWOTNEJ MINISTERSTWA SPRAW WEWNĘTRZNYCH i ADMINISTRACJI W ŁODZI,,51.78087,19.47432,1,Północna,42,91-425,Łódź-Bałuty - Łódź,PL,Poland,,,,,,,,"42 634 11 75, 42 634 14 07",dyrekcja@zoz-mswia-lodz.pl,,29/03/2020,16/04/2020,
00045/10/2018,INSTYTUT MEDYCYNY PRACY IMIENIA PROF. DRA MED. JERZEGO NOFERA W ŁODZI,,51.80189,19.43648,1,św. Teresy od Dzieciątka Jezus,8,91-348,Łódź-Bałuty - Łódź,PL,Poland,,,,,,,,"42 63 14 767, 602 399 032",impx@imp.lodz.pl,,29/03/2020,16/04/2020,
00046/10/2018,SZPITAL ZAKONU BONIFRATRÓW ŚW.JANA BOŻEGO W ŁODZI SPÓŁKA Z OGRANICZONĄ ODPOWIEDZIALNOŚCIĄ,,51.71791,19.47066,1,Kosynierów Gdyńskich,61,93-357,Łódź-Górna - Łódź,PL,Poland,,,,,,,,"42 685 50 21, 42 685 50 22",szpital@bonifratrzy.lodz.pl,,29/03/2020,16/04/2020,
00047/10/2018,Wojewódzkie Wielospecjalistyczne Centrum Onkologii i Traumatologii im. M. Kopernika w Łodzi,,51.73212,19.45518,1,Pabianicka,62,93-513,Łódź-Górna - Łódź,PL,Poland,,,,,,,,"42 689 53 23, 42 689 53 24",szpital@kopernik.lodz.pl,,29/03/2020,16/04/2020,
00055/10/2018,"INSTYTUT ""CENTRUM ZDROWIA MATKI POLKI""",,51.70529,19.48372,1,Rzgowska,281/289,93-338,Łódź-Górna - Łódź,PL,Poland,,,,,,,,42 271 13 63,biuro15@iczmp.edu.pl,,29/03/2020,16/04/2020,
00063/10/2018,"SZPITAL WOJEWÓDZKI IM. JANA PAWŁA II W BEŁCHATOWIE ",,51.375,19.35033,1,Czapliniecka,123,97-400,Bełchatów,PL,Poland,,,,,,,,"44 635 83 05, 44 635 83 06",szpital@szpital-belchatow.pl,,29/03/2020,16/04/2020,
00117/02/2018,Uniwersytecki Szpital Kliniczny im. Jana Mikulicza - Radeckiego we Wrocławiu,,51.07451,17.03102,1,Borowska,213,50-556,Wrocław-Krzyki - Wrocław,PL,Poland,,,,,,,,"71 7331110, 71 733 11 00",sekretariat@usk.wroc.pl,,29/03/2020,16/04/2020,
00007/08/2018,SZPITAL UNIWERSYTECKI IMIENIA KAROLA MARCINKOWSKIEGO W ZIELONEJ GÓRZE SPÓŁKA Z OGRANICZONĄ ODPOWIEDZIALNOŚCIĄ,,51.9411845,15.5181337,1,Zyty,26,65-046,Zielona Góra,PL,Poland,,,,,,,,683296200,sekretariat@szpital.zgora.pl,,29/03/2020,16/04/2020,
00134/02/2018,Zespół Opieki Zdrowotnej w Bolesławcu,,51.25444,15.567,1,Jeleniogórska,4,59-700,Bolesławiec,PL,Poland,,,,,,,,75 7380200,sekretariat@zozbol.eu,,29/03/2020,16/04/2020,
00144/02/2018,WOJEWÓDZKI SZPITAL DLA NERWOWO I PSYCHICZNIE CHORYCH W BOLESŁAWCU,,51.25989,15.5857,1,Tysiąclecia,30,59-700,Bolesławiec,PL,Poland,,,,,,,,"75 7380300, 571 306 317",sekretariat@szpitalpsychiatryczny.pl,,29/03/2020,16/04/2020,
00149/02/2018,"""GŁOGOWSKI SZPITAL POWIATOWY"" SPÓŁKA Z OGRANICZONĄ ODPOWIEDZIALNOŚCIĄ",,51.65575,16.07733,1,Tadeusza Kościuszki,15,67-200,Głogów,PL,Poland,,,,,,,,"76 8373216, 76 8322056",dyrekcja@szpital.glogow.pl,,29/03/2020,16/04/2020,
00158/02/2018,Wojewódzkie Centrum Szpitalne Kotliny Jeleniogórskiej,,50.91325,15.7635,1,Michała Kleofasa Ogińskiego,6,58-506,Jelenia Góra,PL,Poland,,,,,,,,75 7537201,poczta@spzoz.jgora.pl,,29/03/2020,16/04/2020,
00159/02/2018,POWIATOWE CENTRUM ZDROWIA SPÓŁKA Z OGRANICZONĄ ODPOWIEDZIALNOŚCIĄ W KOWARACH,,50.80913,15.83856,1,Sanatoryjna,15,58-530,Kowary,PL,Poland,,,,,,,," 75 6415700,   75 6415715, 75 6415721",sekretariat@emc-sa.pl,,29/03/2020,16/04/2020,
00165/02/2018,SPECJALISTYCZNE CENTRUM MEDYCZNE SPÓŁKA AKCYJNA,,50.40765,16.50124,1,Jana Pawła II,"2         ",57-320,Polanica-Zdrój,PL,Poland,,,,,,,,"74 86 21 100, 74 8621103",sekretariat@scm.pl,,29/03/2020,16/04/2020,
00175/02/2018,Wojewódzki Szpital Specjalistyczny w Legnicy,,51.20829,16.21678,1,Jarosława Iwaszkiewicza,5,59-220,Legnica,PL,Poland,,,,,,,,"76 7211300, 76 721100",sekretariat@szpital.legnica.pl,,29/03/2020,16/04/2020,
00190/02/2018,Zespół Opieki Zdrowotnej w Oławie,,50.95246,17.28701,1,Krzysztofa Kamila Baczyńskiego,1,55-200,Oława,PL,Poland,,,,,,,,71 3011311,sekretariat@zozolawa.wroc.pl,,29/03/2020,16/04/2020,
00196/02/2018,SAMODZIELNY PUBLICZNY ZESPÓŁ OPIEKI ZDROWOTNEJ W ŚWIDNICY,,50.83163,16.4689,1,Leśna,27-29,58-100,Świdnica,PL,Poland,,,,,,,,"74 8517400,74 8513 322",sekretariat@szpital.swidnica.pl,,29/03/2020,16/04/2020,
00208/02/2018,SZPITAL IM.ŚW.JADWIGI ŚLĄSKIEJ W TRZEBNICY,,51.31977,17.05939,1,Prusicka,53-55,55-100,Trzebnica,PL,Poland,,,,,,,,71 3120608 wew.250,sekretariat@szpital-trzebnica.pl,,29/03/2020,16/04/2020,
00216/02/2018,Szpital Św. Antoniego w Ząbkowicach Śląskich,,50.5875,16.81721,1,Bolesława Chrobrego,5,57-200,Ząbkowice Śląskie,PL,Poland,,,,,,,,74 6413400,zabkowice@emc-sa.pl,,29/03/2020,16/04/2020,
00005/18/2018,Samodzielny Publiczny Zakład Opieki Zdrowotnej,,50.06486,22.47889,1,ul. Szpitalna,16,37-200,Przeworsk,PL,Poland,,,,,,,,16 649 16 63,spzoz_przeworsk@post.pl,,29/03/2020,16/04/2020,
00001/12/2018,SAMODZIELNY PUBLICZNY ZAKŁAD OPIEKI ZDROWOTNEJ SZPITAL UNIWERSYTECKI W KRAKOWIE,,52.2378094,21.020099,1,Mikołaja Kopernika,36,31-501,Kraków-Śródmieście - Kraków,PL,Poland,,,,,,,,12 351 66 01,sor@su.krakow.pl,,29/03/2020,16/04/2020,
00071/10/2018,Powiatowe Centrum Zdrowia w Brzezinach-Spółka z ograniczoną odpowiedzialnością,,51.80543,19.75442,1,Marii Skłodowskiej-Curie,6,95-060,Brzeziny,PL,Poland,,,,,,,,46 874 20 02 wew. 171,sekretariat@szpital-brzeziny.pl,,29/03/2020,16/04/2020,
00073/10/2018,"""KUTNOWSKI SZPITAL SAMORZĄDOWY"" SPÓŁKA Z OGRANICZONĄ ODPOWIEDZIALNOŚCIĄ",,52.23886,19.37157,1,Kościuszki,52,99-300,Kutno,PL,Poland,,,,,,,,24 388 02 55,nzoz.kss@szpital.kutno.pl,,29/03/2020,16/04/2020,
00076/10/2018,SCANMED KARDIOLOGIA SPÓŁKA Z OGRANICZONĄ ODPOWIEDZIALNOŚCIĄ,,50.07158,19.89592,1,Armii Krajowej,18,30-150,Kraków-Krowodrza - Kraków,PL,Poland,,,,,,,,"24 357 53 53, 601 978 888",sekretariat.kutno@scanmed.pl,,29/03/2020,16/04/2020,
00077/10/2018,"""Centrum Dializa"" Spółka z ograniczoną odpowiedzialnością",,50.30102,19.11516,1,Jabłoniowa,27,41-200,Sosnowiec,PL,Poland,,,,,,,,43 675 55 55 wew. 302,sekretariat@szpitalwlasku.pl,,29/03/2020,16/04/2020,
00080/10/2018,ZESPÓŁ OPIEKI ZDROWOTNEJ W ŁĘCZYCY,,52.05974,19.18865,1,Zachodnia,6,99-100,Łęczyca,PL,Poland,,,,,,,,24 388 26 01,zozleczyca@zozleczyca.pl,,29/03/2020,16/04/2020,
00003/14/2018,WOJSKOWY INSTYTUT MEDYCZNY,,52.25034,21.08854,1,Szaserów,128,04-141,Praga-Południe - Warszawa,PL,Poland,,,,,,,,261 818 394,dyrekcja@wim.mil.pl,,29/03/2020,16/04/2020,
00022/12/2018,"SAMODZIELNY PUBLICZNY ZAKŁAD OPIEKI ZDROWOTNEJ W BOCHNI ""SZPITAL POWIATOWY"" IM. BŁ. MARTY WIECKIEJ",,49.9663,20.42122,1,Krakowska,31,32-700,Bochnia,PL,Poland,,,,,,,,14 615 32 52,anestezjologia@szpital-bochnia.pl,,29/03/2020,16/04/2020,
00023/12/2018,SZPITAL POWIATOWY W CHRZANOWIE,,50.13702,19.42858,1,Topolowa,16,32-500,Chrzanów,PL,Poland,,,,,,,,32 624 73 66,sekretariat@szpital-chrzanow.pl,,29/03/2020,16/04/2020,
00027/12/2018,SZPITAL SPECJALISTYCZNY IM. LUDWIKA RYDYGIERA W KRAKOWIE SPÓŁKA Z OGRANICZONĄ ODPOWIEDZIALNOŚCIĄ,,50.09105229668034,20.021574181310935,2,Osiedle Złotej Jesieni,1,31-826,Kraków-Nowa Huta - Kraków,PL,Poland,,,,,,,,12 646 83 24,oit-sekretariat@rydygierkrakow.pl,,29/03/2020,16/04/2020,
00222/02/2018,REGIONALNE CENTRUM ZDROWIA SPÓŁKA Z OGRANICZONĄ ODPOWIEDZIALNOŚCIĄ,,51.40077,16.19772,1,gen. Józefa Bema,5-6,59-300,Lubin,PL,Poland,,,,,,,,"76 8401738, 76 8401500",sekretariat-rczlubin@emc-sa.pl,,29/03/2020,16/04/2020,
00233/02/2018,"""MIEDZIOWE CENTRUM ZDROWIA"" SPÓŁKA AKCYJNA",,51.40947,16.19406,1,Marii Skłodowskiej-Curie,66,59-300,Lubin,PL,Poland,,,,,,,,"76 8460300, 76 8460110",sekretariat@mcz.pl,,29/03/2020,16/04/2020,
00239/02/2018,NIEPUBLICZNY ZAKŁAD OPIEKI ZDROWOTNEJ ŁUŻYCKIE CENTRUM MEDYCZNE W LUBANIU SPÓŁKA Z OGRANICZONĄ ODPOWIEDZIALNOŚCIĄ,,51.11656,15.2722,1,Zawidowska,4,59-800,Lubań,PL,Poland,,,,,,,,"75 7213920, 75 721378",sekretariat@lcm-luban.pl,,29/03/2020,16/04/2020,
00247/02/2018,NIEPUBLICZNY ZAKŁAD OPIEKI ZDROWOTNEJ SZPITAL POWIATOWY W DZIERŻONIOWIE SPÓŁKA Z OGRANICZONĄ ODPOWIEDZIALNOŚCIĄ,,50.72862,16.65894,1,Cicha,1,58-200,Dzierżoniów,PL,Poland,,,,,,,,"74 8344143, 74 8344144",sekretariat@szpital.dzierzoniow.pl,,29/03/2020,16/04/2020,
00253/02/2018,DOLNOŚLĄSKIE CENTRUM CHORÓB PŁUC WE WROCŁAWIU,,51.10143,17.00537,1,Grabiszyńska,105,53-439,Wrocław-Fabryczna - Wrocław,PL,Poland,,,,,,,,71 3349400,dcchp@dcchp.pl,,29/03/2020,16/04/2020,
00257/02/2018,SZPITAL SPECJALISTYCZNY IM.A.FALKIEWICZA WE WROCŁAWIU,,51.06432,17.07991,1,Warszawska,2,52-114,Wrocław-Krzyki - Wrocław,PL,Poland,,,,,,,,71 3774101,sekretariat.falkiewicza@idsl.pl,,29/03/2020,16/04/2020,
00261/02/2018,SAMODZIELNY PUBLICZNY ZAKŁAD OPIEKI ZDROWOTNEJ MINISTERSTWA SPRAW WEWNĘTRZNYCH I ADMINISTRACJI WE WROCŁAWIU,,51.12464,17.03616,1,Ołbińska,32,50-233,Wrocław-Śródmieście - Wrocław,PL,Poland,,,,,,,,"71 7984600,   79 84601,  79 84603",sekretariat@spzozmswia.wroclaw.pl,,29/03/2020,16/04/2020,
00266/02/2018,DOLNOŚLĄSKIE CENTRUM CHORÓB SERCA MEDINET - SZPITAL WROCŁAW,,51.14822,17.04467,1,Henryka Michała Kamieńskiego,73 A,51-124,Wrocław-Psie Pole - Wrocław,PL,Poland,,,,,,,,71 3209450,biuro@medinet.pl,,29/03/2020,16/04/2020,
00269/02/2018,MILICKIE CENTRUM MEDYCZNE SPÓŁKA Z OGRANICZONĄ ODPOWIEDZIALNOŚCIĄ,,51.51756,17.26134,1,Grzybowa,1,56-300,Milicz,PL,Poland,,,,,,,,71 3846754,sekretariat@mcm-milicz.pl,,29/03/2020,16/04/2020,
00279/02/2018,POWIATOWY ZESPÓŁ SZPITALI,,51.20877,17.39077,1,ul. Armii Krajowej,1,56-400,Oleśnica,PL,Poland,,,,,,,,"71 767427, 71 7767350",sekretariat@pzsolesnica.pl,,29/03/2020,16/04/2020,
00085/10/2018,NAFIS SPÓŁKA AKCYJNA,,52.407596588134766,16.931346893310547,2,Chmurna,3A,61-771,Poznań-Stare Miasto - Poznań,PL,Poland,,,,,,,,24 721 59 00; 721 943 484,leczyca@nafis.pl,,29/03/2020,16/04/2020,
00086/10/2018,ZESPÓŁ OPIEKI ZDROWOTNEJ W ŁOWICZU,,52.0992,19.92893,1,Ułańska,28,99-400,Łowicz,PL,Poland,,,,,,,,46 837 56 11 wew. 221,lowzoz@pro.onet.pl,,29/03/2020,16/04/2020,
00087/10/2018,Samodzielny Publiczny Zakład Opieki Zdrowotnej Szpital Powiatowy im. Edmunda Biernackiego w Opocznie,,51.3789,20.27821,1,Partyzantów,30,26-300,Opoczno,PL,Poland,,,,,,,,44 754 48 91,sekretariat@szpitalopoczno.pl,,29/03/2020,16/04/2020,
00089/10/2018,PABIANICKIE CENTRUM MEDYCZNE SPÓŁKA Z OGRANICZONĄ ODPOWIEDZIALNOŚCIĄ,,51.65276,19.33076,1,Jana Pawła II,68,95-200,Pabianice,PL,Poland,,,,,,,,42 22 53 715,pcmnzoz@pcmnzoz.pl,,29/03/2020,16/04/2020,
00092/10/2018,Samodzielny Szpital Wojewódzki im. Mikołaja Kopernika w Piotrkowie Trybunalskim,,51.41921,19.71326,1,Rakowska,15,97-300,Piotrków Trybunalski,PL,Poland,,,,,,,,44 648 04 04,sekretariat@szpital-piotrkow.pl,,29/03/2020,16/04/2020,
00001/16/2018,UNIWERSYTECKI SZPITAL KLINICZNY W OPOLU,,50.67661,17.97573,1,Aleja Wincentego Witosa,"26        ",45-401,Opole,PL,Poland,,,,,,,,774520124,centrum@wcm.opole.pl,,29/03/2020,16/04/2020,
00034/12/2018,PODHALAŃSKI SZPITAL SPECJALISTYCZNY IM. JANA PAWŁA II W NOWYM TARGU,,49.48917,20.02698,2,Szpitalna,14,34-400,Nowy Targ,PL,Poland,,,,,,,,18 263 36 58,ortopedia-oddz@pszs.eu,,29/03/2020,16/04/2020,
00037/12/2018,KRAKOWSKI SZPITAL SPECJALISTYCZNY IM. JANA PAWŁA II,,50.0902,19.9388,1,Prądnicka,80,31-202,Kraków-Krowodrza - Kraków,PL,Poland,,,,,,,,12 614 27 30,neurologia@szpitaljp2.krakow.pl,,29/03/2020,16/04/2020,
00039/12/2018,SAMODZIELNY PUBLICZNY ZESPÓŁ OPIEKI ZDROWOTNEJ W BRZESKU,,49.9694,20.59023,1,Tadeusza Kościuszki,68,32-800,Brzesko,PL,Poland,,,,,,,,"14 662 11 92 ",szpital@spzoz-brzesko.pl,,29/03/2020,16/04/2020,
00041/12/2018,Małopolskie Centrum Sercowo-Naczyniowe PAKS - Chrzanów,,50.13702,19.42858,1,Topolowa,16,32-500,Chrzanów,PL,Poland,,,,,,,,32 758 69 00,paks11@ahop.pl,,29/03/2020,16/04/2020,
00042/12/2018,ZESPÓŁ OPIEKI ZDROWOTNEJ W DĄBROWIE TARNOWSKIEJ,,50.17701,20.9778,1,Szpitalna,1,33-200,Dąbrowa Tarnowska,PL,Poland,,,,,,,,14 644 32 41,sekretariat@zozdt.pl,,29/03/2020,16/04/2020,
00045/12/2018,SZPITAL SPECJALISTYCZNY IM. HENRYKA KLIMONTOWICZA W GORLICACH,,49.6507,21.16271,1,Węgierska,21,38-300,Gorlice,PL,Poland,,,,,,,,18 355 32 00,szpital.gorlice@ibd.pl,,29/03/2020,16/04/2020,
00049/12/2018,SAMODZIELNY PUBLICZNY ZAKŁAD OPIEKI ZDROWOTNEJ MINISTERSTWA SPRAW WEWNĘTRZNYCH I ADMINISTRACJI W KRAKOWIE,,50.07192,19.91315,1,Kronikarza Galla,25,30-053,Kraków-Krowodrza - Kraków,PL,Poland,,,,,,,,"12 637 19 59 ",sekretariat@zozmswkrakow.pl,,29/03/2020,16/04/2020,
00051/12/2018,KRAKOWSKIE CENTRUM REHABILITACJI I ORTOPEDII,,50.06367,19.86599,1,Aleja Modrzewiowa,22,30-224,Kraków-Krowodrza - Kraków,PL,Poland,,,,,,,,12 428 73 08,office@kcr.pl,,29/03/2020,16/04/2020,
00074/04/2018,Szpital Uniwersytecki  nr 1 im. dr Antoniego Jurasza w Bydgoszczy,,53.12736,18.03366,1,ul. M. Skłodowskiej-Curie,9,85-094,Bydgoszcz,PL,Poland,,,,,,,,"52 5854570/222/333 ",kmr@jurasza.pl,,29/03/2020,16/04/2020,
00052/12/2018,Uniwersytecki Szpital Dziecięcy w Krakowie,,50.01299,20.00042,2,Wielicka,265,30-663,Kraków-Podgórze - Kraków,PL,Poland,,,,,,,,12 658 20 11,sekretariat@usdk.pl,,29/03/2020,16/04/2020,
00054/12/2018,SCANMED SZPITAL ŚW.RAFAŁA,,50.0109,19.97543,1,Adama Bochenka,12,30-693,Kraków-Podgórze - Kraków,PL,Poland,,,,,,,,12 38 55 600,sekretariat.zarzadu@scanmed.pl,,29/03/2020,16/04/2020,
00105/22/2018,UNIWERSYTECKIE CENTRUM KLINICZNE,,54.36694,18.62521,1,Dębinki,7,80-952,Gdańsk,PL,Poland,,,,,,,,(58) 349 20 00,info@uck.gda.pl,,29/03/2020,16/04/2020,
00106/22/2018,Szpital im. Mikołaja Kopernika,,54.35124,18.63998,1,Nowe Ogrody,1-6,80-803,Gdańsk,PL,Poland,,,,,,,,58 764 01 00,sekretariat.kopernik@copernicus.gda.pl,,29/03/2020,16/04/2020,
00078/04/2018,Szpital Uniwersytecki nr 1 im. dr. A. Jurasza w Bydgoszczy,,53.12736,18.03366,1,Marii Curie Skłodowskiej,9,85-094,Bydgoszcz,PL,Poland,,,,,,,,52 585 40 23,kikkardiol@cm.umk.pl,,29/03/2020,16/04/2020,
00058/12/2018,5 WOJSKOWY SZPITAL KLINICZNY Z POLIKLINIKĄ-SAMODZIELNY PUBLICZNY ZAKŁAD OPIEKI ZDROWOTNEJ W KRAKOWIE,,52.1290397644043,19.393701553344727,2,Wrocławska,1-3,30-901,Kraków-Krowodrza - Kraków,PL,Poland,,,,,,,," 12 630 82 64 ",szpital@5wszk.com.pl,,29/03/2020,16/04/2020,
00064/12/2018,SZPITAL ZAKONU BONIFRATRÓW ŚW. JANA GRANDEGO W KRAKOWIE SPÓŁKA Z OGRANICZONĄ ODPOWIEDZIALNOŚCIĄ,,50.04746,19.94512,1,Trynitarska,11,31-061,Kraków-Śródmieście - Kraków,PL,Poland,,,,,,,,12 379 71 36,oait@bonifratrzy.krakow.pl,,29/03/2020,16/04/2020,
00066/12/2018,SZPITAL SPECJALISTYCZNY IM.J.DIETLA W KRAKOWIE,,50.0636,19.92652,1,Skarbowa,4,31-121,Kraków-Śródmieście - Kraków,PL,Poland,,,,,,,,12 687 62 50,neurologia@dietl.krakow.pl,,29/03/2020,16/04/2020,
00067/12/2018,Szpital Miejski Specjalistyczny im. Gabriela Narutowicza w Krakowie,,50.083,19.93804,1,Prądnicka,35-37,31-202,Kraków-Krowodrza - Kraków,PL,Poland,,,,,,,,12 257 87 25,oit@narutowicz.krakow.pl,,29/03/2020,16/04/2020,
00051/16/2018,BRZESKIE CENTRUM MEDYCZNE,,50.85755,17.47724,1,Sergiusza Mossora,1,49-301,Brzeg,PL,Poland,,,,,,,,77 4446536,zozbrzeg@pro.onet.pl,,29/03/2020,16/04/2020,
00056/16/2018,ZESPÓŁ OPIEKI ZDROWOTNEJ W OLEŚNIE,,50.8806,18.41353,1,Klonowa,1,46-300,Olesno,PL,Poland,,,,,,,,34 3509700,zoz@cz.onet.pl,,29/03/2020,16/04/2020,
00060/16/2018,SZPITAL WOJEWÓDZKI W OPOLU SPÓŁKA Z OGRANICZONĄ ODPOWIEDZIALNOŚCIĄ,,50.67045,17.93717,1,Augustyna Kośnego,53,45-372,Opole,PL,Poland,,,,,,,,77 4433100,sekretariat@szpital.opole.pl,,29/03/2020,16/04/2020,
00065/16/2018,SZPITAL POWIATOWY IM. PRAŁATA J. GLOWATZKIEGO W STRZELCACH OPOLSKICH,,50.51523,18.29146,1,Opolska,36A,47-100,Strzelce Opolskie,PL,Poland,,,,,,,,77 4070103,szpital@szpital.strzelce-op.pl,,29/03/2020,16/04/2020,
00072/16/2018,SAMODZIELNY PUBLICZNY ZESPÓŁ OPIEKI ZDROWOTNEJ,,50.33223,18.14972,1,24 Kwietnia,5,47-200,Kędzierzyn-Koźle,PL,Poland,,,,,,,,77 4062500,spzoz@e-szpital.eu,,29/03/2020,16/04/2020,
00078/16/2018,ZESPÓŁ OPIEKI ZDROWOTNEJ,,50.47115,17.32849,1,Bohaterów Warszawy,34,48-300,Nysa,PL,Poland,,,,,,,,77 4087830,sekretariat@zoznysa.pl,,29/03/2020,16/04/2020,
00095/16/2018,Samodzielny Publiczny Zespół Opieki Zdrowotnej w Głubczycach,,50.20395,17.81246,1,Skłodowskiej,26,48-100,Głubczyce,PL,Poland,,,,,,,,77 4801170,sekretariat@szpitalglubczyce.pl,,29/03/2020,16/04/2020,
00101/16/2018,KRAPKOWICKIE CENTRUM ZDROWIA SPÓŁKA Z OGRANICZONĄ ODPOWIEDZIALNOŚCIĄ,,50.49206,17.97164,1,Osiedle XXX Lecia,21,47-303,Krapkowice,PL,Poland,,,,,,,,77 4467228,sekretariat@kcz.krapkowice.pl,,29/03/2020,16/04/2020,
00106/16/2018,Namysłowskie Centrum Zdrowia Spółka Akcyjna,,51.08329,17.7086,1,Oleśnicka,4,46-100,Namysłów,PL,Poland,,,,,,,,77 4040248,sekretariat@zoznamyslow.pl,,29/03/2020,16/04/2020,
00111/16/2018,SAMODZIELNY PUBLICZNY ZAKŁAD OPIEKI ZDROWOTNEJ ZESPÓŁ OPIEKI ZDROWOTNEJ,,50.31603,17.38549,1,Marii Curie-Skłodowskiej,16,48-340,Głuchołazy,PL,Poland,,,,,,,,77 4391568,sekretariat@zoz.glucholazy.pl,,29/03/2020,16/04/2020,
00113/16/2018,SAMODZIELNY PUBLICZNY ZAKŁAD OPIEKI ZDROWOTNEJ SZPITAL SPECJALISTYCZNY MINISTERSTWA SPRAW WEWNĘTRZNYCH I ADMINISTRACJI W GŁUCHOŁAZACH IM. ŚW. JANA PAWŁA II,,50.3035,17.38627,1,Karłowicza,40,48-340,Głuchołazy,PL,Poland,,,,,,,,77 4391614,dyrekcja@szpitalmsw-glucholazy.pl,,29/03/2020,16/04/2020,
00114/16/2018,SAMODZIELNY PUBLICZNY ZAKŁAD OPIEKI ZDROWOTNEJ MINISTERSTWA SPRAW WEWNĘTRZNYCH I ADMINISTRACJI W OPOLU,,50.66341,17.92544,1,Krakowska,44,45-075,Opole,PL,Poland,,,,,,,,77 4011100,sekretariat@spzozmswia.opole.pl,,29/03/2020,16/04/2020,
00118/16/2018,STOBRAWSKIE CENTRUM MEDYCZNE SPÓŁKA Z OGRANICZONĄ ODPOWIEDZIALNOŚCIĄ Z SIEDZIBĄ W KUP,,50.80424,17.88529,1,Miarki,14,46-082,Dobrzeń Wielki - Kup,PL,Poland,,,,,,,,77 4032850,sekretariat@szpital-kup.eu,,29/03/2020,16/04/2020,
00121/16/2018,Zespół Opieki Zdrowotnej w Białej,,50.38714,17.66194,1,Moniuszki,8,48-210,Biała,PL,Poland,,,,,,,,77 4387033,szpitalbiala@pro.onet.pl,,29/03/2020,16/04/2020,
00123/16/2018,PRUDNICKIE CENTRUM MEDYCZNE SPÓŁKA AKCYJNA W PRUDNIKU,,50.32361,17.56923,1,Szpitalna,14,48-200,Prudnik,PL,Poland,,,,,,,,77 4067890,pcm@pcm.prudnik.pl,,29/03/2020,16/04/2020,
00127/16/2018,Powiatowe Centrum Zdrowia Spółka Akcyjna w Kluczborku,,50.96819,18.21662,1,Skłodowskiej-Curie,23,46-200,Kluczbork,PL,Poland,,,,,,,,77 4173500,sekretariat@pczszpitalkluczbork.pl,,29/03/2020,16/04/2020,
00133/16/2018,"CENTRUM GINEKOLOGII, POŁOŻNICTWA I NEONATOLOGII W OPOLU",,50.66692,17.92876,1,Władysława Reymonta,8,45-066,Opole,PL,Poland,,,,,,,,77 4545401,centrum@ginekologia.opole.pl,,29/03/2020,16/04/2020,
00135/16/2018,116 Szpital Wojskowy z Przychodnią Samodzielny Publiczny Zakład Opieki Zdrowotnej,,50.65978,17.89444,1,Walerego Wróblewskiego,46,45-759,Opole,PL,Poland,,,,,,,,26 1625129,sekretariat@116szpital.opole.pl,,29/03/2020,16/04/2020,
00288/02/2018,SPECJALISTYCZNY SZPITAL IM. DRA ALFREDA SOKOŁOWSKIEGO,,50.80167,16.27711,1,Alfreda Sokołowskiego,4,58-309,Wałbrzych,PL,Poland,,,,,,,," 74 6489600",szpitalsokolowski@zdrowie.walbrzych.pl,,29/03/2020,16/04/2020,
00139/16/2018,WOJEWÓDZKI SPECJALISTYCZNY ZESPÓŁ NEUROPSYCHIATRYCZNY IM.ŚW.JADWIGI,,50.67595,17.9405,1,Wodociągowa,4,45-221,Opole,PL,Poland,,,,,,,,77 5414200,sekretariat@wszn.opole.pl,,29/03/2020,16/04/2020,
00315/02/2018,"""Zespół Opieki Zdrowotnej"" w Kłodzku",,50.45508,16.65985,1,Szpitalna,1a,57-300,Kłodzko,PL,Poland,,,,,,,,74 8651200,sekretariat@zoz.klodzko.pl,,29/03/2020,16/04/2020,
00075/12/2018,SZPITAL SPECJALISTYCZNY IM. STEFANA ŻEROMSKIEGO SAMODZIELNY PUBLICZNY ZAKŁAD OPIEKI ZDROWOTNEJ W KRAKOWIE,,50.06573,20.04611,1,Osiedle Na Skarpie,66,31-913,Kraków-Nowa Huta - Kraków,PL,Poland,,,,,,,,12 622 94 10,intensywna@zeromski-szpital.pl,,29/03/2020,16/04/2020,
00081/12/2018,SAMODZIELNY PUBLICZNY ZAKŁAD OPIEKI ZDROWOTNEJ - SZPITAL IM.DR. JÓZEFA DIETLA W KRYNICY-ZDROJU,,49.40088,20.95439,1,Józefa Ignacego Kraszewskiego,142,33-380,Krynica-Zdrój,PL,Poland,,,,,,,,18 473 21 00,spzoz@szpital-krynica.pl,,29/03/2020,16/04/2020,
00083/12/2018,Szpital Powiatowy w Limanowej Imienia Miłosierdzia Bożego,,49.71643,20.41348,1,Józefa Piłsudskiego,61,34-600,Limanowa,PL,Poland,,,,,,,," 18 330 17 37",szpitallimanowa@szpitallimanowa.pl,,29/03/2020,16/04/2020,
00085/12/2018,ZESPÓŁ OPIEKI ZDROWOTNEJ W SUCHEJ BESKIDZKIEJ,,49.73656,19.60501,1,Szpitalna,22,34-200,Sucha Beskidzka,PL,Poland,,,,,,,,33 877 10 01,sekretariat@zozsuchabeskidzka.pl,,29/03/2020,16/04/2020,
00089/12/2018,SZPITAL  ŚW.ANNY  W MIECHOWIE,,50.35354,20.03451,1,Szpitalna,3,32-200,Miechów,PL,Poland,,,,,,,,41 382 03 33,sekretariat@szpital.miechow.pl,,29/03/2020,16/04/2020,
00091/12/2018,SAMODZIELNY PUBLICZNY ZAKŁAD OPIEKI ZDROWOTNEJ W MYŚLENICACH,,49.82909,19.9464,1,Szpitalna,2,32-400,Myślenice,PL,Poland,,,,,,,," 12 272 10 85 ",spzoz@szpitalmyslenice.pl,,29/03/2020,16/04/2020,
00096/12/2018,SZPITAL SPECJALISTYCZNY IM. JĘDRZEJA ŚNIADECKIEGO W NOWYM SĄCZU,,49.61853,20.70105,1,Młyńska,10,33-300,Nowy Sącz,PL,Poland,,,,,,,," 18 443 88 77 ",an@szpitalnowysacz.pl,,29/03/2020,16/04/2020,
00102/12/2018,Wojewódzki Szpital Okulistyczny w Krakowie,,50.09711,20.06318,1,Osiedle Na Wzgórzach,17B,31-723,Kraków-Nowa Huta - Kraków,PL,Poland,,,,,,,,12 620 82 00,opiekacalodobowa@wso.krakow.pl,,29/03/2020,16/04/2020,
00103/12/2018,ZESPÓŁ OPIEKI ZDROWOTNEJ W OŚWIĘCIMIU,,50.04059,19.23581,1,Wysokie Brzegi,4,32-600,Oświęcim,PL,Poland,,,,,,,,33 844 82 31,sor@szpital.oswiecim.pl,,29/03/2020,16/04/2020,
00106/12/2018,SAMODZIELNY PUBLICZNY ZESPÓŁ OPIEKI ZDROWOTNEJ W PROSZOWICACH,,50.18565,20.29916,1,Mikołaja Kopernika,13,32-100,Proszowice,PL,Poland,,,,,,,,12 386 51 05,sekretariat@spzoz.proszowice.pl,,29/03/2020,16/04/2020,
00095/10/2018,"""PODDĘBICKIE CENTRUM ZDROWIA"" SPÓŁKA Z OGRANICZONĄ ODPOWIEDZIALNOŚCIĄ",,51.88907,18.95327,1,Mickiewicza,16,99-200,Poddębice,PL,Poland,,,,,,,,43 828 81 60; 43 828 81 63,sekretariat@nzozpcz.pl,,29/03/2020,16/04/2020,
00097/10/2018,Szpital Powiatowy w Radomsku,,51.0577574,19.4572527,1,Jagiellońska,36,97-500,Radomsko,PL,Poland,,,,,,,,44 685 47 35,sekretariat@szpital.biz.pl,,29/03/2020,16/04/2020,
00118/12/2018,SZPITAL WOJEWÓDZKI IM.ŚW.ŁUKASZA SAMODZIELNY PUBLICZNY ZAKŁAD OPIEKI ZDROWOTNEJ W TARNOWIE,,50.01321,21.03236,1,Lwowska,178A,33-100,Tarnów,PL,Poland,,,,,,,," 14 631 50 00 , 14 631 54 47",hospital@lukasz.med.pl,,29/03/2020,16/04/2020,
00124/12/2018,UNIWERSYTECKI SZPITAL ORTOPEDYCZNO-REHABILITACYJNY W ZAKOPANEM,,49.28639,19.9839,1,Oswalda Balzera,15,34-500,Zakopane,PL,Poland,,,,,,,,18 20 22 100,administracja@klinika.net.pl,,29/03/2020,16/04/2020,
00126/12/2018,ZESPÓŁ ZAKŁADÓW OPIEKI ZDROWOTNEJ W WADOWICACH,,49.88074,19.49189,1,Karmelicka,5,34-100,Wadowice,PL,Poland,,,,,,,," 33 87 21 200, 33 87 21 300 ",sekretariat@zzozwadowice.pl,,29/03/2020,16/04/2020,
00128/12/2018,SPECJALISTYCZNY SZPITAL IM. E. SZCZEKLIKA W TARNOWIE,,50.01725,20.99457,1,Szpitalna,13,33-100,Tarnów,PL,Poland,,,,,,,,14 631 04 98,administracja@ssz.tar.pl,,29/03/2020,16/04/2020,
00132/12/2018,"SZPITAL SPECJALISTYCZNY CHORÓB PŁUC ""ODRODZENIE"" IM. KLARY JELSKIEJ",,49.29712,19.94337,1,Gładkie,1,34-500,Zakopane,PL,Poland,,,,,,,," 18 201 50 45 ",administracja@szpitalodrodzenie.pl,,29/03/2020,16/04/2020,
00133/12/2018,SZPITAL POWIATOWY IM. DR TYTUSA CHAŁUBIŃSKIEGO W ZAKOPANEM,,49.30442,19.95561,1,Kamieniec,10,34-500,Zakopane,PL,Poland,,,,,,,,18 201 20 21 wew. 100;  kom. 797 181 690,sekretariat@szpital-zakopane.pl,,29/03/2020,16/04/2020,
00316/02/2018,DOLNOŚLĄSKI SZPITAL SPECJALISTYCZNY IM. T.MARCINIAKA-CENTRUM MEDYCYNY RATUNKOWEJ,,51.14681625366211,16.90461540222168,2,gen. Augusta Emila Fieldorfa,2,54-049,Wrocław-Fabryczna - Wrocław,PL,Poland,,,,,,,,71 3064419,szpital_marciniaka@pro.onet.pl,,29/03/2020,16/04/2020,
00328/02/2018,4 WOJSKOWY SZPITAL KLINICZNY Z POLIKLINIKĄ SAMODZIELNY PUBLICZNY ZAKŁAD OPIEKI ZDROWOTNEJ WE WROCŁAWIU,,51.0709,17.00564,1,Rudolfa Weigla,5,50-981,Wrocław-Krzyki - Wrocław,PL,Poland,,,,,,,,"261 660 321, 261 660 373",szpital@4wsk.pl,,29/03/2020,16/04/2020,
00340/02/2018,WOJEWÓDZKI SZPITAL SPECJALISTYCZNY WE WROCŁAWIU,,51.14822,17.04467,1,Henryka Michała Kamieńskiego,73 A,51-124,Wrocław-Psie Pole - Wrocław,PL,Poland,,,,,,,,71 3270101,sekretariat@wssk.wroc.pl,,29/03/2020,16/04/2020,
00348/02/2018,"""DOLNOŚLĄSKIE CENTRUM ZDROWIA PSYCHICZNEGO"" SPÓŁKA Z OGRANICZONĄ ODPOWIEDZIALNOŚCIĄ",,51.12974,17.0319,1,Józefa Conrada-Korzeniowskiego,18,50-226,Wrocław-Psie Pole - Wrocław,PL,Poland,,,,,,,,"71 7766200, 71 7766212",sekretariat@dczp.wroclaw.pl,,29/03/2020,16/04/2020,
00102/10/2018,Szpital Wojewódzki im. Prymasa Kardynała Stefana Wyszyńskiego w Sieradzu,,51.58209,18.70998,1,Armii Krajowej,7,98-200,Sieradz,PL,Poland,,,,,,,,43 827 84 09,sekretariat@szpitalsieradz.pl,,29/03/2020,16/04/2020,
00107/10/2018,Wojewódzki Szpital Zespolony im. Stanisława Rybickiego w Skierniewicach,,51.96263,20.15164,1,dr. Stanisława Rybickiego,1,96-100,Skierniewice,PL,Poland,,,,,,,,46 834 08 91,wsz.skier@lodzkie.pl,,29/03/2020,16/04/2020,
00110/10/2018,TOMASZOWSKIE CENTRUM ZDROWIA SPÓŁKA Z OGRANICZONĄ ODPOWIEDZIALNOŚCIĄ,,51.52226,20.00417,1,Jana Pawła II,35,97-200,Tomaszów Mazowiecki,PL,Poland,,,,,,,,44 725 71 49,sekretariat@tomaszow.org.pl,,29/03/2020,16/04/2020,
00015/08/2018,Nowy Szpital w Świebodzinie  Spółka z ograniczoną odpowiedzialnością,,52.25252,15.53443,1,Młyńska,6,66-200,Świebodzin,PL,Poland,,,,,,,,684564000,swiebodzin@nowyszpital.pl,,29/03/2020,16/04/2020,
00021/08/2018,WOJEWÓDZKI SZPITAL SPECJALISTYCZNY DLA NERWOWO I PSYCHICZNIE CHORYCH SAMODZIELNY PUBLICZNY ZAKŁAD OPIEKI ZDROWOTNEJ W CIBORZU,,52.14635,15.40158,1,,5,66-213,Skąpe - Cibórz,PL,Poland,,,,,,,,683419450,szpital@ciborz.eu,,29/03/2020,16/04/2020,
00028/08/2018,SZPITAL MIĘDZYRZECKI SPÓŁKA Z OGRANICZONĄ ODPOWIEDZIALNOŚCIĄ,,52.43997,15.58429,1,Konstytucji 3 Maja,35,66-300,Międzyrzecz,PL,Poland,,,,,,,,957428204,sekretariat@spzoz-miedzyrzecz.pl,,29/03/2020,16/04/2020,
00034/08/2018,Samodzielny Publiczny Szpital dla Nerwowo i Psychicznie Chorych w Międzyrzeczu,,52.4482305,15.6173266,1,Poznańska,109,66-300,Międzyrzecz,PL,Poland,,,,,,,,957428700,sekretariat@obrzyce.eu,,29/03/2020,16/04/2020,
00036/08/2018,NIEPUBLICZNY ZAKŁAD OPIEKI ZDROWOTNEJ SZPITAL IM. DR NAUK MEDYCZNYCH RADZIMIRA ŚMIGIELSKIEGO SP. Z O.O.,,52.59391,15.50657,1,Szpitalna,5,66-440,Skwierzyna,PL,Poland,,,,,,,,957170039,sekretariat.skwierzyna@nowyszpital.pl,,29/03/2020,16/04/2020,
00041/08/2018,NIEPUBLICZNY ZAKŁAD OPIEKI ZDROWOTNEJ SZPITAL IM. PROFESORA ZBIGNIEWA RELIGI W SŁUBICACH SPÓŁKA Z OGRANICZONĄ ODPOWIEDZIALNOŚCIĄ,,52.35152,14.55657,1,Nadodrzańska,6,69-100,Słubice,PL,Poland,,,,,,,,957582071,sekretariat@szpitalslubice.pl,,29/03/2020,16/04/2020,
00048/08/2018,"Wielospecjalistyczny Szpital Wojewódzki w Gorzowie Wlkp. spółka z ograniczoną odpowiedzialnością ",,52.76341,15.2378,1,Jana Dekerta,1,66-400,Gorzów Wielkopolski,PL,Poland,,,,,,,,957331200,sekretariat@szpital.gorzow.pl,,29/03/2020,16/04/2020,
00068/08/2018,NOWY SZPITAL W KOSTRZYNIE NAD ODRĄ SPÓŁKA Z OGRANICZONĄ ODPOWIEDZIALNOŚCIĄ,,52.60812,14.6414,1,Gabriela Narutowicza,6,66-470,Kostrzyn nad Odrą,PL,Poland,,,,,,,,412401802,kostrzyn@nowyszpital.pl,,29/03/2020,16/04/2020,
00075/08/2018,WIELOSPECJALISTYCZNY SZPITAL SAMODZIELNY PUBLICZNY ZAKŁAD OPIEKI ZDROWOTNEJ W NOWEJ SOLI,,51.80693,15.68766,1,Chałubińskiego,7,67-100,Nowa Sól,PL,Poland,,,,,,,,683882100,sekretariat@szpital-nowasol.pl,,29/03/2020,16/04/2020,
00114/08/2018,SAMODZIELNY PUBLICZNY ZAKŁAD OPIEKI ZDROWOTNEJ W SULECHOWIE,,52.08954,15.62229,1,Zwycięstwa,1,66-100,Sulechów,PL,Poland,,,,,,,,797606252,spzoz@spzozsulechow.med.pl,,29/03/2020,16/04/2020,
00121/08/2018,"105. Kresowy Szpital Wojskowy z Przychodnią Samodzielny Publiczny Zakład Opieki Zdrowotnej ",,51.6409,15.14829,1,Domańskiego,2,68-200,Żary,PL,Poland,,,,,,,,684707810,sekretariat@105szpital.pl,,29/03/2020,16/04/2020,
00136/08/2018,SZPITAL NA WYSPIE SPÓŁKA Z OGRANICZONĄ ODPOWIEDZIALNOŚCIĄ,,51.6427,15.15753,2,Pszenna,2,68-200,Żary,PL,Poland,,,,,,,,684757600,info@szpitalnawyspie.pl,,29/03/2020,16/04/2020,
00143/08/2018,NOWY SZPITAL W SZPROTAWIE SPÓŁKA Z OGRANICZONĄ ODPOWIEDZIALNOŚCIĄ,,51.5672,15.55332,1,Henrykowska,1,67-300,Szprotawa,PL,Poland,,,,,,,,412402311,sekretariat.szprotawa@nowyszpital.pl,,29/03/2020,16/04/2020,
00146/08/2018,"""POWIATOWE CENTRUM ZDROWIA"" SPÓŁKA Z OGRANICZONĄ ODPOWIEDZIALNOŚCIĄ",,52.83425,15.82624,1,Piłsudskiego,8,66-530,Drezdenko,PL,Poland,,,,,,,,957620510,sekretariat@szpital-drezdenko.pl,,29/03/2020,16/04/2020,
00153/08/2018,Nowy Szpital we Wschowie Spółka z ograniczoną odpowiedzialnością,,51.80509,16.32308,1,ks. Kostki,33,67-400,Wschowa,PL,Poland,,,,,,,,412401400,sekretariat.wschowa@nowyszpital.pl,,29/03/2020,16/04/2020,
00158/08/2018,ZACHODNIE CENTRUM MEDYCZNE SPÓŁKA Z OGRANICZONĄ ODPOWIEDZIALNOŚCIĄ,,52.05705,15.09797,1,Piastów,3,66-600,Krosno Odrzańskie,PL,Poland,,,,,,,,684197580,sekretariat@szpitalzcm.pl,,29/03/2020,16/04/2020,
00107/22/2018,7 SZPITAL MARYNARKI WOJENNEJ Z PRZYCHODNIĄ SAMODZIELNY PUBLICZNY ZAKŁAD OPIEKI ZDROWOTNEJ IMIENIA KONTRADMIRAŁA PROFESORA WIESŁAWA ŁASIŃSKIEGO W GDAŃSKU,,54.39399,18.567,1,Polanki,117,80-305,Gdańsk,PL,Poland,,,,,,,,(058) 552 63 26,sekretariat@7szmw.pl,,29/03/2020,16/04/2020,
00115/22/2018,COPERNICUS PODMIOT LECZNICZY SPÓŁKA Z OGRANICZONĄ ODPOWIEDZIALNOŚCIĄ,,54.35124,18.63998,1,Nowe Ogrody,1-6,80-803,Gdańsk,PL,Poland,,,,,,,,(058) 302 30 31,sekretariat@wss.gda.pl,,29/03/2020,16/04/2020,
00133/22/2018,POMORSKIE CENTRUM TOKSYKOLOGII SPÓŁKA Z OGRANICZONĄ ODPOWIEDZIALNOŚCIĄ,,54.35091,18.63636,1,Kartuska,4/6,80-104,Gdańsk,PL,Poland,,,,,,,,501 734 963,sekretariat@szpitaletczewskiesa.pl,,29/03/2020,16/04/2020,
00134/22/2018,SAMODZIELNY PUBLICZNY ZAKŁAD OPIEKI ZDROWOTNEJ MINISTERSTWA SPRAW WEWNĘTRZNYCH I ADMINISTRACJI W GDAŃSKU,,54.35091,18.63636,1,Kartuska,4/6,80-104,Gdańsk,PL,Poland,,,,,,,,(058) 309 82 22,sekretariat@zozmswia.gda.pl,,29/03/2020,16/04/2020,
00139/22/2018,SZPITALE POMORSKIE SPÓŁKA Z OGRANICZONĄ ODPOWIEDZIALNOŚCIĄ,,54.48906,18.55479,1,Powstania Styczniowego,1,81-519,Gdynia,PL,Poland,,,,,,,,(058) 726 01 19,sekretariat@szpital-morski.pl,,29/03/2020,16/04/2020,
00163/22/2018,SAMODZIELNY  PUBLICZNY  ZAKŁAD  OPIEKI  ZDROWOTNEJ W CZŁUCHOWIE,,53.66082,17.35395,1,Szczecińska,16,77-300,Człuchów,PL,Poland,,,,,,,,(059) 834 24 59,spzoz_czluchow@wp.pl,,29/03/2020,16/04/2020,
00167/22/2018,WOJEWÓDZKI SZPITAL SPECJALISTYCZNY IM. JANUSZA KORCZAKA W SŁUPSKU SPÓŁKA Z OGRANICZONĄ ODPOWIEDZIALNOŚCIĄ,,54.4515,17.06051,1,Hubalczyków,1,76-200,Słupsk,PL,Poland,,,,,,,,(059) 846 06 00,dyrekcja@szpital.slupsk.pl,,29/03/2020,16/04/2020,
00179/22/2018,SZPITAL SPECJALISTYCZNY IM. J.K. ŁUKOWICZA W CHOJNICACH,,53.71199,17.54791,1,Leśna,10,89-600,Chojnice,PL,Poland,,,,,,,,(052)395 67 69,sekretariat@szpital.chojnice.pl,,29/03/2020,16/04/2020,
00189/22/2018,115 Szpital Wojskowy z Przychodnią Samodzielny Publiczny Zakład Opieki Zdrowotnej,,54.61057,18.79978,1,Boczna,10,84-150,Hel,PL,Poland,,,,,,,,(058)675 00 50,info@115szpital.eu,,29/03/2020,16/04/2020,
00191/22/2018,SAMODZIELNY PUBLICZNY SPECJALISTYCZNY ZAKŁAD OPIEKI ZDROWOTNEJ,,54.53873,17.75119,1,Juliana Węgrzynowicza,13,84-300,Lębork,PL,Poland,,,,,,,,(059) 863 53 25,sekretariat@szpital-lebork.com.pl,,29/03/2020,16/04/2020,
00221/22/2018,UNIWERSYTECKIE CENTRUM MEDYCYNY MORSKIEJ I TROPIKALNEJ,,54.48844,18.54941,1,Powstania Styczniowego,9 B,81-519,Gdynia,PL,Poland,,,,,,,,(058) 622 42 28,dyrekcja@ucmmit.gdynia.pl,,29/03/2020,16/04/2020,
00226/22/2018,"""ZDROWIE"" SPÓŁKA Z OGRANICZONĄ ODPOWIEDZIALNOŚCIĄ",,53.72696,18.92051,1,Józefa Hallera,31,82-500,Kwidzyn,PL,Poland,,,,,,,,(055) 645 83 00,kwidzyn@emc-sa.pl,,29/03/2020,16/04/2020,
00232/22/2018,POWIATOWE CENTRUM ZDROWIA SPÓŁKA Z OGRANICZONĄ ODPOWIEDZIALNOŚCIĄ,,54.03119,19.02195,1,Aleja Armii Krajowej,"105/106   ",82-200,Malbork,PL,Poland,,,,,,,,(055) 646 02 64,sekretariat@pcz.net.pl,,29/03/2020,16/04/2020,
00237/22/2018,SZPITALE TCZEWSKIE SPÓŁKA AKCYJNA,,54.08352,18.79061,1,30-go Stycznia,57/58,83-110,Tczew,PL,Poland,,,,,,,,+48 604 504 978,sekretariat@szpitaletczewskiesa.pl,,29/03/2020,16/04/2020,
00245/22/2018,SZPITAL POWIATU BYTOWSKIEGO SPÓŁKA Z OGRANICZONĄ ODPOWIEDZIALNOŚCIĄ,,54.17843,17.48601,1,Lęborska,13,77-100,Bytów,PL,Poland,,,,,,,,(059) 822 85 00,nzoz.szpital@bytow.biz,,29/03/2020,16/04/2020,
00256/22/2018,KOCIEWSKIE CENTRUM ZDROWIA SPÓŁKA Z OGRANICZONĄ ODPOWIEDZIALNOŚCIĄ,,53.96703,18.50781,1,dra Józefa Balewskiego,1,83-200,Starogard Gdański,PL,Poland,,,,,,,,(058) 562 30 31,sekretariat@szpital-starogard.pl,,29/03/2020,16/04/2020,
00264/22/2018,Szpital Specjalistyczny w Prabutach Spółka z ograniczoną odpowiedzialnością,,53.7373666,19.2092125,1,Kuracyjna,30,82-550,Prabuty,PL,Poland,,,,,,,,(055)262 43 38,statystyka@szpitalprabuty.pl,,29/03/2020,16/04/2020,
00268/22/2018,SZPITAL PUCKI SPÓŁKA Z OGRANICZONĄ ODPOWIEDZIALNOŚCIĄ,,54.72086,18.41411,1,1 Maja,13A,84-100,Puck,PL,Poland,,,,,,,,(058)673 09 12,dc.admin@szpitalpuck.pl,,29/03/2020,16/04/2020,
00271/22/2018,SZPITAL SPECJALISTYCZNY W KOŚCIERZYNIE SPÓŁKA Z OGRANICZONĄ ODPOWIEDZIALNOŚCIĄ,,54.12129,17.9496,1,Alojzego Piechowskiego,36,83-400,Kościerzyna,PL,Poland,,,,,,,,(058)686 01 11,sekretariat@szpital.koscierzyna.pl,,29/03/2020,16/04/2020,
00279/22/2018,Szpital Miejski w Miastku Spółka z ograniczoną odpowiedzialnością,,54.01097,16.98057,1,gen. Wybickiego,30,77-200,Miastko,PL,Poland,,,,,,,,(059)857 09 02,biuro@szpitalmiastko.pl,,29/03/2020,16/04/2020,
00295/22/2018,SZPITAL DZIECIĘCY POLANKI IM. MACIEJA PŁAŻYŃSKIEGO W GDAŃSKU SPÓŁKA Z OGRANICZONĄ ODPOWIEDZIALNOŚCIĄ,,54.39537,18.56517,1,Polanki,119,80-308,Gdańsk,PL,Poland,,,,,,,,58 520 93 00,sekretariat@szpitalpolanki.pl,,29/03/2020,16/04/2020,
00217/10/2018,Samodzielny Publiczny Zakład Opieki Zdrowotnej w Wieluniu,,51.2134,18.56547,1,Szpitalna,16,98-300,Wieluń,PL,Poland,,,,,,,,43 840 67 10,sekretariat@szpital-wielun.pl,,29/03/2020,16/04/2020,
00219/10/2018,WOJEWÓDZKI SZPITAL SPECJALISTYCZNY IM. MARII SKŁODOWSKIEJ-CURIE W ZGIERZU,,51.86267,19.39117,1,Parzęczewska,35,95-100,Zgierz,PL,Poland,,,,,,,,"42 71 44 488, 42 71 44 244",szpital@wss.zgierz.pl,,29/03/2020,16/04/2020,
00339/22/2018,Szpital dla Nerwowo i Psychicznie Chorych im. St. Kryzana,,53.9811312,18.5116937,1,Skarszewska,7,83-200,Starogard Gdański,PL,Poland,,,,,,,,58 562 06 00,szpital@kocborowo.pl,,29/03/2020,16/04/2020,
00340/22/2018,Wojewódzki Szpital Psychiatryczny  im. prof. Tadeusza Bilikiewicza w Gdańsku,,54.37622,18.57619,2,Srebrniki,17,80-282,Gdańsk,PL,Poland,,,,,,,,58 524 75 00,szpital@wsp-bilikiewicz.pl,,29/03/2020,16/04/2020,
00342/22/2018,"NIEPUBLICZNY ZAKŁAD OPIEKI ZDROWOTNEJ ""CENTRUM PSYCHIATRII"" SPÓŁKA Z OGRANICZONĄ ODPOWIEDZIALNOŚCIĄ",,54.02571,19.03775,1,Józefa Wybickiego,12,82-200,Malbork,PL,Poland,,,,,,,,(055) 278 01 22,biuro@centrum-psychiatrii.pl,,29/03/2020,16/04/2020,
00343/22/2018,"""MAWIKO"" SPÓŁKA Z OGRANICZONĄ ODPOWIEDZIALNOŚCIĄ",,53.6984,17.62563,1,Leśna,8,89-600,Chojnice,PL,Poland,,,,,,,,523970376,mawiko2@wp.pl,,29/03/2020,16/04/2020,
00346/22/2018,Centrum Zdrowia Psychicznego w Słupsku,,54.46868,17.04419,1,Obrońców Wybrzeża,4,76-200,Słupsk,PL,Poland,,,,,,,,(059) 832 25 55,sekretariat@psychiatria-slupsk.pl,,29/03/2020,16/04/2020,
00034/14/2018,SAMODZIELNY PUBLICZNY ZESPÓŁ ZAKŁADÓW OPIEKI ZDROWOTNEJ W ŻUROMINIE,,53.07027,19.91908,1,Szpitalna,56,09-300,Żuromin,PL,Poland,,,,,,,,(23) 657 22 01 wew. 340/342,sekretariat@szpital-zuromin.pl,,29/03/2020,16/04/2020,
00035/14/2018,SAMODZIELNY PUBLICZNY ZESPÓŁ ZAKŁADÓW OPIEKI ZDROWOTNEJ W WYSZKOWIE,,52.58682,21.44484,1,Komisji Edukacji Narodowej,1,07-200,Wyszków,PL,Poland,,,,,,,,(29) 743 76 31,kancelaria@szpitalwyszkow.pl,,29/03/2020,16/04/2020,
00038/14/2018,SAMODZIELNY PUBLICZNY ZESPÓŁ ZAKŁADÓW OPIEKI ZDROWOTNEJ W ZWOLENIU,,51.3553,21.58245,1,Aleja Pokoju,5,26-700,Zwoleń,PL,Poland,,,,,,,,(48) 676 20 37 wew. 163,interna@spzzoz.zwolen.net,,29/03/2020,16/04/2020,
00047/14/2018,CENTRUM ZDROWIA MAZOWSZA ZACHODNIEGO SPÓŁKA Z OGRANICZONĄ ODPOWIEDZIALNOŚCIĄ,,52.0592,20.44019,1,Bolesława Limanowskiego,30,96-300,Żyrardów,PL,Poland,,,,,,,,(46) 854 33 25,sekretariat@szpitalzyrardow.pl,,29/03/2020,16/04/2020,
00054/14/2018,Samodzielny Publiczny Zakład Opieki Zdrowotnej w Garwolinie,,51.87034,21.63686,1,Lubelska,50,08-400,Garwolin,PL,Poland,,,,,,,,(25) 684 46 25,sekretariat@spzozgarwolin.pl,,29/03/2020,16/04/2020,
00057/14/2018,Samodzielny Publiczny Zespół Zakładów Opieki Zdrowotnej w Kozienicach,,51.59181,21.52546,1,Al. Władysława Sikorskiego,10,26-900,Kozienice,PL,Poland,,,,,,,,48 679 71 09,sekretariat@szpitalkozienice.pl,,29/03/2020,16/04/2020,
00058/14/2018,Szpital w Gorzewie,,52.4693,19.50133,1,Kruk,5,09-500,Gostynin - Gorzewo,PL,Poland,,,,,,,,24 23 60 333,gostynin@arion-szpitale.pl,,29/03/2020,16/04/2020,
00077/14/2018,"SAMODZIELNY PUBLICZNY ZESPÓŁ ZAKŁADÓW OPIEKI ZDROWOTNEJ ",,51.1603,21.65756,1,Jędrzeja Śniadeckiego,2,27-300,Lipsko,PL,Poland,,,,,,,,48 378-35-92,sekretariat@szpitallipsko.pl,,29/03/2020,16/04/2020,
00416/02/2018,Wielospecjalistyczny Szpital - Samodzielny Publiczny Zespół Opieki Zdrowotnej w Zgorzelcu,,51.15802,15.01087,1,Lubańska,11-12,59-900,Zgorzelec,PL,Poland,,,,,,,,"75 7722900, 571 334 877 lub 878",sekretariat@spzoz.zgorzelec.pl,,29/03/2020,16/04/2020,
00429/02/2018,"""MIKULICZ"" Spółka z ograniczoną odpowiedzialnością",,50.85421,16.32154,1,Marii Skłodowskiej-Curie,3-7,58-160,Świebodzice,PL,Poland,,,,,,,,"74 6419119, 74 6419106",swiebodzice@emc-sa.pl,,29/03/2020,16/04/2020,
00435/02/2018,Szpital Gminny,,50.90704,14.9707,1,Szpitalna,16,59-920,Bogatynia,PL,Poland,,,,,,,,75 7739321,kancelaria@zozbogatynia.pl,,29/03/2020,16/04/2020,
00441/02/2018,Jaworskie Centrum Medyczne Spółka z ograniczoną odpowiedzialnością,,51.04695,16.19919,1,Szpitalna,3,59-400,Jawor,PL,Poland,,,,,,,,"(076)870 30 14,76 8703011 wew. 320",szpital@nzozjcm.pl,,29/03/2020,16/04/2020,
00447/02/2018,Niepubliczny Zakład Opieki Zdrowotnej Strzelińskie Centrum Medyczne-Szpital,,50.78789,17.06893,1,Wrocławska,46,57-100,Strzelin,PL,Poland,,,,,,,,"71 3921201, 71 3264845",sekretariat@szpitalstrzelin.pl,,29/03/2020,16/04/2020,
00453/02/2018,POWIATOWE CENTRUM ZDROWIA SP.Z O.O. SZPITAL POWIATOWY,,51.1113101,15.5844725,1,Kościelna,21,59-600,Lwówek Śląski,PL,Poland,,,,,,,,75 7820104,sekretariat@pczlwowek.pl,,29/03/2020,16/04/2020,
00458/02/2018,Wojewódzki Szpital Psychiatryczny w Złotoryi,,51.12231,15.90809,1,Szpitalna,9,59-500,Złotoryja,PL,Poland,,,,,,,,76 8779300,sekretariat.wszp@gmail.com,,29/03/2020,16/04/2020,
00459/02/2018,SZPITAL POWIATOWY IM.A.WOLAŃCZYKA SPÓŁKA Z OGRANICZONĄ ODPOWIEDZIALNOŚCIĄ,,51.11628,15.90989,1,Hoża,11,59-500,Złotoryja,PL,Poland,,,,,,,,"76 8779574,  76 8779507 lub 622 lub 510",sekretariat@szpitalzlotoryja.pl,,29/03/2020,16/04/2020,
00468/02/2018,POWIATOWE CENTRUM MEDYCZNE W WOŁOWIE SPÓŁKA Z OGRANICZONĄ ODPOWIEDZIALNOŚCIĄ,,51.34055,16.6395,1,Inwalidów Wojennych,26,56-100,Wołów,PL,Poland,,,,,,,,71 3805801,sekretariat@pcm-wolow.pl,,29/03/2020,16/04/2020,
00474/02/2018,BYSTRZYCKIE CENTRUM ZDROWIA SPÓŁKA Z OGRANICZONĄ ODPOWIEDZIALNOŚCIĄ,,50.29944,16.65404,1,Stefana Okrzei,49,57-500,Bystrzyca Kłodzka,PL,Poland,,,,,,,,"74 8111577,  74 8110473",sekretariat@bystrzyckiecentrumzdrowia.pl,,29/03/2020,16/04/2020,
00487/02/2018,DOLNOŚLĄSKIE CENTRUM REHABILITACJI SPÓŁKA Z OGRANICZONĄ ODPOWIEDZIALNOŚCIĄ,,50.77781,16.05602,1,Janusza Korczaka,1,58-400,Kamienna Góra,PL,Poland,,,,,,,,"75 6459600, 75 6459710",sekretariat@dcr.org.pl,,29/03/2020,16/04/2020,
00488/02/2018,POWIATOWE CENTRUM ZDROWIA W KAMIENNEJ GÓRZE SPÓŁKA Z OGRANICZONĄ ODPOWIEDZIALNOŚCIĄ,,50.78645,16.02705,1,Bohaterów Getta,10,58-400,Kamienna Góra,PL,Poland,,,,,,,,"75 7449000, 75 7449036",pcz@pcz.org.pl,,29/03/2020,16/04/2020,
00032/26/2018,Szpital Kielecki św.Aleksandra spółka z ograniczoną odpowiedzialnością,,50.87363,20.63849,1,Generała Tadeusza Kościuszki,25,25-316,Kielce,PL,Poland,,,,,,,,41 3417800,sekretariat@szpitalkielecki.pl,,29/03/2020,16/04/2020,
00038/26/2018,ARTMEDIK spółka z ograniczoną odpowiedzialnością,,50.6481,20.30208,1,Małogoska,25,28-300,Jędrzejów,PL,Poland,,,,,,,,41 3861154,sekretariat@szpital-jedrzejow.pl,,29/03/2020,16/04/2020,
00043/26/2018,ZESPÓŁ OPIEKI ZDROWOTNEJ W KOŃSKICH,,51.1908,20.39173,1,Gimnazjalna,41B,26-200,Końskie,PL,Poland,,,,,,,,41 3902350,sekretariat@zoz.konskie.pl,,29/03/2020,16/04/2020,
00053/26/2018,Zespół Opieki Zdrowotnej w Ostrowcu Świętokrzyskim,,50.95281,21.36153,1,Karola Szymanowskiego,11,27-400,Ostrowiec Świętokrzyski,PL,Poland,,,,,,,,41 2554421,sekretariat@zoz.ostrowiec.pl,,29/03/2020,16/04/2020,
00084/14/2018,Specjalistyczny Szpital Wojewódzki  w  Ciechanowie,,52.88369,20.63485,1,Powstańców Wielkopolskich,2,06-400,Ciechanów,PL,Poland,,,,,,,,23 673-04-47,sekretariat@szpitalciechanow.com.pl,,29/03/2020,16/04/2020,
00108/14/2018,SAMODZIELNY PUBLICZNY ZAKŁAD OPIEKI ZDROWOTNEJ W NOWYM MIEŚCIE NAD PILICĄ,,51.61696,20.56434,1,Tomaszowska,43,26-420,Nowe Miasto nad Pilicą,PL,Poland,,,,,,,,(48) 674 38 08,szpital@zoz-nowemiasto.net,,29/03/2020,16/04/2020,
00114/14/2018,MAZOWIECKI SZPITAL SPECJALISTYCZNY IM. DR. JÓZEFA PSARSKIEGO W OSTROŁĘCE,,53.0632,21.58968,1,Aleja Jana Pawła II,120A,07-410,Ostrołęka,PL,Poland,,,,,,,,(29) 765-15-49,sekretariat@szpital.ostroleka.pl,,29/03/2020,16/04/2020,
00129/14/2018,SAMODZIELNY PUBLICZNY ZESPÓŁ ZAKŁADÓW OPIEKI ZDROWOTNEJ W OSTROWI MAZOWIECKIEJ,,52.79954,21.9124,1,Stanisława Duboisa,"68        ",07-300,Ostrów Mazowiecka,PL,Poland,,,,,,,,"(29) 746-37-28 ",sekretariat@szpitalostrowmaz.pl,,29/03/2020,16/04/2020,
00013/24/2018,GÓRNOŚLĄSKIE CENTRUM ZDROWIA DZIECKA IM. ŚW. JANA PAWŁA II SAMODZIELNY PUBLICZNY SZPITAL KLINICZNY NR 6 ŚLĄSKIEGO UNIWERSYTETU MEDYCZNEGO W KATOWICACH,,50.22378,18.95135,1,Medyków,16,40-752,Katowice,PL,Poland,,,,,,,,32/2071500,sekretariat@gczd.katowice.pl,,29/03/2020,16/04/2020,
00001/06/2019,Uniwersytecki Szpital Dziecięcy w Lublinie,,51.26073,22.56444,1,Prof. Antoniego Gębali,6,20-093,Lublin,PL,Poland,,,,,,,,81 71 85 101,dsk@dsk.lublin.pl,,29/03/2020,16/04/2020,
00009/18/2019,SZPITAL SPECJALISTYCZNY PRO-FAMILIA SPÓŁKA Z OGRANICZONĄ ODPOWIEDZIALNOŚCIĄ SPÓŁKA KOMANDYTOWA,,50.03106,22.03954,1,Witolda,"6B        ",35-302,Rzeszów,PL,Poland,,,,,,,,17 773 57 03,szpital@pro-familia.pl,,29/03/2020,16/04/2020,
00016/18/2019,SAMODZIELNY PUBLICZNY ZESPÓŁ ZAKŁADÓW OPIEKI ZDROWOTNEJ POWIATOWY SZPITAL SPECJALISTYCZNY W STALOWEJ WOLI,,50.56328,22.06881,1,Staszica,4,37-450,Stalowa Wola,PL,Poland,,,,,,,,15 843 33 76,sekretariat@szpital-stw.com,,29/03/2020,16/04/2020,
00001/10/2019,Wojewódzkie Wielospecjalistyczne Centrum Onkologii i Traumatologii im.M.Kopernika w Łodzi,,51.73212,19.45518,1,Pabianicka,62,93-513,Łódź-Górna - Łódź,PL,Poland,,,,,,,,"42 689 50 10 ",szpital@kopernik.lodz.pl,,29/03/2020,16/04/2020,
00001/14/2019,"""EMC PIASECZNO"" SPÓŁKA Z OGRANICZONĄ ODPOWIEDZIALNOŚCIĄ",,52.06187,21.02522,1,Mickiewicza,39,05-500,Piaseczno,PL,Poland,,,,,,,,669-552-364,piaseczno@emc-sa.pl,,29/03/2020,16/04/2020,
00008/14/2019,RADOMSKI SZPITAL SPECJALISTYCZNY IM.DR TYTUSA CHAŁUBIŃSKIEGO - OPIEKA STACJONARNA,,51.39986,21.14592,1,Adolfa Tochtermana,1,26-610,Radom,PL,Poland,,,,,,,,48 361-53-25,szpital@szpital.radom.pl,,29/03/2020,16/04/2020,
00016/14/2019,RADOMSKI SZPITAL SPECJALISTYCZNY IM. DR TYTUSA CHAŁUBIŃSKIEGO,,51.40048,21.14535,1,Lekarska,4,26-610,Radom,PL,Poland,,,,,,,,48 361-53-33,szpital@szpital.radom.pl,,29/03/2020,16/04/2020,
00039/14/2019,WOJEWÓDZKI SZPITAL ZESPOLONY W PŁOCKU,,52.55714,19.65257,1,Medyczna,19,09-400,Płock,PL,Poland,,,,,,,,(24) 364 61 79,sekretariat@wszplock.pl,,29/03/2020,16/04/2020,
00055/14/2019,SAMODZIELNY PUBLICZNY ZESPÓŁ ZAKŁADÓW OPIEKI ZDROWOTNEJ IM.MARSZAŁKA JÓZEFA PIŁSUDSKIEGO W PŁOŃSKU,,52.62955,20.37529,1,Henryka Sienkiewicza,7,09-100,Płońsk,PL,Poland,,,,,,,,(23) 661 77 39,sekretariat@szpitalplonsk.pl,,29/03/2020,16/04/2020,
00001/20/2019,Uniwersytecki Dziecięcy Szpital Kliniczny im. L. Zamenhofa w Białymstoku,,53.1247095,23.1557207,1,Jerzego Waszyngtona,17,15-274,Białystok,PL,Poland,,,,,,,,85 74 50 500,sekretariat@udsk.pl,,29/03/2020,16/04/2020,
00027/20/2019,Samodzielny Publiczny Zakład Opieki Zdrowotnej Wojewódzki Szpital Zespolony im. Jędrzeja Śniadeckiego w Białymstoku,,53.14009094238281,23.18267059326172,2,M. Curie-Skłodowskiej,26,15-950,Białystok,PL,Poland,,,,,,,,85 74 88 100,chirurgia@sniadecja.pl,,29/03/2020,16/04/2020,
00055/20/2019,SAMODZIELNY PUBLICZNY ZAKŁAD OPIEKI ZDROWOTNEJ W BIELSKU PODLASKIM,,52.75967,23.20233,1,Kleszczelowska,1,17-100,Bielsk Podlaski,PL,Poland,,,,,,,,85 83 32 753,sekretariat@spzoz-bielsk.pl,,29/03/2020,16/04/2020,
00064/14/2019,Szpital SOLEC spółka z ograniczoną odpowiedzialnością,,52.23565,21.03115,2,Solec,93,00-382,Śródmieście - Warszawa,PL,Poland,,,,,,,,"22 250-62-63, 22 250-62-06",sekretariat@cmsolec.pl,,29/03/2020,16/04/2020,
00063/20/2019,SAMODZIELNY PUBLICZNY ZAKŁAD OPIEKI ZDROWOTNEJ W HAJNÓWCE,,52.74508,23.61007,1,Doc. Adama Dowgirda,9,17-200,Hajnówka,PL,Poland,,,,,,,,85 68 29 126,spzoz@hajnowka.pl,,29/03/2020,16/04/2020,
00070/20/2019,Szpital Ogólny w Wysokiem Mazowieckiem,,52.91553,22.52228,1,Szpitalna,5,18-200,Wysokie Mazowieckie,PL,Poland,,,,,,,,86 47 75 510,ortopedia.o@szpitalwysmaz.pl,,29/03/2020,16/04/2020,
00077/20/2019,SAMODZIELNY PUBLICZNY ZAKŁAD OPIEKI ZDROWOTNEJ W SOKÓŁCE,,53.40755,23.48508,1,gen. Władysława Sikorskiego,40,16-100,Sokółka,PL,Poland,,,,,,,,85 72 20 427,sekretariat@szpitalsokolka.pl,,29/03/2020,16/04/2020,
00084/20/2019,SZPITAL WOJEWÓDZKI IM. KARDYNAŁA STEFANA WYSZYŃSKIEGO W ŁOMŻY,,53.1622728,22.0884249,1,Aleja Józefa Piłsudskiego,11,18-404,Łomża,PL,Poland,,,,,,,,86 47 33 900,sekretariat@szpital-lomza.pl,,29/03/2020,16/04/2020,
00101/20/2019,SZPITAL OGÓLNY IM. DR WITOLDA GINELA W GRAJEWIE,,53.6464,22.46987,1,Konstytucji 3-go Maja,34,19-200,Grajewo,PL,Poland,,,,,,,,86 27 23 271,szpital_grajewo@post.pl,,29/03/2020,16/04/2020,
00111/20/2019,Szpital Wojewódzki im. dr. Ludwika Rydygiera w Suwałkach,,54.11883,22.92482,1,Szpitalna,60,16-400,Suwałki,PL,Poland,,,,,,,,87 56 29 282,wojewodzki@szpital.suwalki.pl,,29/03/2020,16/04/2020,
00127/20/2019,Samodzielny Publiczny Zakład Opieki Zdrowotnej w Augustowie,,53.8513,22.99358,1,Szpitalna,12,16-300,Augustów,PL,Poland,,,,,,,,87 64 44 284,spzoz6@wp.pl,,29/03/2020,16/04/2020,
00134/20/2019,Samodzielny Szpital Miejski im. PCK w Białymstoku,,53.14042,23.17136,1,Sienkiewicza,79,15-003,Białystok,PL,Poland,,,,,,,,85 66 48 511,szpitalpck@bialystok.home.pl,,29/03/2020,16/04/2020,
00136/20/2019,SAMODZIELNY PUBLICZNY ZAKŁAD OPIEKI ZDROWOTNEJ MINISTERSTWA SPRAW WEWNĘTRZNYCH I ADMINISTRACJI W BIAŁYMSTOKU,,53.13906,23.16617,1,Fabryczna,27,15-471,Białystok,PL,Poland,,,,,,,,85 86 94 599,wcharytoniuk@zozmswia.bialystok.pl,,29/03/2020,16/04/2020,
00142/20/2019,Białostockie Centrum Onkologii im. M. Skłodowskiej-Curie w Białymstoku,,53.13516,23.1695,1,Ogrodowa,12,15-027,Białystok,PL,Poland,,,,,,,,85 66 46 711,bco@onkologia.bialystok.pl,,29/03/2020,16/04/2020,
00143/20/2019,SAMODZIELNY PUBLICZNY PSYCHIATRYCZNY ZAKŁAD OPIEKI ZDROWOTNEJ IM. DR. STANISŁAWA DERESZA W CHOROSZCZY,,53.15266,22.98606,2,im. dr Zygmunta Brodowicza,1,16-070,Choroszcz,PL,Poland,,,,,,,,85 71 91 091,szpital@sppchoroszcz.med.pl,,29/03/2020,16/04/2020,
00144/20/2019,Samodzielny Publiczny Zakład Opieki Zdrowotnej w Łapach,,52.98824,22.86705,1,Janusza Korczaka,23,18-100,Łapy,PL,Poland,,,,,,,,85 81 42 439,szpital_lapy@bk.home.pl,,29/03/2020,16/04/2020,
00148/20/2019,Samodzielny Publiczny Zakład Opieki Zdrowotnej w Dąbrowie Białostockiej,,53.65754,23.34963,1,Marii Skłodowskiej-Curie,15,16-200,Dąbrowa Białostocka,PL,Poland,,,,,,,,85 71 23 319,spzoz@home.pl,,29/03/2020,16/04/2020,
00149/20/2019,SAMODZIELNY PUBLICZNY ZAKŁAD OPIEKI ZDROWOTNEJ W MOŃKACH,,53.40553,22.80311,1,Aleja Niepodległości,9,19-100,Mońki,PL,Poland,,,,,,,,668877562,chirurgia@szpital-monki.h2.pl,,29/03/2020,16/04/2020,
00153/20/2019,SAMODZIELNY PUBLICZNY ZAKŁAD OPIEKI ZDROWOTNEJ IM. DR E.JELSKIEGO,,53.3196,22.92177,1,Grodzieńska,96,19-120,Knyszyn,PL,Poland,,,,,,,,85 71 67 624,spzoz_knyszyn@poczta.fm,,29/03/2020,16/04/2020,
00154/20/2019,Szpital Powiatowy w Zambrowie spółka z o.o.,,52.98829,22.25355,1,Papieża Jana Pawła II,3,18-300,Zambrów,PL,Poland,,,,,,,,86 27 63 660,oaiit.szpital@powiatzambrowski.com,,29/03/2020,16/04/2020,
00158/20/2019,SAMODZIELNY PUBLICZNY ZAKŁAD OPIEKI ZDROWOTNEJ W SEJNACH,,54.11517,23.35302,1,Dr Edwarda Rittlera,2,16-500,Sejny,PL,Poland,,,,,,,,875172304,sekretariat@szpital.sejny.pl,,29/03/2020,16/04/2020,
00091/14/2019,WOJSKOWY INSTYTUT MEDYCYNY LOTNICZEJ,,52.26134,20.96463,1,Zygmunta Krasińskiego,54/56,01-755,Żoliborz - Warszawa,PL,Poland,,,,,,,,"26 185-29-53, 26 185-29-54",dyrektor@wiml.waw.pl,,29/03/2020,16/04/2020,
00163/20/2019,Samodzielny Publiczny Zakład Opieki Zdrowotnej w Siemiatyczach,,52.42182,22.86378,1,Szpitalna,8,17-300,Siemiatycze,PL,Poland,,,,,,,,85 655 22 00,spzozsiemiatycze@gmail.com,,29/03/2020,16/04/2020,
00167/20/2019,Szpital Ogólny w Kolnie,,53.41228,21.92181,1,Wojska Polskiego,69,18-500,Kolno,PL,Poland,,,,,,,,86 27 82 424,szpital_kolno@wp.pl,,29/03/2020,16/04/2020,
00011/32/2019,Szpital Barlinek Spółka z ograniczoną odpowiedzialnością,,52.99781,15.22447,1,Szpitalna,10,74-320,Barlinek,PL,Poland,,,,,,,,95 749 18 10,izbaprzyjec@szpitalbarlinek.pl,,29/03/2020,16/04/2020,
00013/32/2019,SAMODZIELNY PUBLICZNY WIELOSPECJALISTYCZNY ZAKŁAD OPIEKI ZDROWOTNEJ W STARGARDZIE,,53.34277,15.03629,1,Wojska Polskiego,27,73-110,Stargard,PL,Poland,,,,,,,,91 578 92 70,sor@zozstargard.pl,,29/03/2020,16/04/2020,
00094/14/2019,SZPITAL WOLSKI IM. DR. ANNY GOSTYŃSKIEJ SAMODZIELNY PUBLICZNY ZAKŁAD OPIEKI ZDROWOTNEJ,,52.22713,20.97155,1,Marcina Kasprzaka,17,01-211,Wola - Warszawa,PL,Poland,,,,,,,,"22 389-49-70, 664-032-040",kancelaria@wolski.med.pl,,29/03/2020,16/04/2020,
00101/14/2019,WARSZAWSKI SZPITAL DLA DZIECI - SAMODZIELNY PUBLICZNY ZAKŁAD OPIEKI ZDROWOTNEJ,,52.23774,21.0191,1,Mikołaja Kopernika,43,00-328,Śródmieście - Warszawa,PL,Poland,,,,,,,,"(22) 22 83 05 356, (22) 83 05 366/384",dyrekcja@wsdz.pl,,29/03/2020,16/04/2020,
00104/14/2019,SZPITAL MATKI BOŻEJ NIEUSTAJĄCEJ POMOCY W WOŁOMINIE,,52.34601,21.22105,1,Gdyńska,1/3,05-200,Wołomin,PL,Poland,,,,,,,,"(22) 763 32 89, (22) 763 31 64",sekretariat@szpitalwolomin.pl,,29/03/2020,16/04/2020,
00114/14/2019,SAMODZIELNY PUBLICZNY ZAKŁAD OPIEKI ZDROWOTNEJ W WĘGROWIE,,52.39954,22.02057,1,Tadeusza Kościuszki,15,07-100,Węgrów,PL,Poland,,,,,,,,"(25)7922041 wew. 156 i 113, (25)7922041 wew. 110",spzoz@onet.pl,,29/03/2020,16/04/2020,
00121/14/2019,Samodzielny Zespół Publicznych Zakładów Opieki Zdrowotnej im. Dzieci Warszawy w Dziekanowie Leśnym,,52.34162,20.85045,1,Marii Konopnickiej,65,05-092,Łomianki - Dziekanów Leśny,PL,Poland,,,,,,,,"(22) 765 72 54, 765 71 56",szpital@szpitaldziekanow.pl,,29/03/2020,16/04/2020,
00131/14/2019,Samodzielny Publiczny Kliniczny Szpital Okulistyczny w Warszawie,,52.25132,21.02982,1,Józefa Sierakowskiego,13,03-709,Praga-Północ - Warszawa,PL,Poland,,,,,,,,"(22) 511 62 21, (22) 511 63 07",spkso@spkso.waw.pl,,29/03/2020,16/04/2020,
00017/32/2019,Regionalne Centrum Medyczne w Białogardzie Spółka z ograniczoną odpowiedzialnością,,54.00712,16.00778,1,Chopina,29,78-200,Białogard,PL,Poland,,,,,,,,94 312 02 13,sekretariat@szpitalwbialogardzie.pl,,29/03/2020,16/04/2020,
00033/32/2019,Samodzielny Publiczny Zakład Opieki Zdrowotnej Ministerstwa Spraw Wewnętrznych i Administracji w Koszalinie,,54.18744,16.18524,1,Szpitalna,2,75-720,Koszalin,PL,Poland,,,,,,,,94 347 16 86,sekretariat@poliklinika.koszalin.pl,,29/03/2020,16/04/2020,
00133/14/2019,Mazowiecki Szpital Bródnowski w Warszawie Spółka z ograniczoną odpowiedzialnością,,52.29134,21.04466,1,Ludwika Kondratowicza,8,03-242,Targówek - Warszawa,PL,Poland,,,,,,,,"(22) 326 77 18, 666 023 170, (22) 326 56 68",sekretariat@brodnowski.pl,,29/03/2020,16/04/2020,
00151/14/2019,SAMODZIELNY PUBLICZNY ZESPÓŁ ZAKŁADÓW OPIEKI ZDROWOTNEJ W SIERPCU,,52.85242,19.67545,1,Juliusza Słowackiego,32,09-200,Sierpc,PL,Poland,,,,,,,,(24) 275 85 24; (24) 275 85 85,sekretariat@spzzozsierpc.pl,,29/03/2020,16/04/2020,
00158/14/2019,INSTYTUT HEMATOLOGII I TRANSFUZJOLOGII,,52.14567,21.03303,1,Indiry Gandhi,"14        ",02-776,Ursynów - Warszawa,PL,Poland,,,,,,,,"(22) 34-96-474, (22) 34-96-409",sekihit@ihit.waw.pl,,29/03/2020,16/04/2020,
00163/14/2019,"Zespół Opieki Zdrowotnej  ""Szpitala Powiatowego""   w Sochaczewie",,52.23882,20.22907,1,Batalionów Chłopskich,3/7,96-500,Sochaczew,PL,Poland,,,,,,,,(46) 864 96 20; pielęgniarki - (46) 864 96 21,kancelaria@szpitalsochaczew.pl,,29/03/2020,16/04/2020,
00171/14/2019,Instytut Matki i Dziecka,,52.22713,20.97155,1,Marcina Kasprzaka,17 A,01-211,Wola,PL,Poland,,,,,,,,(22) 327 71 66; (22) 327 72 09,dyr@imid.med.pl,,29/03/2020,16/04/2020,
00185/14/2019,Szpital Specjalistyczny im. Świętej Rodziny Samodzielny Publiczny Zakład Opieki Zdrowotnej,,52.2042,21.0171,1,Antoniego Józefa Madalińskiego,25,02-544,Mokotów,PL,Poland,,,,,,,,"(22) 450 22 38, (22) 450 22 37",sekretariat@szpitalmadalinskiego.pl,,29/03/2020,16/04/2020,
00190/14/2019,SZPITAL GROCHOWSKI IM.DR MED. RAFAŁA MASZTAKA SPÓŁKA Z OGRANICZONĄ ODPOWIEDZIALNOŚCIĄ,,52.24217,21.07932,1,Grenadierów,51/59,04-073,Praga-Południe,PL,Poland,,,,,,,,22 51-52-578,dyrekcja@grochowski.waw.pl,,29/03/2020,16/04/2020,
00197/14/2019,Samodzielny Publiczny Zakład Opieki Zdrowotnej -  Zespół Zakładów,,52.86218,21.08726,1,Wincentego Witosa,2,06-200,Maków Mazowiecki,PL,Poland,,,,,,,,(29) 714 23 34; (29) 714 22 44,sekretariat@szpital-makow.pl,,29/03/2020,16/04/2020,
00204/14/2019,SAMODZIELNY PUBLICZNY ZESPÓŁ OPIEKI ZDROWOTNEJ W MIŃSKU MAZOWIECKIM,,52.17412,21.57674,1,Szpitalna,37,05-300,Mińsk Mazowiecki,PL,Poland,,,,,,,,"(25) 506 52 38, (25) 506 52 39; (25) 506 52 40",spzozmm@spzozmm.pl,,29/03/2020,16/04/2020,
00210/14/2019,SAMODZIELNY PUBLICZNY SZPITAL KLINICZNY IM. PROF. W. ORŁOWSKIEGO CENTRUM MEDYCZNEGO KSZTAŁCENIA PODYPLOMOWEGO,,52.22991,21.03178,1,Czerniakowska,231,00-416,Śródmieście,PL,Poland,,,,,,,,(22) 584 11 13; (22) 584 11 19,szpital@szpital-orlowskiego.pl,,29/03/2020,16/04/2020,
00223/14/2019,Szpital Dziecięcy im. prof. dr. med. Jana Bogdanowicza  Samodzielny  Publiczny Zakład Opieki Zdrowotnej,,52.23441,21.06269,1,Niekłańska,4/24,03-924,Praga-Południe,PL,Poland,,,,,,,,"(22) 509 83 70, 509 82 61",szpital@nieklanska.pl,,29/03/2020,16/04/2020,
00231/14/2019,Centralny Szpital Kliniczny Ministerstwa Spraw Wewnętrznych i Administracji w Warszawie,,52.19886,20.99941,1,Wołoska,137,02-507,Mokotów,PL,Poland,,,,,,,,"(22) 508 14 52, (22) 508 14 59, (22) 508 14 55 ",dyrekcja@cskmswia.pl,,29/03/2020,16/04/2020,
00252/14/2019,SAMODZIELNY PUBLICZNY ZESPÓŁ ZAKŁADÓW OPIEKI ZDROWOTNEJ - SZPITAL W IŁŻY,,51.16126,21.23404,1,Bodzentyńska,17,27-100,Iłża,PL,Poland,,,,,,,,"(48) 385 69 60, 385 69 61 ",szrilza@szpitalilza.com.pl,,29/03/2020,16/04/2020,
00258/14/2019,SAMODZIELNY PUBLICZNY ZESPÓŁ ZAKŁADÓW OPIEKI ZDROWOTNEJ W PIONKACH,,51.47745,21.44718,1,Henryka Sienkiewicza,29,26-670,Pionki,PL,Poland,,,,,,,,048-612 49 37 wew. 132,spzzoz@spzzozpionki.pl,,29/03/2020,16/04/2020,
00262/14/2019,MAZOWIECKI SZPITAL WOJEWÓDZKI IM. ŚW. JANA PAWŁA II W SIEDLCACH SPÓŁKA Z OGRANICZONĄ ODPOWIEDZIALNOŚCIĄ,,52.17755,22.29142,1,Księcia Józefa Poniatowskiego,26,08-110,Siedlce,PL,Poland,,,,,,,,do 15.00 -(25) 640 35 37; 640 35 43,kontakt@szpital.siedlce.pl,,29/03/2020,16/04/2020,
00278/14/2019,Samodzielny Publiczny Zakład Opieki Zdrowotnej w  Sokołowie Podlaskim,,52.4040785,22.2402716,1,Księdza Bosco,5,08-300,Sokołów Podlaski,PL,Poland,,,,,,,,lekarze - (25) 781 72 96; (25) 781 72 94,kancelaria@spzozsokolow.pl,,29/03/2020,16/04/2020,
00289/14/2019,SAMODZIELNY PUBLICZNY ZESPÓŁ ZAKŁADÓW OPIEKI ZDROWOTNEJ W PRZASNYSZU,,53.02795,20.89538,1,Sadowa,9,06-300,Przasnysz,PL,Poland,,,,,,,,(29) 753 43 26; (29) 753 43 28,sekretariat@szpitalprzasnysz.pl,,29/03/2020,16/04/2020,
00297/14/2019,SAMODZIELNY PUBLICZNY ZESPÓŁ ZAKŁADÓW OPIEKI ZDROWOTNEJ W PRZYSUSZE,,51.35988,20.63211,1,Aleja Jana Pawła II,9A,26-400,Przysucha,PL,Poland,,,,,,,,"(48) 38 33 508, 38 33 508",sekretariat@spzzozprzysucha.pl,,29/03/2020,16/04/2020,
00299/14/2019,SZPITAL POWIATOWY GAJDA-MED SPÓŁKA Z OGRANICZONĄ ODPOWIEDZIALNOŚCIĄ,,52.69375,21.11413,1,Teofila Kwiatkowskiego,19,06-102,Pułtusk,PL,Poland,,,,,,,,"(23) 691 99 30, (23) 691 99 31",sekretariat@szpital.pultusk.pl,,29/03/2020,16/04/2020,
00307/14/2019,MAZOWIECKI SZPITAL SPECJALISTYCZNY SPÓŁKA Z OGRANICZONĄ ODPOWIEDZIALNOŚCIĄ,,51.43802,21.15838,1,Juliana Aleksandrowicza,5,26-617,Radom,PL,Poland,,,,,,,,"48 361-49-57, 48 361-49-56, 48 361-39-76",szpital@wss.com.pl,,29/03/2020,16/04/2020,
00328/14/2019,CENTRUM MEDYCZNE IM. BITWY WARSZAWSKIEJ 1920 R. W RADZYMINIE - SAMODZIELNY PUBLICZNY ZESPÓŁ ZAKŁADÓW OPIEKI ZDROWOTNEJ,,52.4144,21.18891,1,Konstytucji 3 Maja,17,05-250,Radzymin,PL,Poland,,,,,,,,22 7607 222,sekretariat@cmradzymin.pl,,29/03/2020,16/04/2020,
00330/14/2019,SZPITAL BIELAŃSKI IM.KS. JERZEGO POPIEŁUSZKI SAMODZIELNY PUBLICZNY ZAKŁAD OPIEKI ZDROWOTNEJ,,52.28637,20.95187,1,Cegłowska,80,01-809,Bielany,PL,Poland,,,,,,,,"(22) 56 90 205, 56 90 136, 56 90 518, 56 90 202, ",dn@bielanski.med.pl,,29/03/2020,16/04/2020,
00341/14/2019,"INSTYTUT ""POMNIK - CENTRUM ZDROWIA DZIECKA""",,52.20719,21.19121,1,Aleja Dzieci Polskich,20,04-730,Wawer,PL,Poland,,,,,,,,"(22) 815 77 55, (22) 815 77 54; (22) 815 14 40",dyrektor@ipczd.pl,,29/03/2020,16/04/2020,
00352/14/2019,SAMODZIELNY PUBLICZNY SPECJALISTYCZNY SZPITAL ZACHODNI IM.ŚW.JANA PAWŁA II,,52.09487,20.61643,1,Daleka,11,05-825,Grodzisk Mazowiecki,PL,Poland,,,,,,,,22 755 90 13; 22 755 90 16; 22 755 90 18,sekretariat@szpitalzachodni.pl,,29/03/2020,16/04/2020,
00365/14/2019,Samodzielny Publiczny Zakład Opieki Zdrowotnej w Mławie,,53.12339,20.37121,1,Anny Dobrskiej,1,06-500,Mława,PL,Poland,,,,,,,,(23)654 32 35 wew. 223; (23)654 32 35 wew. 222/295,sekretariat@szpitalmlawa.pl,,29/03/2020,16/04/2020,
00373/14/2019,POWIATOWE CENTRUM ZDROWIA SPÓŁKA Z OGRANICZONĄ ODPOWIEDZIALNOŚCIĄ W RESTRUKTURYZACJI,,52.09801,21.26278,1,Stefana Batorego,44,05-400,Otwock,PL,Poland,,,,,,,,(22) 778 27 13; (22) 778 27 10,sekretariat@pcz-otwock.pl,,29/03/2020,16/04/2020,
00379/14/2019,PŁOCKI ZAKŁAD OPIEKI ZDROWOTNEJ SPÓŁKA Z OGRANICZONĄ ODPOWIEDZIALNOŚCIĄ,,52.54031,19.69546,1,Tadeusza Kościuszki,28,09-402,Płock,PL,Poland,,,,,,,,"24/ 364 52 09, 24/ 364 52 07",sekretariat@plockizoz.pl,,29/03/2020,16/04/2020,
00385/14/2019,SZPITAL PRASKI P.W. PRZEMIENIENIA PAŃSKIEGO SPÓŁKA Z OGRANICZONĄ ODPOWIEDZIALNOŚCIĄ,,52.25151,21.02901,1,"Aleja ""Solidarności""",67,03-401,Praga-Północ,PL,Poland,,,,,,,,"(22) 555 12 80, (22) 555 12 79; (22) 555 12 96",sekretariat@szpitalpraski.pl,,29/03/2020,16/04/2020,
00012/04/2019,Szpital Wielospecjalistyczny im. dr. Ludwika Błażka w Inowrocławiu,,52.78078,18.26292,1,Poznańska,97,88-100,Inowrocław,PL,Poland,,,,,,,,(52) 354 55 30,kardiologia@szpitalino.pl,,29/03/2020,16/04/2020,
00019/06/2019,SAMODZIELNY PUBLICZNY SZPITAL KLINICZNY NR 4 W LUBLINIE,,51.25865,22.56545,1,Dra Kazimierza Jaczewskiego,8,20-954,Lublin,PL,Poland,,,,,,,,81 724 44 25,szpitalny.oddzial.ratunkowy@spsk4.lublin.pl,,29/03/2020,16/04/2020,
00020/04/2019,Wojewódzki Szpital Zespolony im.L.Rydygiera w Toruniu,,53.02862,18.58187,1,św. Józefa,53-59,87-100,Toruń,PL,Poland,,,,,,,,56 67 93 255; 56 67 93 250,kardiologia@wszz.torun.pl,,29/03/2020,16/04/2020,
00052/06/2019,SAMODZIELNY PUBLICZNY ZESPÓŁ OPIEKI ZDROWOTNEJ W KRASNYMSTAWIE,,50.9837183,23.164394,1,Sobieskiego,4,22-300,Krasnystaw,PL,Poland,,,,,,,,tel: (82) 543 15 22  tel: (82) 543 15 23,sekretariat@spzozkrasnystaw.pl,,29/03/2020,16/04/2020,
00066/06/2019,SAMODZIELNY PUBLICZNY ZAKŁAD OPIEKI ZDROWOTNEJ W ŁUKOWIE,,51.92482,22.37849,1,Doktora Andrzeja Rogalińskiego,3,21-400,Łuków,PL,Poland,,,,,,,," Centrala (25) 798 20 00-9, fax (25) 798 26 03",spzoz@spzoz.lukow.pl,,29/03/2020,16/04/2020,
00076/06/2019,Powiatowe Centrum Zdrowia spółka z ograniczoną odpowiedzialnością,,51.14607,21.97615,1,Przemysłowa,4a,24-300,Opole Lubelskie,PL,Poland,,,,,,,,81 4582130,sekretariat@pczol.pl,,29/03/2020,16/04/2020,
00087/06/2019,"""ZAMOJSKI SZPITAL NIEPUBLICZNY"" SPÓŁKA Z OGRANICZONĄ ODPOWIEDZIALNOŚCIĄ",,50.72367,23.25465,1,Peowiaków,1,22-400,Zamość,PL,Poland,,,,,,,,84 677 5052 lub 84 677 5053,zamosc@szpital.com.pl,,29/03/2020,16/04/2020,
00096/06/2019,Samodzielny Publiczny Zakład Opieki Zdrowotnej w Radzyniu Podlaskim,,51.77196,22.60624,1,Wisznicka,111,21-300,Radzyń Podlaski,PL,Poland,,,,,,,,83 41 32 252,sekretariat@spzozrp.pl,,29/03/2020,16/04/2020,
00107/06/2019,SAMODZIELNY PUBLICZNY ZAKŁAD OPIEKI ZDROWOTNEJ W PARCZEWIE,,51.63466,22.91219,1,Kościelna,136,21-200,Parczew,PL,Poland,,,,,,,,"83  355 21 38	",interna@spzozparczew.pl,,29/03/2020,16/04/2020,
00116/06/2019,SAMODZIELNY PUBLICZNY SZPITAL WOJEWÓDZKI IM. JANA BOŻEGO W LUBLINIE,,51.25502,22.56694,1,Mieczysława Biernackiego,9,20-089,Lublin,PL,Poland,,,,,,,,"81 740-26-75, 81 740-26-70",sekretariat@janbozy.pl,,29/03/2020,16/04/2020,
00128/06/2019,SAMODZIELNY PUBLICZNY SZPITAL KLINICZNY NR 1 W LUBLINIE,,51.25056,22.56335,1,Stanisława Staszica,16,20-081,Lublin,PL,Poland,,,,,,,,81 75 03 992 - Dyżurka Pielęgniarek,sekretariat@spsk1.lublin.pl,,29/03/2020,16/04/2020,
00026/04/2019,Kujawsko - Pomorskie Centrum Pulmonologii w Bydgoszczy,,53.12123,17.98341,1,Seminaryjna,1,85-326,Bydgoszcz,PL,Poland,,,,,,,,52 32 56 619; 52 32 56 719,kpcp_iz@kpcp.pl,,29/03/2020,16/04/2020,
00401/14/2019,NOWODWORSKIE CENTRUM MEDYCZNE W NOWYM DWORZE MAZOWIECKIM,,52.41999,20.72389,1,Miodowa,2,05-100,Nowy Dwór Mazowiecki,PL,Poland,,,,,,,,22 765 83 53; 22 765 83 72,sekretariat@ncm.med.pl,,29/03/2020,16/04/2020,
00406/14/2019,MAZOWIECKI SZPITAL SPECJALISTYCZNY IM.DR.JÓZEFA PSARSKIEGO W OSTROŁĘCE,,53.0632,21.58968,1,Aleja Jana Pawła II,120A,07-410,Ostrołęka,PL,Poland,,,,,,,,"(29) 765 29 36; (29) 765 15 16, (29) 765 15 75",szpitalo@szpital.ostroleka.pl,,29/03/2020,16/04/2020,
00410/14/2019,SAMODZIELNY PUBLICZNY SZPITAL KLINICZNY IM.PROF.ADAMA GRUCY CENTRUM MEDYCZNEGO KSZTAŁCENIA PODYPLOMOWEGO,,52.12079,21.27547,1,ks. Stanisława Konarskiego,13,05-400,Otwock,PL,Poland,,,,,,,,(22) 779 40 31 wew.410;  (22) 779 40 31 wew.457,sekretariat@spskgruca.pl,,29/03/2020,16/04/2020,
00422/14/2019,Centrum Kardiologii Spółka z ograniczoną odpowiedzialnością,,52.14347,21.19097,1,Nadwiślańska,37,05-410,Józefów,PL,Poland,,,,,,,,"22 780 08 00 wew, 817 lub 818 lub 827",sekretariat@centrumkardiologii.pl,,29/03/2020,16/04/2020,
00423/14/2019,"MAZOWIECKIE CENTRUM REHABILITACJI ""STOCER"" SPÓŁKA Z OGRANICZONĄ ODPOWIEDZIALNOŚCIĄ",,52.0815703,21.1134098,1,Ireneusza Wierzejewskiego,12,05-510,Konstancin-Jeziorna,PL,Poland,,,,,,,,(22) 711 90 19; (22) 711 90 00 wew. 353,kancelaria@stocer.pl,,29/03/2020,16/04/2020,
00027/04/2019,Wielospecjalistyczny Szpital Miejski im dr. Emila Warmińskiego - SPZOZ,,53.0992651,18.0446106,1,Szpitalna,19,85-826,Bydgoszcz,PL,Poland,,,,,,,,52 37 09 180,oip@szpital.bydgoszcz.pl,,29/03/2020,16/04/2020,
00037/04/2019,Szpital Uniwersytecki Nr 2 im. Dr Jana Biziela w Bydgoszczy,,53.1149348,18.0264204,1,Kornela Ujejskiego,75,85-168,Bydgoszcz,PL,Poland,,,,,,,,52 365 56 53,kardiologia@biziel.pl,,29/03/2020,16/04/2020,
00040/04/2019,10 Wojskowy Szpital Kliniczny z Polikliniką - Samodzielny Publiczny Zakład Opieki Zdrowotnej w Bydgoszczy,,53.14309,18.00887,1,Powstańców Warszawy,5,85-681,Bydgoszcz,PL,Poland,,,,,,,,261 416 147,szpital@10wsk.mil.pl,,29/03/2020,16/04/2020,
00045/04/2019,Samodzielny Publiczny Wielospecjalistyczny Zakład Opieki Zdrowotnej Ministerstwa Spraw Wewnętrznych i Administracji w Bydgoszczy,,53.12658,18.0108,1,Ks. Ryszarda Markwarta,4-6,85-015,Bydgoszcz,PL,Poland,,,,,,,,52 58-26-262,sekretariat@szpitalmsw.bydgoszcz.pl,,29/03/2020,16/04/2020,
00047/04/2019,Wojewódzki Szpital Specjalistyczny im. błogosławionego księdza Jerzego Popiełuszki we Włocławku,,52.6595,19.03141,1,Wieniecka,49,87-800,Włocławek,PL,Poland,,,,,,,,54 412 91 25,sekretariat@szpital.wloclawek.pl,,29/03/2020,16/04/2020,
00051/04/2019,REGIONALNY SZPITAL SPECJALISTYCZNY IM. DR. WŁADYSŁAWA BIEGAŃSKIEGO,,53.45276,18.78624,1,dr. Ludwika Rydygiera,15/17,86-300,Grudziądz,PL,Poland,,,,,,,,56-641-4451; 6-641-4455,sekretariat.dyrekcja@bieganski.org,,29/03/2020,16/04/2020,
00058/04/2019,SZPITAL POWIATOWY Spółka z ograniczoną odpowiedzialnością,,53.1093,19.07174,1,dr. Jerzego Gerarda Koppa,1,87-400,Golub-Dobrzyń,PL,Poland,,,,,,,,56 682 1171; 56 683 2831,sekretariat@szpitalgolub.pl,,29/03/2020,16/04/2020,
00059/04/2019,Powiatowy Szpital w Aleksandrowie Kujawskim Spółka z o.o,,52.87385,18.697,1,Juliusza Słowackiego,18,87-700,Aleksandrów Kujawski,PL,Poland,,,,,,,,054 282-80-70; 054 282-80-69,spzcal@poczta.onet.pl,,29/03/2020,16/04/2020,
00061/04/2019,NOWY SZPITAL Spółka z ograniczoną odpowiedzialnością,,53.42391,14.56527,1,Zbożowa,"4      ",70-653,Szczecin,PL,Poland,,,,,,,,41 240 1510; 41 240 1574,sekretariat.swiecie@nowyszpital.pl,,29/03/2020,16/04/2020,
00062/04/2019,NOWY SZPITAL W NAKLE I SZUBINIE SPÓŁKA Z OGRANICZONĄ ODPOWIEDZIALNOŚCIĄ,,53.13997,17.5941,1,Aleja Adama Mickiewicza,7,89-100,Nakło nad Notecią,PL,Poland,,,,,,,,"41 240 2000, 41 240 10 10",sekretariat.naklo@nowyszpital.pl,,29/03/2020,16/04/2020,
00434/14/2019,SAMODZIELNY PUBLICZNY ZAKŁAD OPIEKI ZDROWOTNEJ W ŁOSICACH,,52.2155,22.70788,1,Słoneczna,1,08-200,Łosice,PL,Poland,,,,,,,,"(83) 357 32 31 wew. 23, (83) 357 32 31 wew. 57",spzozlosice@pro.onet.pl,,29/03/2020,16/04/2020,
00438/14/2019,SZPITAL CZERNIAKOWSKI  SPÓŁKA Z OGRANICZONĄ ODPOWIEDZIALNOŚCIĄ,,52.20495,21.0375,1,Stępińska,19/25,00-739,Mokotów,PL,Poland,,,,,,,,"(22) 31 86 235, 31 86 378; (22) 31 86 385",sekretariat@szpitalczerniakowski.waw.pl,,29/03/2020,16/04/2020,
00446/14/2019,SAMODZIELNY PUBLICZNY ZESPÓŁ ZAKŁADÓW OPIEKI ZDROWOTNEJ W PRUSZKOWIE,,52.15916,20.81888,1,Armii Krajowej,2/4,05-800,Pruszków,PL,Poland,,,,,,,,22 758 60 54/55 wew.275; 22 758 60 54/55 wew.280,dyrektor@szpitalnawrzesinie.pl,,29/03/2020,16/04/2020,
00455/14/2019,"CENTRUM MEDYCZNE ""ŻELAZNA"" SPÓŁKA Z OGRANICZONĄ ODPOWIEDZIALNOŚCIĄ",,52.24093,20.98635,1,Żelazna,90,01-004,Wola,PL,Poland,,,,,,,,(22) 536 93 00,szital@szpitalzelazna.pl,,29/03/2020,16/04/2020,
00461/14/2019,"SZPITAL SPECJALISTYCZNY ""INFLANCKA"" IM. KRYSI NIŻYŃSKIEJ - ""ZAKURZONEJ"" W WARSZAWIE",,52.25465,20.99139,1,Inflancka,6,00-189,Śródmieście,PL,Poland,,,,,,,,"22 69 73 324, 22 69 73 301; 22 69 73 343",sekretariat@inflancka.pl,,29/03/2020,16/04/2020,
00466/14/2019,INSTYTUT PSYCHIATRII I NEUROLOGII,,52.17365,21.06297,1,Jana III Sobieskiego,9,02-957,Mokotów,PL,Poland,,,,,,,,"668 864 107, 45 82 867, 668 864 101, 668 864 144",sekretariatdn@ipin.edu.pl,,29/03/2020,16/04/2020,
00473/14/2019,"Uniwersyteckie Centrum Zdrowia Kobiety i Noworodka Warszawskiego Uniwersytetu Medycznego sp. z o.o. ",,52.2243,20.99525,1,Plac Sokratesa Starynkiewicza,1/3,02-015,Ochota,PL,Poland,,,,,,,,(22) 583 03 40; (22) 583 03 41,biuro@uczkin.pl,,29/03/2020,16/04/2020,
00475/14/2019,SZPITAL KLINICZNY IM. KS. ANNY MAZOWIECKIEJ,,52.24497,21.0217,1,Karowa,2,00-315,Śródmieście,PL,Poland,,,,,,,,"22 596 61 36, 22 596 64 31, 22 596 61 15",sekretariat@szpitalkarowa.pl,,29/03/2020,16/04/2020,
00479/14/2019,Wojewódzki Szpital Zakaźny w Warszawie,,52.23442,20.97187,1,Wolska,37,01-201,Wola,PL,Poland,,,,,,,,(22) 33 55 261; (22) 33 55 265,sekretariat@zakazny.pl,,29/03/2020,16/04/2020,
00482/14/2019,Mazowieckie Centrum Leczenia  Chorób Płuc i Gruźlicy,,52.10648,21.30382,1,Gabriela Narutowicza,80,05-400,Otwock,PL,Poland,,,,,,,,"(22) 34 46 250, (22) 34 46 251",ablachnio@nospamotwock-szpital.pl,,29/03/2020,16/04/2020,
00487/14/2019,INSTYTUT KARDIOLOGII IM. PRYMASA TYSIĄCLECIA STEFANA KARDYNAŁA WYSZYŃSKIEGO,,52.21804,21.17285,1,Alpejska,42,04-628,Wawer,PL,Poland,,,,,,,,"22 343 42 24, 343 41 98 , 22 343 42 02, 343 42 23",dyrektor@ikard.pl,,29/03/2020,16/04/2020,
00504/14/2019,UNIWERSYTECKIE CENTRUM KLINICZNE WARSZAWSKIEGO UNIWERSYTETU MEDYCZNEGO,,52.20975,20.98441,2,Stefana Banacha,1A,02-097,Ochota,PL,Poland,,,,,,,,"22 599 22 52; 599 22 53; 599 25 69,599 25 98",szpitalbanacha@spcsk.pll,,29/03/2020,16/04/2020,
00063/04/2019,SZPITAL LIPNO SPÓŁKA Z OGRANICZONĄ ODPOWIEDZIALNOŚCIĄ,,52.84207,19.15755,1,Nieszawska,6,87-600,Lipno,PL,Poland,,,,,,,,054 288 02 00; 054 288 03 10,izba.przyjec@szpitallipno.pl,,29/03/2020,16/04/2020,
