{"type":"FeatureCollection","features":[{"type":"Feature","properties":{"the_geom":{"type":"Point","coordinates":[16.2226,47.3315]},"country":"AT","city":"Bad Tatzmannsdorf","cap_beds":"169","postcode":"7431","house_number":"11","lon":"16.22262893566035","url":"http:\/\/www.ska-badtatzmannsdorf.at","pub_date":"2020_03_18","street":"Vogelsangweg","name":"Rehabilitationszentrum für Herz-Kreislauferkrankungen Bad Tatzmannsdorf","tel":"03353 6000 0","id":"K101","list_specs":"","lat":"47.331527108287254"},"id":"2283"},{"type":"Feature","properties":{"the_geom":{"type":"Point","coordinates":[16.5138,47.8473]},"country":"AT","city":"Eisenstadt","cap_beds":"420","postcode":"7000","house_number":"1","lon":"16.51378","url":"http:\/\/www.barmherzige-brueder.at","pub_date":"2020_03_18","street":"Johannes von Gott-Platz","name":"Krankenhaus der Barmherzigen Brüder Eisenstadt","tel":"02682 601 0","id":"K102","list_specs":"AN, IM, KIJU","lat":"47.84727"},"id":"2284"},{"type":"Feature","properties":{"the_geom":{"type":"Point","coordinates":[16.3213,47.0498]},"country":"AT","city":"Güssing","cap_beds":"118","postcode":"7540","house_number":"13","lon":"16.3212708","url":"http:\/\/www.krages.at","pub_date":"2020_03_18","street":"Grazer Straße","name":"Landeskrankenhaus Güssing","tel":"05 7979 31000","id":"K104","list_specs":"AN, IM","lat":"47.049762"},"id":"2285"},{"type":"Feature","properties":{"the_geom":{"type":"Point","coordinates":[17.0651,48.0929]},"country":"AT","city":"Kittsee","cap_beds":"111","postcode":"2421","house_number":"3","lon":"17.06505","url":"http:\/\/www.krages.at","pub_date":"2020_03_18","street":"Hauptplatz","name":"Ladislaus Batthyany-Strattmann Krankenhaus Kittsee","tel":"05 7979 35000","id":"K105","list_specs":"AN, IM","lat":"48.09289"},"id":"2286"},{"type":"Feature","properties":{"the_geom":{"type":"Point","coordinates":[16.5094,47.5073]},"country":"AT","city":"Oberpullendorf","cap_beds":"138","postcode":"7350","house_number":"32","lon":"16.50939","url":"http:\/\/www.krages.at","pub_date":"2020_03_18","street":"Spitalstraße","name":"Landeskrankenhaus Oberpullendorf","tel":"05 7979 34000","id":"K106","list_specs":"AN, IM","lat":"47.50727"},"id":"2287"},{"type":"Feature","properties":{"the_geom":{"type":"Point","coordinates":[16.2035,47.28]},"country":"AT","city":"Oberwart","cap_beds":"338","postcode":"7400","house_number":"80","lon":"16.20347","url":"http:\/\/www.krages.at","pub_date":"2020_03_18","street":"Dornburggasse","name":"Landeskrankenhaus Oberwart","tel":"05 7979 32000","id":"K107","list_specs":"AN, IM, KIJU","lat":"47.27995"},"id":"2288"},{"type":"Feature","properties":{"the_geom":{"type":"Point","coordinates":[16.9144,47.7915]},"country":"AT","city":"St. Andrä am Zicksee","cap_beds":"140","postcode":"7161","house_number":"","lon":"16.9144","url":"http:\/\/www.kobvskazicksee.at","pub_date":"2020_03_18","street":"Otto-Pohanka-Platz","name":"Orthopädisches Klinikum SKA Zicksee","tel":"02176 2325","id":"K109","list_specs":"","lat":"47.79147"},"id":"2289"},{"type":"Feature","properties":{"the_geom":{"type":"Point","coordinates":[16.666,47.8016]},"country":"AT","city":"Rust","cap_beds":"12","postcode":"7071","house_number":"15a","lon":"16.66597","url":"http:\/\/www.psd-bgld.at","pub_date":"2020_03_18","street":"Baumgartenstraße","name":"Heilpädagogisches Zentrum Rust","tel":"05 7979 21000","id":"K111","list_specs":"","lat":"47.8016"},"id":"2290"},{"type":"Feature","properties":{"the_geom":{"type":"Point","coordinates":[16.2279,47.337]},"country":"AT","city":"Bad Tatzmannsdorf","cap_beds":"105","postcode":"7431","house_number":"1","lon":"16.22791","url":"http:\/\/www.bva.at","pub_date":"2020_03_18","street":"Am Kurpark","name":"Therapiezentrum Rosalienhof -  Bad Tatzmannsdorf","tel":"03353 8387 0","id":"K112","list_specs":"","lat":"47.33702"},"id":"2291"},{"type":"Feature","properties":{"the_geom":{"type":"Point","coordinates":[16.3239,47.7723]},"country":"AT","city":"Bad Sauerbrunn","cap_beds":"121","postcode":"7202","house_number":"4","lon":"16.32394","url":"http:\/\/www.dersonnberghof.at","pub_date":"2020_03_18","street":"Hartiggasse","name":"Sonderkrankenanstalt  Onkologische Rehabilitation - Der Sonnberghof","tel":"02625 300","id":"K113","list_specs":"","lat":"47.77233"},"id":"2292"},{"type":"Feature","properties":{"the_geom":{"type":"Point","coordinates":[17.0669,48.0922]},"country":"AT","city":"Kittsee","cap_beds":"100","postcode":"2421","house_number":"1","lon":"17.06688","url":"http:\/\/neuroreha-kittsee.at","pub_date":"2020_03_18","street":"Spitalgasse","name":"Sonderkrankenanstalt für neurologische Rehabilitation Kittsee","tel":"02143 30100 0","id":"K114","list_specs":"","lat":"48.09219"},"id":"2293"},{"type":"Feature","properties":{"the_geom":{"type":"Point","coordinates":[14.4105,46.9478]},"country":"AT","city":"Friesach","cap_beds":"167","postcode":"9360","house_number":"12","lon":"14.41049","url":"http:\/\/www.dokh.at","pub_date":"2020_03_18","street":"St. Veiter Straße","name":"Krankenhaus des Deutschen Ordens Friesach GmbH","tel":"04268 2691 0","id":"K201","list_specs":"AN","lat":"46.94779"},"id":"2294"},{"type":"Feature","properties":{"the_geom":{"type":"Point","coordinates":[13.3708,46.6292]},"country":"AT","city":"Hermagor","cap_beds":"42","postcode":"9620","house_number":"12","lon":"13.3708","url":"http:\/\/www.gailtal-klinik.at","pub_date":"2020_03_18","street":"Radnigerstraße","name":"Gailtal-Klinik Hermagor","tel":"04282 2220 0","id":"K204","list_specs":"","lat":"46.62923"},"id":"2295"},{"type":"Feature","properties":{"the_geom":{"type":"Point","coordinates":[14.3084,46.6368]},"country":"AT","city":"Klagenfurt am Wörthersee","cap_beds":"1165","postcode":"9020","house_number":"11","lon":"14.308367964213128","url":"http:\/\/www.lkh-klu.at","pub_date":"2020_03_18","street":"Feschnigstraße","name":"Klinikum - Klagenfurt am Wörthersee (LKH Klagenfurt)","tel":"0463 538 0","id":"K205","list_specs":"AN, IM, KIJU, NCH, NEU","lat":"46.63675607026466"},"id":"2296"},{"type":"Feature","properties":{"the_geom":{"type":"Point","coordinates":[14.3162,46.6259]},"country":"AT","city":"Klagenfurt am Wörthersee","cap_beds":"155","postcode":"9020","house_number":"15-19","lon":"14.31615","url":"http:\/\/www.ekh.at","pub_date":"2020_03_18","street":"Völkermarkter Straße","name":"Krankenhaus der Elisabethinen Klagenfurt GmbH","tel":"0463 5830","id":"K206","list_specs":"GEM","lat":"46.62588"},"id":"2297"},{"type":"Feature","properties":{"the_geom":{"type":"Point","coordinates":[14.2954,46.6181]},"country":"AT","city":"Klagenfurt am Wörthersee","cap_beds":"100","postcode":"9020","house_number":"35","lon":"14.295424915126423","url":"http:\/\/www.auva.at\/ukhklagenfurt","pub_date":"2020_03_18","street":"Waidmannsdorfer Straße","name":"Unfallkrankenhaus Klagenfurt","tel":"05 9393 4600","id":"K207","list_specs":"","lat":"46.61814560296913"},"id":"2298"},{"type":"Feature","properties":{"the_geom":{"type":"Point","coordinates":[14.3084,46.6368]},"country":"AT","city":"Klagenfurt am Wörthersee","cap_beds":"83","postcode":"9020","house_number":"11","lon":"14.308367964213128","url":"http:\/\/www.lkh-klu.at","pub_date":"2020_03_18","street":"Feschnigstraße","name":"Abteilung für chronische Kranke im Klinikum Klagenfurt am Wörthersee","tel":"0463 538","id":"K211","list_specs":"","lat":"46.63675607026466"},"id":"2299"},{"type":"Feature","properties":{"the_geom":{"type":"Point","coordinates":[14.2965,46.6277]},"country":"AT","city":"Klagenfurt am Wörthersee","cap_beds":"160","postcode":"9020","house_number":"35","lon":"14.29645","url":"http:\/\/www.humanomed.at","pub_date":"2020_03_18","street":"Radetzkystraße","name":"Privatklinik Maria Hilf Klagenfurt","tel":"0463 5885 0","id":"K212","list_specs":"","lat":"46.62772"},"id":"2300"},{"type":"Feature","properties":{"the_geom":{"type":"Point","coordinates":[12.9891,46.6995]},"country":"AT","city":"Kötschach-Mauthen","cap_beds":"66","postcode":"9640","house_number":"39","lon":"12.98908","url":"http:\/\/www.lkh-laas.at","pub_date":"2020_03_18","street":"Laas","name":"Landeskrankenhaus Laas","tel":"04715 7701 0","id":"K213","list_specs":"IM","lat":"46.69954"},"id":"2301"},{"type":"Feature","properties":{"the_geom":{"type":"Point","coordinates":[14.3534,46.7691]},"country":"AT","city":"St. Veit an der Glan","cap_beds":"166","postcode":"9300","house_number":"26","lon":"14.35341","url":"http:\/\/www.bbstveit.at","pub_date":"2020_03_18","street":"Spitalgasse","name":"Krankenhaus der Barmherzigen Brüder St. Veit\/Glan","tel":"04212 499 0","id":"K214","list_specs":"AN","lat":"46.76909"},"id":"2302"},{"type":"Feature","properties":{"the_geom":{"type":"Point","coordinates":[13.4907,46.8018]},"country":"AT","city":"Spittal an der Drau","cap_beds":"231","postcode":"9800","house_number":"1","lon":"13.49071","url":"http:\/\/www.khspittal.com","pub_date":"2020_03_18","street":"Billrothstraße","name":"Krankenhaus Spittal\/Drau","tel":"04762 622 0","id":"K215","list_specs":"AN","lat":"46.80183"},"id":"2303"},{"type":"Feature","properties":{"the_geom":{"type":"Point","coordinates":[13.8585,46.6154]},"country":"AT","city":"Villach","cap_beds":"625","postcode":"9500","house_number":"43","lon":"13.85849","url":"http:\/\/www.lkh-vil.or.at","pub_date":"2020_03_18","street":"Nikolaigasse","name":"Landeskrankenhaus Villach","tel":"04242 208 0","id":"K216","list_specs":"AN, IM, KIJU","lat":"46.61541"},"id":"2304"},{"type":"Feature","properties":{"the_geom":{"type":"Point","coordinates":[13.8585,46.6154]},"country":"AT","city":"Villach","cap_beds":"26","postcode":"9500","house_number":"43","lon":"13.85849","url":"http:\/\/www.lkh-vil.or.at","pub_date":"2020_03_18","street":"Nikolaigasse","name":"Abteilung für chronisch Kranke im Landeskrankenhaus Villach","tel":"04242 208 62290","id":"K217","list_specs":"","lat":"46.61541"},"id":"2305"},{"type":"Feature","properties":{"the_geom":{"type":"Point","coordinates":[14.0868,46.7334]},"country":"AT","city":"Feldkirchen in Kärnten","cap_beds":"56","postcode":"9560","house_number":"14","lon":"14.08682","url":"http:\/\/www.diakonie-kaernten.at\/de-84.cms","pub_date":"2020_03_18","street":"Martin-Luther-Straße","name":"Krankenhaus Waiern","tel":"04276 2201","id":"K218","list_specs":"","lat":"46.73342"},"id":"2306"},{"type":"Feature","properties":{"the_geom":{"type":"Point","coordinates":[14.8486,46.8324]},"country":"AT","city":"Wolfsberg","cap_beds":"229","postcode":"9400","house_number":"9","lon":"14.84858","url":"http:\/\/www.lkh-wo.at","pub_date":"2020_03_18","street":"Paul Hackhoferstraße","name":"Landeskrankenhaus Wolfsberg","tel":"04352 533 0","id":"K219","list_specs":"AN","lat":"46.83239"},"id":"2307"},{"type":"Feature","properties":{"the_geom":{"type":"Point","coordinates":[14.8486,46.8324]},"country":"AT","city":"Wolfsberg","cap_beds":"90","postcode":"9400","house_number":"9","lon":"14.84858","url":"http:\/\/www.lkh-wo.at","pub_date":"2020_03_18","street":"Paul Hackhoferstraße","name":"Abteilung für chronische Kranke und Zentrum für Lymphologie im Landeskrankenhaus Wolfsberg","tel":"04352 533 0","id":"K220","list_specs":"","lat":"46.83239"},"id":"2308"},{"type":"Feature","properties":{"the_geom":{"type":"Point","coordinates":[13.8446,46.6795]},"country":"AT","city":"Treffen","cap_beds":"56","postcode":"9521","house_number":"28","lon":"13.84463","url":"http:\/\/www.diakonie-kaernten.at\/de-86.cms","pub_date":"2020_03_18","street":"De la Tour Straße","name":"Sonderkrankenanstalt de La Tour","tel":"04248 2557 0","id":"K222","list_specs":"","lat":"46.67953"},"id":"2309"},{"type":"Feature","properties":{"the_geom":{"type":"Point","coordinates":[13.8265,46.5943]},"country":"AT","city":"Villach-Warmbad Villach","cap_beds":"152","postcode":"9504","house_number":"4","lon":"13.82646","url":"http:\/\/www.privatklinik-villach.at","pub_date":"2020_03_18","street":"Dr. Walter Hochsteiner-Straße","name":"Privatklinik Villach","tel":"04242 3044 0","id":"K223","list_specs":"","lat":"46.59427"},"id":"2310"},{"type":"Feature","properties":{"the_geom":{"type":"Point","coordinates":[14.4923,46.8747]},"country":"AT","city":"Treibach-Althofen","cap_beds":"435","postcode":"9330","house_number":"30","lon":"14.4923","url":"http:\/\/www.humanomed.at\/privatklinik-althofen\/","pub_date":"2020_03_18","street":"Moorweg","name":"Interdisziplinäre Sonderkrankenanstalt für Rehabilitation","tel":"04262 2071 0","id":"K224","list_specs":"","lat":"46.87469"},"id":"2311"},{"type":"Feature","properties":{"the_geom":{"type":"Point","coordinates":[13.2354,46.9278]},"country":"AT","city":"Obervellach","cap_beds":"30","postcode":"9821","house_number":"137","lon":"13.235426902770996","url":"http:\/\/www.schrothkur.at","pub_date":"2020_03_18","street":"Johann-Schroth-Weg","name":"Sonderkrankenanstalt  Die Schrothkur Obervellach","tel":"04782 2043","id":"K225","list_specs":"","lat":"46.92781066894531"},"id":"2312"},{"type":"Feature","properties":{"the_geom":{"type":"Point","coordinates":[12.9891,46.6995]},"country":"AT","city":"Kötschach-Mauthen","cap_beds":"50","postcode":"9640","house_number":"39","lon":"12.98908","url":"http:\/\/www.lkh-laas.at","pub_date":"2020_03_18","street":"Laas","name":"Abteilung für chronisch Kranke im Landeskrankenhaus Laas","tel":"04715 7701 704","id":"K226","list_specs":"","lat":"46.69954"},"id":"2313"},{"type":"Feature","properties":{"the_geom":{"type":"Point","coordinates":[13.8308,46.5885]},"country":"AT","city":"Villach-Warmbad Villach","cap_beds":"0","postcode":"9504","house_number":"91","lon":"13.83077","url":"http:\/\/www.med-warmbad.at\/orthopaedie","pub_date":"2020_03_18","street":"Kumpfallee","name":"Sonderkrankenanstalt für Orthopädie und orthopädische Chirurgie Warmbad-Villach","tel":"04242 300 6 00","id":"K228","list_specs":"","lat":"46.5885"},"id":"2314"},{"type":"Feature","properties":{"the_geom":{"type":"Point","coordinates":[14.2965,46.6359]},"country":"AT","city":"Klagenfurt am Wörthersee","cap_beds":"95","postcode":"9020","house_number":"40","lon":"14.29653","url":"http:\/\/www.seelischereha.com","pub_date":"2020_03_18","street":"Grete-Bittner-Straße","name":"Rehabilitationsklinik für seelische Gesundheit und Prävention","tel":"0463 43 00 07","id":"K229","list_specs":"","lat":"46.63594"},"id":"2315"},{"type":"Feature","properties":{"the_geom":{"type":"Point","coordinates":[13.8304,46.5879]},"country":"AT","city":"Villach-Warmbad Villach","cap_beds":"238","postcode":"9504","house_number":"93","lon":"13.83044","url":"http:\/\/www.med-warmbad.at","pub_date":"2020_03_18","street":"Kumpfallee","name":"Sonderkrankenanstalt für medizinische Rehabilitation Thermenhof","tel":"04242 3001 4099","id":"K230","list_specs":"","lat":"46.58791"},"id":"2316"},{"type":"Feature","properties":{"the_geom":{"type":"Point","coordinates":[13.3708,46.6292]},"country":"AT","city":"Hermagor","cap_beds":"110","postcode":"9620","house_number":"12","lon":"13.3708","url":"http:\/\/www.gailtal-klinik.at","pub_date":"2020_03_18","street":"Radingerstraße","name":"KABEG Gailtalklinik","tel":"04282 2220 0","id":"K232","list_specs":"","lat":"46.62923"},"id":"2317"},{"type":"Feature","properties":{"the_geom":{"type":"Point","coordinates":[14.4196,46.9171]},"country":"AT","city":"Micheldorf","cap_beds":"54","postcode":"9322","house_number":"24","lon":"14.41964","url":"http\/\/:www.agathenhof.at","pub_date":"2020_03_18","street":"Agathenhofstraße","name":"Sonderkrankenanstalt und Gesundheitsresort Agathenhof","tel":"05 02 88 29","id":"K233","list_specs":"","lat":"46.91708"},"id":"2318"},{"type":"Feature","properties":{"the_geom":{"type":"Point","coordinates":[14.0868,46.7334]},"country":"AT","city":"Feldkirchen in Kärnten","cap_beds":"12","postcode":"9560","house_number":"14","lon":"14.08682","url":"http:\/\/www.diakonie-delatour.at\/sarepta-spezialklinik-fuer-essstoerungen","pub_date":"2020_03_18","street":"Martin-Luther Straße","name":"Sonderkrankenhaus Sarepta-Spezialkliinik für Essstörungen","tel":"04276 2201 300","id":"K238","list_specs":"","lat":"46.73342"},"id":"2319"},{"type":"Feature","properties":{"the_geom":{"type":"Point","coordinates":[14.8812,48.1282]},"country":"AT","city":"Amstetten","cap_beds":"355","postcode":"3300","house_number":"21","lon":"14.88117","url":"http:\/\/www.amstetten.lknoe.at","pub_date":"2020_03_18","street":"Krankenhausstraße","name":"Landesklinikum Amstetten","tel":"07472 604 00","id":"K303","list_specs":"AN, GEM, IM, KIJU","lat":"48.12824"},"id":"2320"},{"type":"Feature","properties":{"the_geom":{"type":"Point","coordinates":[16.2336,48.0092]},"country":"AT","city":"Baden","cap_beds":"124","postcode":"2500","house_number":"2","lon":"16.2336123","url":"","pub_date":"2020_03_18","street":"Renngasse","name":"Klinikum am Kurpark Baden für Orthopädie und Rheumatologie","tel":"02252 432 85 0","id":"K305","list_specs":"","lat":"48.0091549"},"id":"2321"},{"type":"Feature","properties":{"the_geom":{"type":"Point","coordinates":[16.232,47.4927]},"country":"AT","city":"Bad Schönau","cap_beds":"94","postcode":"2853","house_number":"1","lon":"16.23198","url":"http:\/\/www.koenigsberg-bad-schoenau.at","pub_date":"2020_03_18","street":"Am Kurpark","name":"Sonderkrankenanstalt Bad Schönau","tel":"02646 8251 0","id":"K307","list_specs":"","lat":"47.49273"},"id":"2322"},{"type":"Feature","properties":{"the_geom":{"type":"Point","coordinates":[16.0877,47.8413]},"country":"AT","city":"Muthmannsdorf","cap_beds":"119","postcode":"2723","house_number":"71","lon":"16.08766","url":"http:\/\/www.ska-felbring.at","pub_date":"2020_03_18","street":"Felbring","name":"SKA-RZ-Pensionsversicherungsanstalt Felbring im Schneebergland","tel":"02638 882 81 0","id":"K313","list_specs":"","lat":"47.84132"},"id":"2323"},{"type":"Feature","properties":{"the_geom":{"type":"Point","coordinates":[16.0873,47.6162]},"country":"AT","city":"Grimmenstein","cap_beds":"181","postcode":"2840","house_number":"88","lon":"16.08731","url":"http:\/\/www.hochegg.lknoe.at","pub_date":"2020_03_18","street":"Hocheggerstraße","name":"Landesklinikum Hochegg","tel":"02644 6300 0","id":"K315","list_specs":"PUL","lat":"47.61621"},"id":"2324"},{"type":"Feature","properties":{"the_geom":{"type":"Point","coordinates":[16.9558,48.1444]},"country":"AT","city":"Hainburg an der Donau","cap_beds":"142","postcode":"2410","house_number":"70","lon":"16.9558","url":"http:\/\/www.hainburg.lknoe.at","pub_date":"2020_03_18","street":"Hofmeisterstraße","name":"Landesklinikum Hainburg","tel":"02165 90501 203","id":"K316","list_specs":"GEM","lat":"48.14443"},"id":"2325"},{"type":"Feature","properties":{"the_geom":{"type":"Point","coordinates":[16.0986,47.6154]},"country":"AT","city":"Grimmenstein","cap_beds":"240","postcode":"2840","house_number":"2","lon":"16.09856","url":"http:\/\/www.ska-hochegg.at","pub_date":"2020_03_18","street":"Friedrich-Hillegeist-Straße","name":"Rehabilitationszentrum Hochegg","tel":"02644 6010","id":"K318","list_specs":"","lat":"47.61537"},"id":"2326"},{"type":"Feature","properties":{"the_geom":{"type":"Point","coordinates":[16.0907,48.5628]},"country":"AT","city":"Hollabrunn","cap_beds":"222","postcode":"2020","house_number":"20","lon":"16.09074","url":"http:\/\/www.hollabrunn.lknoe.at","pub_date":"2020_03_18","street":"Robert Löffler-Straße","name":"Landesklinikum Hollabrunn","tel":"02952 2275 0","id":"K319","list_specs":"AN, GEM, IM","lat":"48.56284"},"id":"2327"},{"type":"Feature","properties":{"the_geom":{"type":"Point","coordinates":[16.3242,48.3083]},"country":"AT","city":"Klosterneuburg","cap_beds":"127","postcode":"3400","house_number":"12-14","lon":"16.32423","url":"http:\/\/www.kh-klosterneuburg.at","pub_date":"2020_03_18","street":"Kreutzergasse","name":"Landesklinikum Klosterneuburg","tel":"02243 9004 0","id":"K321","list_specs":"GEM","lat":"48.30832"},"id":"2328"},{"type":"Feature","properties":{"the_geom":{"type":"Point","coordinates":[15.615,48.412]},"country":"AT","city":"Krems an der Donau","cap_beds":"461","postcode":"3500","house_number":"10","lon":"15.61502","url":"http:\/\/www.krems.lknoe.at","pub_date":"2020_03_18","street":"Mitterweg","name":"Universitätsklinikum Krems","tel":"02732 804 0","id":"K326","list_specs":"AN, GEM, IM","lat":"48.41202"},"id":"2329"},{"type":"Feature","properties":{"the_geom":{"type":"Point","coordinates":[16.1803,48.1562]},"country":"AT","city":"Laab im Walde","cap_beds":"141","postcode":"2381","house_number":"3c","lon":"16.18029","url":"http:\/\/www.ska-laabimwalde.at","pub_date":"2020_03_18","street":"Tiergartenstraße","name":"Rehabilitationszentrum für Bewegungsstörungen und rheumatische Erkrankungen","tel":"02239 3536","id":"K328","list_specs":"","lat":"48.15622"},"id":"2330"},{"type":"Feature","properties":{"the_geom":{"type":"Point","coordinates":[14.8009,48.092]},"country":"AT","city":"Mauer-Öhling","cap_beds":"440","postcode":"3362","house_number":"221","lon":"14.8009421","url":"http:\/\/www.mauer.lknoe.at","pub_date":"2020_03_18","street":"Hausmeninger Straße","name":"Landesklinikum Mauer","tel":"07475 9004","id":"K333","list_specs":"","lat":"48.0919979"},"id":"2331"},{"type":"Feature","properties":{"the_geom":{"type":"Point","coordinates":[15.3384,48.2267]},"country":"AT","city":"Melk","cap_beds":"143","postcode":"3390","house_number":"11","lon":"15.33837","url":"http:\/\/www.melk.lknoe.at","pub_date":"2020_03_18","street":"Krankenhausstraße","name":"Landesklinikum Melk","tel":"02752 9004","id":"K334","list_specs":"AN, GEM","lat":"48.2267"},"id":"2332"},{"type":"Feature","properties":{"the_geom":{"type":"Point","coordinates":[16.5805,48.5682]},"country":"AT","city":"Mistelbach","cap_beds":"524","postcode":"2130","house_number":"67","lon":"16.58053","url":"http:\/\/www.mistelbach.lknoe.at","pub_date":"2020_03_18","street":"Liechtensteinstraße","name":"Landesklinikum Mistelbach-Gänserndorf","tel":"02572 3341","id":"K335","list_specs":"AN, GEM, IM, KIJU","lat":"48.56818"},"id":"2333"},{"type":"Feature","properties":{"the_geom":{"type":"Point","coordinates":[16.0853,47.7264]},"country":"AT","city":"Neunkirchen","cap_beds":"384","postcode":"2620","house_number":"19","lon":"16.08535","url":"","pub_date":"2020_03_18","street":"Peischinger Straße","name":"Landesklinikum Neunkirchen","tel":"02635 602","id":"K338","list_specs":"AN, GEM","lat":"47.72636"},"id":"2334"},{"type":"Feature","properties":{"the_geom":{"type":"Point","coordinates":[15.7551,47.676]},"country":"AT","city":"Prein an der Rax","cap_beds":"152","postcode":"2654","house_number":"2-4","lon":"15.755098342895508","url":"http:\/\/www.raxblick.at","pub_date":"2020_03_18","street":"Prein\/Rax Oberland","name":"Sonderkrankenanstalt Gesundheitsresort Raxblick","tel":"02665 241 0","id":"K339","list_specs":"","lat":"47.675960540771484"},"id":"2335"},{"type":"Feature","properties":{"the_geom":{"type":"Point","coordinates":[15.1632,48.0116]},"country":"AT","city":"Scheibbs","cap_beds":"183","postcode":"3270","house_number":"26","lon":"15.16323","url":"http:\/\/www.scheibbs.lknoe.at","pub_date":"2020_03_18","street":"Eisenwurzenstraße","name":"Landesklinikum Scheibbs","tel":"07482 404 0","id":"K347","list_specs":"GEM","lat":"48.01163"},"id":"2336"},{"type":"Feature","properties":{"the_geom":{"type":"Point","coordinates":[16.0899,48.1851]},"country":"AT","city":"Pressbaum","cap_beds":"48","postcode":"3021","house_number":"14","lon":"16.08991","url":"http:\/\/www.bmj.gv.at","pub_date":"2020_03_18","street":"Weidlingbachstraße","name":"Sonderkrankenanstalt der Justizanstalt Wien-Josefstadt (Außenstelle Wilhelmshöhe)","tel":"02233 524 64 3589","id":"K352","list_specs":"","lat":"48.18514"},"id":"2337"},{"type":"Feature","properties":{"the_geom":{"type":"Point","coordinates":[14.7881,47.953]},"country":"AT","city":"Waidhofen an der Ybbs","cap_beds":"163","postcode":"3340","house_number":"112","lon":"14.78813","url":"http:\/\/www.waidhofen-ybbs.lknoe.at","pub_date":"2020_03_18","street":"Ybbsitzer Straße","name":"Landesklinikum Waidhofen\/Ybbs","tel":"07442 9004 0","id":"K354","list_specs":"AN, GEM","lat":"47.95301"},"id":"2338"},{"type":"Feature","properties":{"the_geom":{"type":"Point","coordinates":[16.2483,47.8162]},"country":"AT","city":"Wiener Neustadt","cap_beds":"766","postcode":"2700","house_number":"3-5","lon":"16.24834","url":"http:\/\/wienerneustadt.lknoe.at","pub_date":"2020_03_18","street":"Matthias Corviniusring","name":"Landesklinikum Wiener Neustadt","tel":"02622 321 0","id":"K356","list_specs":"AN, GEM, IM, KIJU","lat":"47.81615"},"id":"2339"},{"type":"Feature","properties":{"the_geom":{"type":"Point","coordinates":[15.0793,48.1818]},"country":"AT","city":"Ybbs an der Donau","cap_beds":"145","postcode":"3370","house_number":"1-3","lon":"15.07925","url":"http:\/\/www.wienkav.at\/kav\/pky\/","pub_date":"2020_03_18","street":"Persenbeuger Straße","name":"Therapiezentrum Ybbs","tel":"07412 551 00","id":"K357","list_specs":"","lat":"48.18176"},"id":"2340"},{"type":"Feature","properties":{"the_geom":{"type":"Point","coordinates":[16.2289,48.0042]},"country":"AT","city":"Baden","cap_beds":"160","postcode":"2500","house_number":"9-15","lon":"16.22886","url":"","pub_date":"2020_03_18","street":"Sauerhofstraße","name":"Klinikum Peterhof Baden","tel":"02252 481 77","id":"K359","list_specs":"","lat":"48.00417"},"id":"2341"},{"type":"Feature","properties":{"the_geom":{"type":"Point","coordinates":[16.2401,48.0113]},"country":"AT","city":"Baden","cap_beds":"173","postcode":"2500","house_number":"1","lon":"16.24011","url":"http:\/\/www.klinikum-malcherhof.at","pub_date":"2020_03_18","street":"Adolfine-Malcher-Gasse","name":"Klinikum Malcherhof Baden","tel":"02252 895 11 0","id":"K363","list_specs":"","lat":"48.01132"},"id":"2342"},{"type":"Feature","properties":{"the_geom":{"type":"Point","coordinates":[15.824,47.6633]},"country":"AT","city":"Breitenstein","cap_beds":"106","postcode":"2673","house_number":"69","lon":"15.82404","url":"","pub_date":"2020_03_18","street":"Hauptstraße","name":"Diätgenesungsheim Karl Hiesmayr, Breitenstein","tel":"02664 2273","id":"K364","list_specs":"","lat":"47.66333"},"id":"2343"},{"type":"Feature","properties":{"the_geom":{"type":"Point","coordinates":[14.9584,48.5652]},"country":"AT","city":"Groß Gerungs","cap_beds":"223","postcode":"3920","house_number":"310","lon":"14.95841","url":"http:\/\/www.herz-kreislauf.at","pub_date":"2020_03_18","street":"Kreuzberg","name":"Sonderkrankenanstalt für Herz- und Kreislauferkrankungen Groß Gerungs","tel":"02812 8681 0","id":"K365","list_specs":"","lat":"48.56515"},"id":"2344"},{"type":"Feature","properties":{"the_geom":{"type":"Point","coordinates":[16.276,48.3259]},"country":"AT","city":"Klosterneuburg","cap_beds":"200","postcode":"3400","house_number":"350","lon":"16.27595","url":"http:\/\/www.auva.at\/rzweisserhof","pub_date":"2020_03_18","street":"Holzgasse","name":"Rehabilitationszentrum 'Weißer Hof' Klosterneuburg","tel":"05 9393 51000","id":"K369","list_specs":"","lat":"48.32594"},"id":"2345"},{"type":"Feature","properties":{"the_geom":{"type":"Point","coordinates":[14.8619,48.6884]},"country":"AT","city":"Weitra","cap_beds":"268","postcode":"3970","house_number":"","lon":"14.861903190612793","url":"http:\/\/www.moorheilbad-harbach.at","pub_date":"2020_03_18","street":"","name":"Sonderkrankenanstalt Moorheilbad Harbach","tel":"02858 5255 0","id":"K370","list_specs":"","lat":"48.688377380371094"},"id":"2346"},{"type":"Feature","properties":{"the_geom":{"type":"Point","coordinates":[16.0624,48.0496]},"country":"AT","city":"Alland","cap_beds":"144","postcode":"2534","house_number":"","lon":"16.062395095825195","url":"http:\/\/www.ska-alland.at","pub_date":"2020_03_18","street":"","name":"Rehabilitationszentrum Alland","tel":"02258 2630 0","id":"K371","list_specs":"","lat":"48.04957962036133"},"id":"2347"},{"type":"Feature","properties":{"the_geom":{"type":"Point","coordinates":[16.6099,48.4491]},"country":"AT","city":"Bad Pirawarth","cap_beds":"321","postcode":"2222","house_number":"100","lon":"16.60992","url":"http:\/\/www.klinik-pirawarth.at","pub_date":"2020_03_18","street":"Kurhausstraße","name":"Klinik Pirawarth, Kur- und Rehabilitationszentrum","tel":"02574 291 60","id":"K375","list_specs":"","lat":"48.44914"},"id":"2348"},{"type":"Feature","properties":{"the_geom":{"type":"Point","coordinates":[14.7874,47.9537]},"country":"AT","city":"Waidhofen an der Ybbs","cap_beds":"156","postcode":"3340","house_number":"1","lon":"14.78741","url":"","pub_date":"2020_03_18","street":"Hötzendorfstraße","name":"Therapiezentrum Buchenberg","tel":"07442 522 85 2066","id":"K376","list_specs":"","lat":"47.9537"},"id":"2349"},{"type":"Feature","properties":{"the_geom":{"type":"Point","coordinates":[15.6612,48.6689]},"country":"AT","city":"Horn","cap_beds":"369","postcode":"3580","house_number":"10","lon":"15.66116","url":"http:\/\/www.horn.lknoe.at","pub_date":"2020_03_18","street":"Spitalgasse","name":"Landesklinikum Horn-Allentsteig","tel":"02982 2661 0","id":"K377","list_specs":"AN, IM","lat":"48.66894"},"id":"2350"},{"type":"Feature","properties":{"the_geom":{"type":"Point","coordinates":[16.2044,48.3869]},"country":"AT","city":"Stockerau","cap_beds":"298","postcode":"2000","house_number":"1","lon":"16.20444","url":"","pub_date":"2020_03_18","street":"Lenaustraße","name":"Landesklinikum Korneuburg-Stockerau","tel":"02262 780 0","id":"K378","list_specs":"AN, GEM","lat":"48.38686"},"id":"2351"},{"type":"Feature","properties":{"the_geom":{"type":"Point","coordinates":[16.0649,48.322]},"country":"AT","city":"Tulln an der Donau","cap_beds":"440","postcode":"3430","house_number":"10","lon":"16.06494","url":"http:\/\/www.tulln.lknoe.at\/","pub_date":"2020_03_18","street":"Alter Ziegelweg","name":"Universitätsklinikum Tulln","tel":"02272 601","id":"K379","list_specs":"GEM, KIJU","lat":"48.32198"},"id":"2352"},{"type":"Feature","properties":{"the_geom":{"type":"Point","coordinates":[16.2543,47.9995]},"country":"AT","city":"Baden","cap_beds":"737","postcode":"2500","house_number":"75","lon":"16.25425","url":"http:\/\/www.baden.lknoe.at\/","pub_date":"2020_03_18","street":"Waltersdorfer Straße","name":"Landesklinikum Baden-Mödling-Hinterbrühl","tel":"02252 9004","id":"K380","list_specs":"AN, GEM, IM, KIJU","lat":"47.99945"},"id":"2353"},{"type":"Feature","properties":{"the_geom":{"type":"Point","coordinates":[16.0825,47.5331]},"country":"AT","city":"Aspang","cap_beds":"80","postcode":"2870","house_number":"3-5","lon":"16.08253","url":"https:\/\/www.gruenerkreis.at\/sonderkrankenhaus-marienhof","pub_date":"2020_03_18","street":"Ausschlag-Zöbern","name":"Sonderkrankenanstalt Marienhof","tel":"02642 52430","id":"K381","list_specs":"","lat":"47.53308"},"id":"2354"},{"type":"Feature","properties":{"the_geom":{"type":"Point","coordinates":[15.6254,48.2144]},"country":"AT","city":"St. Pölten","cap_beds":"1114","postcode":"3100","house_number":"1","lon":"15.62538","url":"http:\/\/www.stpoelten.lknoe.at\/","pub_date":"2020_03_18","street":"Dunant-Platz","name":"Universitätsklinikum St. Pölten-Lilienfeld","tel":"02742 9004 0","id":"K382","list_specs":"AN, GEM, IM, KIJU","lat":"48.21438"},"id":"2355"},{"type":"Feature","properties":{"the_geom":{"type":"Point","coordinates":[15.1656,48.6027]},"country":"AT","city":"Zwettl","cap_beds":"629","postcode":"3910","house_number":"5","lon":"15.165592","url":"http:\/\/www.zwettl.lknoe.at","pub_date":"2020_03_18","street":"Propstei","name":"Landesklinikum Zwettl-Gmünd-Waidhofen\/Thaya","tel":"02822 504 0","id":"K383","list_specs":"AN, GEM, IM, KIJU","lat":"48.6026518"},"id":"2356"},{"type":"Feature","properties":{"the_geom":{"type":"Point","coordinates":[15.8216,48.6431]},"country":"AT","city":"Eggenburg","cap_beds":"100","postcode":"3730","house_number":"2","lon":"15.82163","url":"http:\/\/www.pszw.at","pub_date":"2020_03_18","street":"Grafenbergerstraße","name":"Psychosomatisches Zentrum Waldviertel Eggenburg","tel":"02984 20228 0","id":"K384","list_specs":"","lat":"48.64306"},"id":"2357"},{"type":"Feature","properties":{"the_geom":{"type":"Point","coordinates":[15.225,48.4273]},"country":"AT","city":"Ottenschlag","cap_beds":"111","postcode":"3631","house_number":"1","lon":"15.22495","url":"http:\/\/www.xundheitswelt.at","pub_date":"2020_03_18","street":"Xundheitsstraße","name":"Sonderkrankenanstalt Ottenschlag","tel":"02858 5255 1650","id":"K385","list_specs":"","lat":"48.42731"},"id":"2358"},{"type":"Feature","properties":{"the_geom":{"type":"Point","coordinates":[16.2302,48.0054]},"country":"AT","city":"Baden","cap_beds":"124","postcode":"2500","house_number":"7-9","lon":"16.23021","url":"http:\/\/www.bva.at","pub_date":"2020_03_18","street":"Weilburgstraße","name":"Rehabilitationszentrum Engelsbad","tel":"02252 845 71 0","id":"K386","list_specs":"","lat":"48.00542"},"id":"2359"},{"type":"Feature","properties":{"the_geom":{"type":"Point","coordinates":[16.2563,48.1287]},"country":"AT","city":"Perchtoldsdorf","cap_beds":"170","postcode":"2380","house_number":"93","lon":"16.25631","url":"http:\/\/www. waldsanatorium.at","pub_date":"2020_03_18","street":"Sonnberggasse","name":"Waldsanatorium Perchtoldsdorf","tel":"01 865 01 00 0","id":"K387","list_specs":"","lat":"48.12869"},"id":"2360"},{"type":"Feature","properties":{"the_geom":{"type":"Point","coordinates":[15.6792,48.3777]},"country":"AT","city":"Krems-Hollenburg","cap_beds":"150","postcode":"3506","house_number":"25","lon":"15.67918","url":"http:\/\/www.sanlas.at","pub_date":"2020_03_18","street":"Krustettenerstraße","name":"Sonderkrankenanstalt für Psychiatrie Krems-Hollenburg","tel":"02739 77 110","id":"K388","list_specs":"","lat":"48.37769"},"id":"2361"},{"type":"Feature","properties":{"the_geom":{"type":"Point","coordinates":[15.6606,48.5942]},"country":"AT","city":"Gars am Kamp","cap_beds":"100","postcode":"3571","house_number":"656","lon":"15.66064","url":"http:\/\/www.pszw.at","pub_date":"2020_03_18","street":"Kremser Straße","name":"Rehabilitationsklinik Gars am Kamp (gehört zu K384)","tel":"02985 33200","id":"K389+","list_specs":"","lat":"48.59421"},"id":"2362"},{"type":"Feature","properties":{"the_geom":{"type":"Point","coordinates":[16.2189,47.7291]},"country":"AT","city":"Bad Erlach","cap_beds":"100","postcode":"2822","house_number":"8","lon":"16.21885","url":"http\/\/www.lebensmed-baderlach.at","pub_date":"2020_03_18","street":"Fabriksgasse","name":"Sonderkrankenanstalt für Remobilisation\/Nachsorge und onkologische Rehabilitation","tel":"02627 813 00","id":"K390","list_specs":"","lat":"47.72905"},"id":"2363"},{"type":"Feature","properties":{"the_geom":{"type":"Point","coordinates":[13.0331,48.2558]},"country":"AT","city":"Braunau am Inn","cap_beds":"384","postcode":"5280","house_number":"60","lon":"13.03307","url":"http:\/\/www.khbr.at","pub_date":"2020_03_18","street":"Ringstraße","name":"Krankenhaus \"St. Josef\"  Braunau am Inn","tel":"07722 804 0","id":"K405","list_specs":"AN, IM, KIJU","lat":"48.25583"},"id":"2364"},{"type":"Feature","properties":{"the_geom":{"type":"Point","coordinates":[14.4983,48.4919]},"country":"AT","city":"Freistadt","cap_beds":"165","postcode":"4240","house_number":"1","lon":"14.4983","url":"http:\/\/www.lkh-freistadt.at","pub_date":"2020_03_18","street":"Krankenhausstraße","name":"Klinikum Freistadt","tel":"050 554 76 0","id":"K408","list_specs":"GEM","lat":"48.49192"},"id":"2365"},{"type":"Feature","properties":{"the_geom":{"type":"Point","coordinates":[14.473,48.2163]},"country":"AT","city":"Enns","cap_beds":"120","postcode":"4470","house_number":"7","lon":"14.47295","url":"http:\/\/www.rehaklinikenns.at","pub_date":"2020_03_18","street":"Bahnhofweg","name":"Sonderkrankenanstalt für neurologische und pneumologische Rehabilitation","tel":"07223 82 828","id":"K413","list_specs":"","lat":"48.21626"},"id":"2366"},{"type":"Feature","properties":{"the_geom":{"type":"Point","coordinates":[14.1914,48.2223]},"country":"AT","city":"Hörsching","cap_beds":"47","postcode":"4063","house_number":"","lon":"14.19139","url":"","pub_date":"2020_03_18","street":"Fliegerhorst Vogler","name":"Sanitätsanstalt Hörsching des Militärkommandos Oberösterreich","tel":"07221 700","id":"K414","list_specs":"","lat":"48.22231"},"id":"2367"},{"type":"Feature","properties":{"the_geom":{"type":"Point","coordinates":[14.1246,47.9082]},"country":"AT","city":"Kirchdorf an der Krems","cap_beds":"219","postcode":"4560","house_number":"8","lon":"14.12455","url":"http:\/\/www.lkh-kirchdorf.at","pub_date":"2020_03_18","street":"Hausmanninger Straße","name":"Landeskrankenhaus Kirchdorf an der Krems","tel":"050 554 67 0","id":"K415","list_specs":"GEM","lat":"47.90823"},"id":"2368"},{"type":"Feature","properties":{"the_geom":{"type":"Point","coordinates":[14.2891,48.3005]},"country":"AT","city":"Linz","cap_beds":"337","postcode":"4020","house_number":"2","lon":"14.28909","url":"http:\/\/www.bblinz.at","pub_date":"2020_03_18","street":"Seilerstätte","name":"Krankenhaus der Barmherzigen Brüder Linz","tel":"0732 7897 0","id":"K417","list_specs":"AN, IM","lat":"48.30045"},"id":"2369"},{"type":"Feature","properties":{"the_geom":{"type":"Point","coordinates":[14.2892,48.299]},"country":"AT","city":"Linz","cap_beds":"666","postcode":"4020","house_number":"4","lon":"14.2892","url":"http:\/\/www.bhs.at\/linz\/","pub_date":"2020_03_18","street":"Seilerstätte","name":"Krankenhaus der Barmherzigen Schwestern vom Hl. Vinzenz von Paul Linz","tel":"0732 7677 0","id":"K418","list_specs":"AN, IM, KIJU","lat":"48.29901"},"id":"2370"},{"type":"Feature","properties":{"the_geom":{"type":"Point","coordinates":[14.2937,48.3049]},"country":"AT","city":"Linz","cap_beds":"455","postcode":"4020","house_number":"1","lon":"14.29369","url":"http:\/\/www.elisabethinen.or.at","pub_date":"2020_03_18","street":"Fadingerstraße","name":"Krankenhaus der Elisabethinen Linz","tel":"0732 7676 0","id":"K419","list_specs":"AN, IM, PUL","lat":"48.30492"},"id":"2371"},{"type":"Feature","properties":{"the_geom":{"type":"Point","coordinates":[14.3094,48.304]},"country":"AT","city":"Linz","cap_beds":"153","postcode":"4021","house_number":"7","lon":"14.30942","url":"http:\/\/www.auva.at\/ukhlinz","pub_date":"2020_03_18","street":"Garnisonstraße","name":"Unfallkrankenhaus Linz","tel":"0732 6920 0","id":"K420","list_specs":"","lat":"48.30401"},"id":"2372"},{"type":"Feature","properties":{"the_geom":{"type":"Point","coordinates":[14.3021,48.3043]},"country":"AT","city":"Linz","cap_beds":"119","postcode":"4020","house_number":"15","lon":"14.30206","url":"http:\/\/www.diakonissen-krankenhaus-linz.at","pub_date":"2020_03_18","street":"Weißenwolffstraße","name":"Klinik Diakonissen Linz","tel":"0732 7675 0","id":"K421","list_specs":"","lat":"48.30432"},"id":"2373"},{"type":"Feature","properties":{"the_geom":{"type":"Point","coordinates":[13.4932,48.2106]},"country":"AT","city":"Ried im Innkreis","cap_beds":"427","postcode":"4910","house_number":"1","lon":"13.49322","url":"http:\/\/www.bhs-ried.at","pub_date":"2020_03_18","street":"Schloßberg","name":"Krankenhaus der Barmherzigen Schwestern vom Hl. Vinzenz von Paul Ried","tel":"07752 602 0","id":"K427","list_specs":"AN, IM, KIJU","lat":"48.21057"},"id":"2374"},{"type":"Feature","properties":{"the_geom":{"type":"Point","coordinates":[13.4356,48.4553]},"country":"AT","city":"Schärding","cap_beds":"153","postcode":"4780","house_number":"2","lon":"13.43558","url":"http:\/\/www.lkh-schaerding.at","pub_date":"2020_03_18","street":"Alfred-Kubin-Straße","name":"Klinikum Schärding","tel":"050 554 78 0","id":"K428","list_specs":"GEM","lat":"48.45531"},"id":"2375"},{"type":"Feature","properties":{"the_geom":{"type":"Point","coordinates":[14.3076,48.0427]},"country":"AT","city":"Sierning","cap_beds":"90","postcode":"4522","house_number":"14","lon":"14.30755","url":"http:\/\/www.kh-sierning.at","pub_date":"2020_03_18","street":"Neustraße","name":"Sonderkrankenanstalt Sierning","tel":"07259 2142 0","id":"K429","list_specs":"","lat":"48.04268"},"id":"2376"},{"type":"Feature","properties":{"the_geom":{"type":"Point","coordinates":[14.3927,48.044]},"country":"AT","city":"Steyr","cap_beds":"621","postcode":"4400","house_number":"170","lon":"14.39269","url":"http:\/\/www.lkh-steyr.at","pub_date":"2020_03_18","street":"Sierninger Straße","name":"Landeskrankenhaus Steyr","tel":"050 554 66 0","id":"K431","list_specs":"AN, IM, KIJU, PUL","lat":"48.04397"},"id":"2377"},{"type":"Feature","properties":{"the_geom":{"type":"Point","coordinates":[14.0241,48.1732]},"country":"AT","city":"Wels","cap_beds":"1227","postcode":"4600","house_number":"42","lon":"14.02412","url":"http:\/\/www.klinikum-wels.at","pub_date":"2020_03_18","street":"Grieskirchner Straße","name":"Klinikum Wels-Grieskirchen","tel":"07242 415 0","id":"K434","list_specs":"AN, CH, IM, KIJU, PUL","lat":"48.17321"},"id":"2378"},{"type":"Feature","properties":{"the_geom":{"type":"Point","coordinates":[14.6826,47.8576]},"country":"AT","city":"Weyer","cap_beds":"132","postcode":"3335","house_number":"2","lon":"14.68261","url":"http:\/\/www.ska-weyer.at","pub_date":"2020_03_18","street":"Mühlein","name":"Sonderkrankenanstalt zur Behandlung unspezifischer Atemwegserkrankungen, Erkrankungen des rheumatischen Formenkreises sowie für postoperative Rehabilitation","tel":"07355 86510","id":"K436","list_specs":"","lat":"47.8576"},"id":"2379"},{"type":"Feature","properties":{"the_geom":{"type":"Point","coordinates":[14.2128,48.0287]},"country":"AT","city":"Bad Hall","cap_beds":"122","postcode":"4540","house_number":"12","lon":"14.21279","url":"","pub_date":"2020_03_18","street":"Parkstraße","name":"Klinikum Bad Hall für Herz- Kreislauf- und neurologische Rehabilitation","tel":"07258 3071 0","id":"K437","list_specs":"","lat":"48.02873"},"id":"2380"},{"type":"Feature","properties":{"the_geom":{"type":"Point","coordinates":[13.9191,48.2368]},"country":"AT","city":"Bad Schallerbach","cap_beds":"230","postcode":"4701","house_number":"45","lon":"13.91906","url":"http:\/\/www.ska-badschallerbach.at","pub_date":"2020_03_18","street":"Schönauer Straße","name":"Sonderkrankenanstalt  - Rehabilitationszentrum Bad Schallerbach (SKA - RZ Bad Schallerbach)","tel":"07249 433","id":"K438","list_specs":"","lat":"48.23682"},"id":"2381"},{"type":"Feature","properties":{"the_geom":{"type":"Point","coordinates":[13.9899,48.5667]},"country":"AT","city":"Rohrbach in Oberösterreich","cap_beds":"202","postcode":"4150","house_number":"1","lon":"13.9898899843379","url":"http:\/\/www.lkh-rohrbach.at","pub_date":"2020_03_18","street":"Krankenhausstraße","name":"Klinikum Rohrbach","tel":"050 554 77 0","id":"K441","list_specs":"GEM","lat":"48.5666799930013"},"id":"2382"},{"type":"Feature","properties":{"the_geom":{"type":"Point","coordinates":[13.5808,47.7153]},"country":"AT","city":"Bad Ischl","cap_beds":"134","postcode":"4820","house_number":"44","lon":"13.58083","url":"http:\/\/www.ska-badischl.at","pub_date":"2020_03_18","street":"Untere Lindaustraßße","name":"Rehabilitationszentrum Bad Ischl-Lindau","tel":"06132 242 53","id":"K442","list_specs":"","lat":"47.71531"},"id":"2383"},{"type":"Feature","properties":{"the_geom":{"type":"Point","coordinates":[13.4571,47.9404]},"country":"AT","city":"St. Georgen im Attergau","cap_beds":"95","postcode":"4880","house_number":"25","lon":"13.45714","url":"https:\/\/reha.at","pub_date":"2020_03_18","street":"Kogl","name":"Rehabilitationszentrum St. Georgen","tel":"07667 6161 0","id":"K443","list_specs":"","lat":"47.9404"},"id":"2384"},{"type":"Feature","properties":{"the_geom":{"type":"Point","coordinates":[14.3129,48.27]},"country":"AT","city":"Linz","cap_beds":"30","postcode":"4030","house_number":"30-32","lon":"14.3129","url":"http:\/\/www.spattstrasse.at","pub_date":"2020_03_18","street":"Prechtlerstraße","name":"Sonderkrankenanstalt für Kinder- und Jugendneuropsychiatrie","tel":"0732 349 271","id":"K444","list_specs":"","lat":"48.26996"},"id":"2385"},{"type":"Feature","properties":{"the_geom":{"type":"Point","coordinates":[13.6139,47.7101]},"country":"AT","city":"Bad Ischl","cap_beds":"171","postcode":"4820","house_number":"9","lon":"13.61386","url":"","pub_date":"2020_03_18","street":"Gartenstraße","name":"HerzReha Herz Kreislaufzentrum Bad Ischl","tel":"06132 278 01","id":"K446","list_specs":"","lat":"47.71006"},"id":"2386"},{"type":"Feature","properties":{"the_geom":{"type":"Point","coordinates":[13.9143,48.2281]},"country":"AT","city":"Bad Schallerbach","cap_beds":"177","postcode":"4701","house_number":"11","lon":"13.91429","url":"","pub_date":"2020_03_18","street":"Stifterstraße","name":"Sonderkrankenanstalt für Herz- und Kreislauferkrankungen, Stoffwechselerkrankungen sowie Atemwegserkrankungen - Rehabilitationszentrum Austria","tel":"07249 425 41","id":"K447","list_specs":"","lat":"48.22812"},"id":"2387"},{"type":"Feature","properties":{"the_geom":{"type":"Point","coordinates":[13.3003,48.1828]},"country":"AT","city":"Aspach","cap_beds":"178","postcode":"5252","house_number":"2","lon":"13.30033","url":"http:\/\/www.revital-aspach.at","pub_date":"2020_03_18","street":"Revitalplatz","name":"Sonderkrankenanstalt Aspach","tel":"07755 6801","id":"K448","list_specs":"","lat":"48.18281"},"id":"2388"},{"type":"Feature","properties":{"the_geom":{"type":"Point","coordinates":[14.163,48.2999]},"country":"AT","city":"Schönering","cap_beds":"151","postcode":"4073","house_number":"1","lon":"14.16295","url":"http:\/\/www.klinik-wilhering.at","pub_date":"2020_03_18","street":"Am Dorfplatz","name":"Sonderkrankenanstalt für neurologische und orth. Rehabilitation und Kinderrehabilitation","tel":"07226 40004 0","id":"K450","list_specs":"","lat":"48.29992"},"id":"2389"},{"type":"Feature","properties":{"the_geom":{"type":"Point","coordinates":[13.8829,48.0523]},"country":"AT","city":"Bad Wimsbach-Neydharting","cap_beds":"63","postcode":"4654","house_number":"4","lon":"13.88294","url":"http:\/\/interface.gesundheit-pflege.at\/betriebe.html","pub_date":"2020_03_18","street":"Neydharting","name":"Sonderkrankenanstalt für Krankheiten des Stoffwechselsystems und des Verdauungsapparates","tel":"07245 25 474 0","id":"K451","list_specs":"","lat":"48.05233"},"id":"2390"},{"type":"Feature","properties":{"the_geom":{"type":"Point","coordinates":[13.7435,47.9072]},"country":"AT","city":"Altmünster","cap_beds":"156","postcode":"4813","house_number":"82","lon":"13.74347","url":"http:\/\/www.ntgb.at","pub_date":"2020_03_18","street":"Gmundnerberg","name":"Sonderkrankenanstalt für neurologische Rehabilitation Altmünster","tel":"07612 88 000","id":"K452","list_specs":"","lat":"47.90721"},"id":"2391"},{"type":"Feature","properties":{"the_geom":{"type":"Point","coordinates":[13.9232,48.229]},"country":"AT","city":"Bad Schallerbach","cap_beds":"123","postcode":"4701","house_number":"1","lon":"13.92318","url":"http:\/\/www.schallerbacherhof.at","pub_date":"2020_03_18","street":"Schallerbacherhofstraße","name":"Klinikum Schallerbacherhof für orthopädische Rehabilitation","tel":"07249 486 41 0","id":"K453","list_specs":"","lat":"48.22895"},"id":"2392"},{"type":"Feature","properties":{"the_geom":{"type":"Point","coordinates":[14.3054,48.3033]},"country":"AT","city":"Linz","cap_beds":"1811","postcode":"4020","house_number":"9","lon":"14.30543","url":"http:\/\/www.jku.at","pub_date":"2020_03_18","street":"Krankenhausstraße","name":"Linz Kepler Universitätsklinikum","tel":"","id":"K470","list_specs":"AN, GEM, IM, KIJU, NEU","lat":"48.30329"},"id":"2393"},{"type":"Feature","properties":{"the_geom":{"type":"Point","coordinates":[13.7796,47.9162]},"country":"AT","city":"Gmunden","cap_beds":"1091","postcode":"4810","house_number":"49","lon":"13.77961","url":"http:\/\/www.salzkammergut-klinikum.at","pub_date":"2020_03_18","street":"Miller-von-Aichholz-Straße","name":"Salzkammergut-Klinikum","tel":"05 055473 0","id":"K480","list_specs":"AN, GEM, IM, KIJU, PUL","lat":"47.91621"},"id":"2394"},{"type":"Feature","properties":{"the_geom":{"type":"Point","coordinates":[14.2046,48.0375]},"country":"AT","city":"Bad Hall","cap_beds":"100","postcode":"4540","house_number":"7","lon":"14.20456","url":"http:\/\/www.bva.at","pub_date":"2020_03_18","street":"Linzer Straße","name":"Therapiezentrum Justuspark Bad Hall","tel":"050405 85550","id":"K481","list_specs":"","lat":"48.03754"},"id":"2395"},{"type":"Feature","properties":{"the_geom":{"type":"Point","coordinates":[13.1045,47.1756]},"country":"AT","city":"Bad Hofgastein","cap_beds":"144","postcode":"5630","house_number":"26-30","lon":"13.10452","url":"http:\/\/www.ska-badhofgastein.at","pub_date":"2020_03_18","street":"Salzburger Straße","name":"Rehabilitationszentrum Bad Hofgastein","tel":"06432 6685","id":"K505","list_specs":"","lat":"47.17556"},"id":"2396"},{"type":"Feature","properties":{"the_geom":{"type":"Point","coordinates":[13.1127,47.6855]},"country":"AT","city":"Hallein","cap_beds":"124","postcode":"5400","house_number":"34","lon":"13.11271","url":"","pub_date":"2020_03_18","street":"Bürgermeisterstraße","name":"Landesklinik Hallein","tel":"05 72 55 44","id":"K512","list_specs":"GEM","lat":"47.68552"},"id":"2397"},{"type":"Feature","properties":{"the_geom":{"type":"Point","coordinates":[12.9471,47.9367]},"country":"AT","city":"Oberndorf bei Salzburg","cap_beds":"107","postcode":"5110","house_number":"37","lon":"12.94705","url":"http:\/\/www.krankenhaus-oberndorf.at","pub_date":"2020_03_18","street":"Paracelsusstraße","name":"Aö Krankenhaus Oberndorf","tel":"06272 4334 601","id":"K517","list_specs":"GEM","lat":"47.93665"},"id":"2398"},{"type":"Feature","properties":{"the_geom":{"type":"Point","coordinates":[13.5643,47.2456]},"country":"AT","city":"Obertauern","cap_beds":"3","postcode":"5562","house_number":"115","lon":"13.56428","url":"http:\/\/www.aufmesser.at","pub_date":"2020_03_18","street":"Obertauern","name":"Krankenanstalt Obertauern Dr. Aufmesser","tel":"06456 7298","id":"K518","list_specs":"","lat":"47.24562"},"id":"2399"},{"type":"Feature","properties":{"the_geom":{"type":"Point","coordinates":[13.0949,47.7409]},"country":"AT","city":"Puch bei Hallein","cap_beds":"12","postcode":"5412","house_number":"4","lon":"13.0948625604493","url":"","pub_date":"2020_03_18","street":"Dorf","name":"Sanatorium Oberthurnhof  St. Jakob am Thurn","tel":"0662 62 33 93 0","id":"K519","list_specs":"","lat":"47.740940426743"},"id":"2400"},{"type":"Feature","properties":{"the_geom":{"type":"Point","coordinates":[13.4668,47.3855]},"country":"AT","city":"Radstadt","cap_beds":"13","postcode":"5550","house_number":"3-5","lon":"13.46683","url":"http:\/\/www.aufmesser.at","pub_date":"2020_03_18","street":"Judenbühel","name":"Krankenanstalt Radstadt Dr. Aufmesser","tel":"06452 7501","id":"K521","list_specs":"","lat":"47.38545"},"id":"2401"},{"type":"Feature","properties":{"the_geom":{"type":"Point","coordinates":[13.0329,47.8063]},"country":"AT","city":"Salzburg","cap_beds":"1073","postcode":"5020","house_number":"48","lon":"13.0329","url":"http:\/\/www.salk.at\/Landeskrankenhaus.html","pub_date":"2020_03_18","street":"Müllner Hauptstraße","name":"Landeskrankenhaus Salzburg - Universitätsklinikum der PMU","tel":"05 7255 58838","id":"K524","list_specs":"AN, IM, KIJU","lat":"47.80626"},"id":"2402"},{"type":"Feature","properties":{"the_geom":{"type":"Point","coordinates":[13.0561,47.799]},"country":"AT","city":"Salzburg","cap_beds":"138","postcode":"5020","house_number":"5","lon":"13.05606","url":"http:\/\/www.auva.at\/ukhsalzburg","pub_date":"2020_03_18","street":"Dr. Franz Rehrl-Platz","name":"Unfallkrankenhaus Salzburg","tel":"0662 6580 0","id":"K525","list_specs":"","lat":"47.79901"},"id":"2403"},{"type":"Feature","properties":{"the_geom":{"type":"Point","coordinates":[13.0458,47.8083]},"country":"AT","city":"Salzburg","cap_beds":"116","postcode":"5020","house_number":"18","lon":"13.04575","url":"http:\/\/www.privatklinik-wehrle-diakonissen.at","pub_date":"2020_03_18","street":"Haydnstraße","name":"Privatklinik Wehrle - Diakonissen, Standort Andräviertel","tel":"0662 905 09 0","id":"K526","list_specs":"","lat":"47.80825"},"id":"2404"},{"type":"Feature","properties":{"the_geom":{"type":"Point","coordinates":[13.0516,47.7971]},"country":"AT","city":"Salzburg","cap_beds":"235","postcode":"5010","house_number":"1","lon":"13.05156","url":"http:\/\/www.barmherzige-brueder.at","pub_date":"2020_03_18","street":"Kajetanerplatz","name":"Krankenhaus der Barmherzigen Brüder  Salzburg","tel":"0662 8088","id":"K527","list_specs":"AN, IM","lat":"47.7971"},"id":"2405"},{"type":"Feature","properties":{"the_geom":{"type":"Point","coordinates":[13.0219,47.8129]},"country":"AT","city":"Salzburg","cap_beds":"470","postcode":"5020","house_number":"79","lon":"13.021916","url":"http:\/\/www.salk.at\/Christian-Doppler-Klinik.html","pub_date":"2020_03_18","street":"Ignaz-Harrer-Straße","name":"Christian-Doppler-Klinik Salzburg - Universitätsklinikum der PMU","tel":"05 7255 3","id":"K528","list_specs":"NCH, NEU","lat":"47.8128759"},"id":"2406"},{"type":"Feature","properties":{"the_geom":{"type":"Point","coordinates":[13.1624,47.3312]},"country":"AT","city":"St. Veit im Pongau","cap_beds":"94","postcode":"5621","house_number":"46","lon":"13.1624","url":"http:\/\/www.salk.at\/Landesklinik_St._Veit.html","pub_date":"2020_03_18","street":"St. Veiter-Straße","name":"Landesklinik St. Veit","tel":"05 7255 46","id":"K533","list_specs":"","lat":"47.3312"},"id":"2407"},{"type":"Feature","properties":{"the_geom":{"type":"Point","coordinates":[13.1529,47.3214]},"country":"AT","city":"Schwarzach im Pongau","cap_beds":"496","postcode":"5620","house_number":"1","lon":"13.15285","url":"http:\/\/www.kh-schwarzach.at","pub_date":"2020_03_18","street":"Kardinal Schwarzenbergplatz","name":"Kardinal Schwarzenberg Klinikum","tel":"06415 7101 0","id":"K534","list_specs":"AN, IM, KIJU","lat":"47.32144"},"id":"2408"},{"type":"Feature","properties":{"the_geom":{"type":"Point","coordinates":[13.8092,47.1291]},"country":"AT","city":"Tamsweg","cap_beds":"86","postcode":"5580","house_number":"7","lon":"13.80921","url":"http:\/\/www.salk.at","pub_date":"2020_03_18","street":"Bahnhofstraße","name":"Landesklinik Tamsweg","tel":"05 7255 47","id":"K535","list_specs":"GEM","lat":"47.12907"},"id":"2409"},{"type":"Feature","properties":{"the_geom":{"type":"Point","coordinates":[12.8133,47.3389]},"country":"AT","city":"Zell am See","cap_beds":"347","postcode":"5700","house_number":"8","lon":"12.8133","url":"http:\/\/www.kh-zellamsee.at","pub_date":"2020_03_18","street":"Paracelsusstraße","name":"Tauernklinikum Zell am See-Mittersill","tel":"06542 777 51","id":"K536","list_specs":"AN, GEM, IM","lat":"47.33887"},"id":"2410"},{"type":"Feature","properties":{"the_geom":{"type":"Point","coordinates":[13.1276,47.1023]},"country":"AT","city":"Bad Gastein","cap_beds":"155","postcode":"5640","house_number":"14","lon":"13.12757","url":"https:\/\/www.klinikum-badgastein.at","pub_date":"2020_03_18","street":"Hans-Kudlich-Straße","name":"Klinikum Bad Gastein für Orthopädie und Rheumatologie","tel":"06434 2523 0","id":"K538","list_specs":"","lat":"47.10233"},"id":"2411"},{"type":"Feature","properties":{"the_geom":{"type":"Point","coordinates":[13.026,47.7931]},"country":"AT","city":"Salzburg","cap_beds":"38","postcode":"5020","house_number":"11","lon":"13.02603","url":"","pub_date":"2020_03_18","street":"Weizensteinerstraße","name":"Suchthilfe Klinik Salzburg","tel":"0662 82 42 03","id":"K540","list_specs":"","lat":"47.79305"},"id":"2412"},{"type":"Feature","properties":{"the_geom":{"type":"Point","coordinates":[12.8404,47.4208]},"country":"AT","city":"Saalfelden am Steinernen Meer","cap_beds":"130","postcode":"5760","house_number":"26","lon":"12.84044","url":"http:\/\/www.ska-saalfelden.at","pub_date":"2020_03_18","street":"Thorerstraße","name":"Rehabilitationszentrum Saalfelden","tel":"06582 790","id":"K541","list_specs":"","lat":"47.42079"},"id":"2413"},{"type":"Feature","properties":{"the_geom":{"type":"Point","coordinates":[12.8509,47.4166]},"country":"AT","city":"Saalfelden am Steinernen Meer","cap_beds":"36","postcode":"5760","house_number":"4","lon":"12.85093","url":"http:\/\/www.privatklinik-ritzensee.at","pub_date":"2020_03_18","street":"Schmalenbergham","name":"Privatklinik Ritzensee","tel":"06582 794","id":"K544","list_specs":"","lat":"47.41661"},"id":"2414"},{"type":"Feature","properties":{"the_geom":{"type":"Point","coordinates":[12.9191,47.7278]},"country":"AT","city":"Großgmain","cap_beds":"164","postcode":"5084","house_number":"520","lon":"12.91914","url":"http:\/\/www.ska-grossgmain.at","pub_date":"2020_03_18","street":"Salzburgerstraße","name":"Rehabilitationszentrum Großgmain","tel":"06247 7406 0","id":"K545","list_specs":"","lat":"47.72781"},"id":"2415"},{"type":"Feature","properties":{"the_geom":{"type":"Point","coordinates":[13.0915,47.6615]},"country":"AT","city":"Heilbad Dürrnberg","cap_beds":"59","postcode":"5422","house_number":"7-9","lon":"13.09145","url":"http:\/\/www.emco-klinik.at","pub_date":"2020_03_18","street":"Prof. Martin Hell-Straße","name":"Emco Privatklinik","tel":"06245 790","id":"K546","list_specs":"","lat":"47.66149"},"id":"2416"},{"type":"Feature","properties":{"the_geom":{"type":"Point","coordinates":[13.1337,47.6701]},"country":"AT","city":"Bad Vigaun","cap_beds":"57","postcode":"5424","house_number":"91","lon":"13.13374","url":"http:\/\/www.klinik-st-barbara.at","pub_date":"2020_03_18","street":"Karl-Rödhammer-Weg","name":"Klinik St. Barbara - Medizinisches Zentrum Bad Vigaun","tel":"06245 8999 0","id":"K547","list_specs":"","lat":"47.67007"},"id":"2417"},{"type":"Feature","properties":{"the_geom":{"type":"Point","coordinates":[13.1338,47.1125]},"country":"AT","city":"Bad Gastein","cap_beds":"160","postcode":"5640","house_number":"11","lon":"13.13384","url":"http:\/\/www.baerenhof.at","pub_date":"2020_03_18","street":"Pyrkershöhenstraße","name":"Bärenhof am Felsenbad","tel":"06434 3366","id":"K548","list_specs":"","lat":"47.11251"},"id":"2418"},{"type":"Feature","properties":{"the_geom":{"type":"Point","coordinates":[13.0303,47.7948]},"country":"AT","city":"Salzburg","cap_beds":"21","postcode":"5020","house_number":"2","lon":"13.0303","url":"http:\/\/www.privatkliniksalzburg.at","pub_date":"2020_03_18","street":"Sinnhubstraße","name":"PKS Privatklinik Salzburg","tel":"0662 829 033","id":"K549","list_specs":"","lat":"47.79478"},"id":"2419"},{"type":"Feature","properties":{"the_geom":{"type":"Point","coordinates":[13.4217,47.3768]},"country":"AT","city":"Altenmarkt im Pongau","cap_beds":"8","postcode":"5541","house_number":"13","lon":"13.42168","url":"http:\/\/www.agzmed.at","pub_date":"2020_03_18","street":"Michael-Walchhofer-Straße","name":"Krankenanstalt Altenmarkt","tel":"06452 5151 7700","id":"K550","list_specs":"","lat":"47.37683"},"id":"2420"},{"type":"Feature","properties":{"the_geom":{"type":"Point","coordinates":[13.3464,47.5655]},"country":"AT","city":"Abtenau","cap_beds":"22","postcode":"5441","house_number":"25","lon":"13.3464","url":"http:\/\/www.sbg.at\/senioren-abtenau","pub_date":"2020_03_18","street":"Markt","name":"Krankenhaus Abtenau","tel":"06243 2300","id":"K551","list_specs":"","lat":"47.56548"},"id":"2421"},{"type":"Feature","properties":{"the_geom":{"type":"Point","coordinates":[13.0219,47.8129]},"country":"AT","city":"Salzburg","cap_beds":"30","postcode":"5020","house_number":"79","lon":"13.021916","url":"http:\/\/www.neurocare.at","pub_date":"2020_03_18","street":"Ignaz-Harrer-Straße","name":"NeuroCare Rehaklinik Salzburg","tel":"05 7255 86001","id":"K552","list_specs":"","lat":"47.8128759"},"id":"2422"},{"type":"Feature","properties":{"the_geom":{"type":"Point","coordinates":[13.1135,47.6848]},"country":"AT","city":"Hallein","cap_beds":"52","postcode":"5400","house_number":"38","lon":"13.1135","url":"http:\/\/interface.gesundheit-pflege.at\/betriebe.html","pub_date":"2020_03_18","street":"Bürgermeisterstraße","name":"Rehabilitationszentrum für Stoffwechsel- und Gastroenterologische Erkrankungen","tel":"06245 70 700","id":"K553","list_specs":"","lat":"47.68484"},"id":"2423"},{"type":"Feature","properties":{"the_geom":{"type":"Point","coordinates":[12.9479,47.937]},"country":"AT","city":"Oberndorf bei Salzburg","cap_beds":"60","postcode":"5110","house_number":"37a","lon":"12.94793","url":"http:\/\/www.reha-oberndorf.at","pub_date":"2020_03_18","street":"Paraselsusstraße","name":"Rehabilitstionszentrum Oberndorf","tel":"06272 40740 7005","id":"K554","list_specs":"","lat":"47.93704"},"id":"2424"},{"type":"Feature","properties":{"the_geom":{"type":"Point","coordinates":[13.1337,47.6701]},"country":"AT","city":"Bad Vigaun","cap_beds":"141","postcode":"5424","house_number":"91","lon":"13.13374","url":"http:\/\/www.badvigaun.com","pub_date":"2020_03_18","street":"Karl-Rödhammer-Weg","name":"Rehabilitationszentrum Bad Vigaun","tel":"06245 8999 0","id":"K555","list_specs":"","lat":"47.67007"},"id":"2425"},{"type":"Feature","properties":{"the_geom":{"type":"Point","coordinates":[13.0329,47.8063]},"country":"AT","city":"Salzburg","cap_beds":"10","postcode":"5020","house_number":"48","lon":"13.0329","url":"http:\/\/www.salk.at","pub_date":"2020_03_18","street":"Müllner Hauptstraße","name":"Sonderkrankenanstalt für Neurorehabilitation für Kinder und Jugendliche","tel":"0662 4482 2600","id":"K556","list_specs":"","lat":"47.80626"},"id":"2426"},{"type":"Feature","properties":{"the_geom":{"type":"Point","coordinates":[13.1624,47.3312]},"country":"AT","city":"St. Veit im Pongau","cap_beds":"88","postcode":"5621","house_number":"46","lon":"13.1624","url":"http:\/\/www.salk.at\/Landesklinik St. Veit.html","pub_date":"2020_03_18","street":"St. Veiter-Straße","name":"Landesklinik St Veit (gehört zu K533)","tel":"06415 7201 0","id":"K563+","list_specs":"","lat":"47.3312"},"id":"2427"},{"type":"Feature","properties":{"the_geom":{"type":"Point","coordinates":[13.1598,47.3326]},"country":"AT","city":"St. Veit im Pongau","cap_beds":"202","postcode":"5621","house_number":"48","lon":"13.15975","url":"http:\/\/www.onko-reha-stveit.at","pub_date":"2020_03_18","street":"St. Veiterstraße","name":"Onkologisches Rehabilitationszentrum St. Veit\/Pongau","tel":"06415 50300","id":"K564","list_specs":"","lat":"47.33264"},"id":"2428"},{"type":"Feature","properties":{"the_geom":{"type":"Point","coordinates":[15.2394,47.541]},"country":"AT","city":"Aflenz Kurort","cap_beds":"72","postcode":"8623","house_number":"206","lon":"15.23937","url":"http:\/\/www.ska-aflenz.at","pub_date":"2020_03_18","street":"Mariazellerstraße","name":"Rehabilitationszentrum Aflenz","tel":"03861 500","id":"K601","list_specs":"","lat":"47.541"},"id":"2429"},{"type":"Feature","properties":{"the_geom":{"type":"Point","coordinates":[13.7819,47.6103]},"country":"AT","city":"Bad Aussee","cap_beds":"140","postcode":"8990","house_number":"354","lon":"13.78191","url":"http:\/\/www.ska-badaussee.at","pub_date":"2020_03_18","street":"Braungasse","name":"Rehabilitationszentrum Bad Aussee","tel":"03622 525 81 0","id":"K603","list_specs":"","lat":"47.6103"},"id":"2430"},{"type":"Feature","properties":{"the_geom":{"type":"Point","coordinates":[15.9143,46.8756]},"country":"AT","city":"Bad Gleichenberg","cap_beds":"150","postcode":"8344","house_number":"4","lon":"15.91428","url":"","pub_date":"2020_03_18","street":"Schweizereiweg","name":"Klinikum Bad Gleichenberg für Lungen- und Stoffwechselerkrankungen","tel":"03159 2340","id":"K605","list_specs":"","lat":"46.87558"},"id":"2431"},{"type":"Feature","properties":{"the_geom":{"type":"Point","coordinates":[15.8824,46.9504]},"country":"AT","city":"Feldbach","cap_beds":"351","postcode":"8330","house_number":"18","lon":"15.88237","url":"http:\/\/www.lkh-feldbach.at","pub_date":"2020_03_18","street":"Ottokar-Kernstockstraße","name":"Krankenhausverbund Feldbach-Fürstenfeld","tel":"03152 899 0","id":"K608","list_specs":"GEM, IM","lat":"46.950372"},"id":"2432"},{"type":"Feature","properties":{"the_geom":{"type":"Point","coordinates":[13.7754,47.6065]},"country":"AT","city":"Bad Aussee","cap_beds":"100","postcode":"8990","house_number":"395","lon":"13.77538","url":"http:\/\/www.privatklinik-badaussee.at","pub_date":"2020_03_18","street":"Sommersbergseestraße","name":"AMEOS Klinikum Bad Aussee","tel":"03622 52100","id":"K610","list_specs":"","lat":"47.60649"},"id":"2433"},{"type":"Feature","properties":{"the_geom":{"type":"Point","coordinates":[15.4654,47.0793]},"country":"AT","city":"Graz","cap_beds":"1524","postcode":"8036","house_number":"1","lon":"15.46542","url":"http:\/\/www.klinikum-graz.at","pub_date":"2020_03_18","street":"Auenbrugger Platz","name":"Landeskrankenhaus-Universitätsklinikum Graz","tel":"0316 385 0","id":"K612","list_specs":"AN, CH, GEM, HCH, IM, KIJU, KJC, NCH, NEU","lat":"47.07932"},"id":"2434"},{"type":"Feature","properties":{"the_geom":{"type":"Point","coordinates":[15.3985,47.0788]},"country":"AT","city":"Graz","cap_beds":"145","postcode":"8020","house_number":"24","lon":"15.39847","url":"http:\/\/www.auva.at\/ukhgraz","pub_date":"2020_03_18","street":"Göstinger Straße","name":"Unfallkrankenhaus Steiermark","tel":"0316 505 0","id":"K614","list_specs":"","lat":"47.07875"},"id":"2435"},{"type":"Feature","properties":{"the_geom":{"type":"Point","coordinates":[15.4301,47.064]},"country":"AT","city":"Graz","cap_beds":"186","postcode":"8020","house_number":"36","lon":"15.43007","url":"http:\/\/www.ggz.graz.at","pub_date":"2020_03_18","street":"Albert Schweitzer-Gasse","name":"Albert Schweitzer Klinik","tel":"0316 7060 1999","id":"K615","list_specs":"","lat":"47.06399"},"id":"2436"},{"type":"Feature","properties":{"the_geom":{"type":"Point","coordinates":[15.3957,47.0529]},"country":"AT","city":"Graz-Wetzelsdorf","cap_beds":"41","postcode":"8052","house_number":"171","lon":"15.39566","url":"","pub_date":"2020_03_18","street":"Straßgangerstraße","name":"Militärspital 1, Belgier-Kaserne Graz","tel":"0316 5993","id":"K616","list_specs":"","lat":"47.05291"},"id":"2437"},{"type":"Feature","properties":{"the_geom":{"type":"Point","coordinates":[13.7754,47.6065]},"country":"AT","city":"Bad Aussee","cap_beds":"25","postcode":"8990","house_number":"395","lon":"13.77538","url":"http:\/\/www.ameos.eu\/standort\/ameos-sued\/bad-aussee","pub_date":"2020_03_18","street":"Sommersbergseestraße","name":"Privatklinik für psychosomatische Therapie","tel":"03622 53 000","id":"K617","list_specs":"","lat":"47.60649"},"id":"2438"},{"type":"Feature","properties":{"the_geom":{"type":"Point","coordinates":[15.4312,47.0722]},"country":"AT","city":"Graz","cap_beds":"421","postcode":"8020","house_number":"12","lon":"15.43116","url":"http:\/\/www.barmherzige-brueder.at","pub_date":"2020_03_18","street":"Marschallgasse","name":"Krankenhaus der Barmherzigen Brüder Graz","tel":"0316 7067 0","id":"K619","list_specs":"GEM","lat":"47.07217"},"id":"2439"},{"type":"Feature","properties":{"the_geom":{"type":"Point","coordinates":[15.4271,47.0695]},"country":"AT","city":"Graz","cap_beds":"179","postcode":"8020","house_number":"14","lon":"15.42714","url":"http:\/\/www.elisabethinen.at","pub_date":"2020_03_18","street":"Elisabethinergasse","name":"Krankenhaus der Elisabethinen Graz","tel":"0316 7063 0","id":"K620","list_specs":"GEM","lat":"47.06952"},"id":"2440"},{"type":"Feature","properties":{"the_geom":{"type":"Point","coordinates":[15.4493,47.0757]},"country":"AT","city":"Graz","cap_beds":"44","postcode":"8010","house_number":"2-4","lon":"15.44932","url":"http:\/\/www.privatklinik-leech.at","pub_date":"2020_03_18","street":"Hugo-Wolf-Gasse","name":"Privatklinik Leech","tel":"0316 3632 0","id":"K623","list_specs":"","lat":"47.07572"},"id":"2441"},{"type":"Feature","properties":{"the_geom":{"type":"Point","coordinates":[15.4423,47.0839]},"country":"AT","city":"Graz","cap_beds":"130","postcode":"8010","house_number":"35","lon":"15.44231","url":"http:\/\/www.kreuzschwestern-graz.at","pub_date":"2020_03_18","street":"Kreuzgasse","name":"Privatklinik der Kreuzschwestern","tel":"0316 331 0","id":"K624","list_specs":"","lat":"47.0839"},"id":"2442"},{"type":"Feature","properties":{"the_geom":{"type":"Point","coordinates":[15.4618,47.0787]},"country":"AT","city":"Graz","cap_beds":"44","postcode":"8010","house_number":"42","lon":"15.46179","url":"http:\/\/www.leonhard.at","pub_date":"2020_03_18","street":"Schanzelgasse","name":"Sanatorium St. Leonhard für Frauenheilkunde und Geburtshilfe","tel":"0316 3607 0","id":"K625","list_specs":"","lat":"47.07874"},"id":"2443"},{"type":"Feature","properties":{"the_geom":{"type":"Point","coordinates":[15.528,47.0921]},"country":"AT","city":"Graz-Ragnitz","cap_beds":"560","postcode":"8047","house_number":"12","lon":"15.527979411862992","url":"http:\/\/www.kainbach.at","pub_date":"2020_03_18","street":"Johannes-von-Gott-Straße","name":"Lebenswelten der Barmherzigen Brüder - Steiermark","tel":"0316 30 10 81","id":"K629","list_specs":"","lat":"47.092105034122135"},"id":"2444"},{"type":"Feature","properties":{"the_geom":{"type":"Point","coordinates":[13.907,47.4515]},"country":"AT","city":"Gröbming","cap_beds":"154","postcode":"8962","house_number":"214","lon":"13.907","url":"http:\/\/www.ska-groebming.at","pub_date":"2020_03_18","street":"Hofmanning","name":"Sonderkrankenanstalt der PVA, REHABZ für Erkrankungen des Stütz- und Bewegungsapparates und neurolgische Erkrankungen","tel":"03685 223 23","id":"K630","list_specs":"","lat":"47.45148"},"id":"2445"},{"type":"Feature","properties":{"the_geom":{"type":"Point","coordinates":[15.9666,47.2729]},"country":"AT","city":"Hartberg","cap_beds":"151","postcode":"8230","house_number":"1","lon":"15.96655","url":"http:\/\/www.lkh-hartberg.at","pub_date":"2020_03_18","street":"Krankenhausplatz","name":"Landeskrankenhaus Hartberg","tel":"03332 605 0","id":"K631","list_specs":"AN, IM","lat":"47.27285"},"id":"2446"},{"type":"Feature","properties":{"the_geom":{"type":"Point","coordinates":[15.2883,47.4443]},"country":"AT","city":"Kapfenberg","cap_beds":"70","postcode":"8605","house_number":"1","lon":"15.28825","url":"http:\/\/www.ntk.at","pub_date":"2020_03_18","street":"Anton-Buchalka-Straße","name":"Neurologisches Therapiezentrum Kapfenberg","tel":"03862 290 0","id":"K635","list_specs":"","lat":"47.44428"},"id":"2447"},{"type":"Feature","properties":{"the_geom":{"type":"Point","coordinates":[15.0855,47.3801]},"country":"AT","city":"Leoben","cap_beds":"783","postcode":"8700","house_number":"42","lon":"15.0855","url":"http:\/\/www.lkh-leoben.at","pub_date":"2020_03_18","street":"Vordernberger Straße","name":"Landeskrankenhaus Hochsteiermark","tel":"03842 401 0","id":"K638","list_specs":"GEM, IM, KIJU, PUL","lat":"47.38012"},"id":"2448"},{"type":"Feature","properties":{"the_geom":{"type":"Point","coordinates":[15.6687,47.601]},"country":"AT","city":"Mürzzuschlag","cap_beds":"92","postcode":"8680","house_number":"63-65","lon":"15.66871","url":"http:\/\/www.lkh-muerzzuschlag.at","pub_date":"2020_03_18","street":"Grazer Straße","name":"Krankenanstaltenverbund Mürzzuschlag-Mariazell","tel":"03852 2080 0","id":"K640","list_specs":"IM","lat":"47.60104"},"id":"2449"},{"type":"Feature","properties":{"the_geom":{"type":"Point","coordinates":[14.3672,47.5253]},"country":"AT","city":"Rottenmann","cap_beds":"219","postcode":"8786","house_number":"2-4","lon":"14.3672","url":"http:\/\/www.lkh-rottenmann.at","pub_date":"2020_03_18","street":"St. Georgen","name":"Krankenanstaltenverbund Rottenmann-Bad Aussee","tel":"03614 2431 0","id":"K643","list_specs":"GEM","lat":"47.5253"},"id":"2450"},{"type":"Feature","properties":{"the_geom":{"type":"Point","coordinates":[15.4839,47.1825]},"country":"AT","city":"St. Radegund bei Graz","cap_beds":"160","postcode":"8061","house_number":"1","lon":"15.48389","url":"http:\/\/www.ska-st-radegund.at","pub_date":"2020_03_18","street":"Quellenstraße","name":"Rehabilitationszentrum St. Radegund","tel":"03132 2351","id":"K645","list_specs":"","lat":"47.18254"},"id":"2451"},{"type":"Feature","properties":{"the_geom":{"type":"Point","coordinates":[13.6762,47.3921]},"country":"AT","city":"Schladming","cap_beds":"126","postcode":"8970","house_number":"777","lon":"13.67615","url":"http:\/\/www.diakonissen-krankenhaus-schladming.at","pub_date":"2020_03_18","street":"Salzburger Straße","name":"Klinik Diakonissen Schladming","tel":"03687 2020 0","id":"K646","list_specs":"GEM","lat":"47.39207"},"id":"2452"},{"type":"Feature","properties":{"the_geom":{"type":"Point","coordinates":[15.364,46.9804]},"country":"AT","city":"Tobelbad","cap_beds":"202","postcode":"8144","house_number":"6","lon":"15.36395","url":"http:\/\/www.auva.at\/rktobelbad","pub_date":"2020_03_18","street":"Dr.-Georg-Neubauer-Straße","name":"Rehabilitationsklinik Tobelbad","tel":"03136 525 71 0","id":"K649","list_specs":"","lat":"46.98035"},"id":"2453"},{"type":"Feature","properties":{"the_geom":{"type":"Point","coordinates":[15.8825,47.4051]},"country":"AT","city":"Vorau","cap_beds":"112","postcode":"8250","house_number":"101","lon":"15.88246","url":"http:\/\/www.marienkrankenhaus.at","pub_date":"2020_03_18","street":"Spitalstraße","name":"Marienkrankenhaus Vorau","tel":"03337 2254","id":"K652","list_specs":"GEM","lat":"47.40506"},"id":"2454"},{"type":"Feature","properties":{"the_geom":{"type":"Point","coordinates":[15.5578,46.7707]},"country":"AT","city":"Wagna","cap_beds":"236","postcode":"8435","house_number":"18","lon":"15.55776","url":"http:\/\/www.lkh-suedsteiermark.at","pub_date":"2020_03_18","street":"Pelzmannstraße","name":"Landeskrankenhaus Südsteiermark","tel":"03452 701 0","id":"K654","list_specs":"AN, GEM, IM","lat":"46.77069"},"id":"2455"},{"type":"Feature","properties":{"the_geom":{"type":"Point","coordinates":[15.6367,47.2125]},"country":"AT","city":"Weiz","cap_beds":"80","postcode":"8160","house_number":"85","lon":"15.63672","url":"http:\/\/www.lkh-weiz.at","pub_date":"2020_03_18","street":"Franz-Pichler-Straße","name":"Landeskrankenhaus Weiz","tel":"03172 2214","id":"K655","list_specs":"GEM","lat":"47.21248"},"id":"2456"},{"type":"Feature","properties":{"the_geom":{"type":"Point","coordinates":[15.4446,47.0831]},"country":"AT","city":"Graz","cap_beds":"50","postcode":"8010","house_number":"42","lon":"15.44462","url":"http:\/\/www.privatklinikum-hansa.at","pub_date":"2020_03_18","street":"Körblergasse","name":"Hansa Privatklinikum","tel":"0316 3600 0","id":"K659","list_specs":"","lat":"47.08312"},"id":"2457"},{"type":"Feature","properties":{"the_geom":{"type":"Point","coordinates":[15.4991,47.1809]},"country":"AT","city":"St. Radegund bei Graz","cap_beds":"185","postcode":"8061","house_number":"38-40","lon":"15.49913","url":"http:\/\/www.privatklinik-stradegund.at","pub_date":"2020_03_18","street":"Diepoldsbergerstraße","name":"Privatklinik St. Radegund für Innere Medizin, Psychiatrie, Neurologie, Orthopädie und Geriatrie\/Gerontologie","tel":"03132 53553","id":"K663","list_specs":"","lat":"47.18093"},"id":"2458"},{"type":"Feature","properties":{"the_geom":{"type":"Point","coordinates":[15.2311,46.8121]},"country":"AT","city":"Deutschlandsberg","cap_beds":"292","postcode":"8530","house_number":"29","lon":"15.2311","url":"http:\/\/www.lkh-deutschlandsberg.at","pub_date":"2020_03_18","street":"Radlpaßstraße","name":"Landeskrankenhaus Weststeiermark","tel":"03462 4411 0","id":"K664","list_specs":"GEM, IM","lat":"46.81207"},"id":"2459"},{"type":"Feature","properties":{"the_geom":{"type":"Point","coordinates":[15.4301,47.064]},"country":"AT","city":"Graz","cap_beds":"135","postcode":"8020","house_number":"36","lon":"15.43007","url":"","pub_date":"2020_03_18","street":"Albert-Schweitzer-Gasse","name":"Albert Schweitzer Klinik (gehört zu K615)","tel":"0316 7060 1999","id":"K665+","list_specs":"","lat":"47.06399"},"id":"2460"},{"type":"Feature","properties":{"the_geom":{"type":"Point","coordinates":[15.3855,47.0635]},"country":"AT","city":"Graz-Wetzelsdorf","cap_beds":"45","postcode":"8052","house_number":"16","lon":"15.38551","url":"http:\/\/www.kastanienhof.at","pub_date":"2020_03_18","street":"Gritzenweg","name":"Privatklinik Kastanienhof","tel":"0316 57 39 60","id":"K667","list_specs":"","lat":"47.06349"},"id":"2461"},{"type":"Feature","properties":{"the_geom":{"type":"Point","coordinates":[15.578,47.0759]},"country":"AT","city":"Laßnitzhöhe","cap_beds":"227","postcode":"8301","house_number":"18","lon":"15.57801","url":"http:\/\/www.privatklinik-lassnitzhoehe.at","pub_date":"2020_03_18","street":"Miglitzpromenade","name":"Privatklinik Laßnitzhöhe","tel":"03133 2274","id":"K668","list_specs":"","lat":"47.07591"},"id":"2462"},{"type":"Feature","properties":{"the_geom":{"type":"Point","coordinates":[15.3242,47.2706]},"country":"AT","city":"Frohnleiten","cap_beds":"162","postcode":"8130","house_number":"3-5","lon":"15.32422","url":"http:\/\/www.theresienhof.at","pub_date":"2020_03_18","street":"Hauptplatz","name":"Theresienhof, Klinikum für Orthopädie und orthopädische Rehabilitation","tel":"03126 4700","id":"K670","list_specs":"","lat":"47.27056"},"id":"2463"},{"type":"Feature","properties":{"the_geom":{"type":"Point","coordinates":[15.9779,46.6878]},"country":"AT","city":"Bad Radkersburg","cap_beds":"315","postcode":"8490","house_number":"24","lon":"15.97785","url":"http:\/\/www.klinik-maria-theresia.at","pub_date":"2020_03_18","street":"Thermenstraße","name":"Reha Radkersburg, Radkersburger Hof - SKA zur Rehabililitation neurologischer, orthopädischer und rheumatischer Erkrankungen sowie ambulante Untersuchungen und Behandlungen","tel":"03476 3860 0","id":"K671","list_specs":"","lat":"46.68781"},"id":"2464"},{"type":"Feature","properties":{"the_geom":{"type":"Point","coordinates":[14.656,47.1659]},"country":"AT","city":"Judenburg","cap_beds":"439","postcode":"8750","house_number":"18","lon":"14.65602","url":"http:\/\/www.lkh-judenburg.at","pub_date":"2020_03_18","street":"Oberweggasse","name":"Landeskrankenhaus Murtal","tel":"03572 825 60 0","id":"K672","list_specs":"AN, IM","lat":"47.16591"},"id":"2465"},{"type":"Feature","properties":{"the_geom":{"type":"Point","coordinates":[15.3996,47.0778]},"country":"AT","city":"Graz Postfach","cap_beds":"940","postcode":"8021","house_number":"22","lon":"15.39955","url":"http:\/\/www.lkh-grazwest.at","pub_date":"2020_03_18","street":"Göstinger Straße","name":"LKH Graz II","tel":"0316 5466 0","id":"K673","list_specs":"AN, IM, NEU","lat":"47.07775"},"id":"2466"},{"type":"Feature","properties":{"the_geom":{"type":"Point","coordinates":[15.4757,47.0773]},"country":"AT","city":"Graz-Ragnitz","cap_beds":"144","postcode":"8047","house_number":"15","lon":"15.47567","url":"http:\/\/www.privatklinik-grazragnitz.at","pub_date":"2020_03_18","street":"Berthold-Linder-Weg","name":"Privatklinik Graz-Ragnitz","tel":"0316 596 0","id":"K674","list_specs":"","lat":"47.07727"},"id":"2467"},{"type":"Feature","properties":{"the_geom":{"type":"Point","coordinates":[14.1865,47.1192]},"country":"AT","city":"Stolzalpe","cap_beds":"28","postcode":"8852","house_number":"38","lon":"14.18647","url":"http:\/\/www.reha-stolzalpe.at","pub_date":"2020_03_18","street":"Stolzalpe","name":"Sonderkrankenanstalt für orthopädische und neuroorthopädische Rehabilitiation","tel":"03532 44719","id":"K675","list_specs":"","lat":"47.11915"},"id":"2468"},{"type":"Feature","properties":{"the_geom":{"type":"Point","coordinates":[15.3412,47.1149]},"country":"AT","city":"Judendorf-Straßengel","cap_beds":"196","postcode":"8111","house_number":"15","lon":"15.3412","url":"http:\/\/www.klinik-judendorf.at","pub_date":"2020_03_18","street":"Grazer Straße","name":"Rehabilitationsklinik für Neurologie, Pädiatrie, Orthopädie und Onkologie","tel":"03124 90520","id":"K676","list_specs":"","lat":"47.11487"},"id":"2469"},{"type":"Feature","properties":{"the_geom":{"type":"Point","coordinates":[15.0855,47.3801]},"country":"AT","city":"Leoben","cap_beds":"6","postcode":"8700","house_number":"42","lon":"15.0855","url":"http:\/\/www.lkh-leoben.at","pub_date":"2020_03_18","street":"Vordernbergerstraße","name":"Pflegeanstalt für chronisch Kranke","tel":"03842 401 0","id":"K677","list_specs":"","lat":"47.38012"},"id":"2470"},{"type":"Feature","properties":{"the_geom":{"type":"Point","coordinates":[15.5383,46.7922]},"country":"AT","city":"Leibnitz","cap_beds":"124","postcode":"8430","house_number":"74","lon":"15.5383","url":"http:\/\/sanlas.at","pub_date":"2020_03_18","street":"Grazerstraße","name":"Pflegeananstalt für chronisch psychisch Kranke Neutillmitsch-Gralla","tel":"03452 83325","id":"K678","list_specs":"","lat":"46.79219"},"id":"2471"},{"type":"Feature","properties":{"the_geom":{"type":"Point","coordinates":[14.4129,47.0214]},"country":"AT","city":"Wildbad Einöd","cap_beds":"75","postcode":"9323","house_number":"8","lon":"14.412913051544","url":"http:\/\/www.wildbad.at\/psychiatrische-und-vater-mutter-kind-rehabilitation\/","pub_date":"2020_03_18","street":"Wildbad","name":"OptimaMed Rehabilitation Wildbad","tel":"04268 28 22 0","id":"K680","list_specs":"","lat":"47.0214439708202"},"id":"2472"},{"type":"Feature","properties":{"the_geom":{"type":"Point","coordinates":[14.4129,47.0214]},"country":"AT","city":"Wildbad Einöd","cap_beds":"52","postcode":"9323","house_number":"8","lon":"14.412913051544","url":"","pub_date":"2020_03_18","street":"Wildbad","name":"OptimaMed Kinder- und Jugend-Rehabilitation","tel":"","id":"K682","list_specs":"","lat":"47.0214439708202"},"id":"2473"},{"type":"Feature","properties":{"the_geom":{"type":"Point","coordinates":[12.1031,47.5055]},"country":"AT","city":"Bad Häring","cap_beds":"136","postcode":"6323","house_number":"1","lon":"12.10311","url":"http:\/\/www.auva.at\/rzhaering","pub_date":"2020_03_18","street":"Rehaweg","name":"Rehabilitationszentrum Bad Häring","tel":"05332 790 0","id":"K701","list_specs":"","lat":"47.50547"},"id":"2474"},{"type":"Feature","properties":{"the_geom":{"type":"Point","coordinates":[11.5156,47.2823]},"country":"AT","city":"Hall in Tirol","cap_beds":"527","postcode":"6060","house_number":"10","lon":"11.51559","url":"http:\/\/www.tirol-kliniken.at","pub_date":"2020_03_18","street":"Milser Straße","name":"Landeskrankenhaus Hall in Tirol","tel":"05223 508 0","id":"K704","list_specs":"GEM","lat":"47.28234"},"id":"2475"},{"type":"Feature","properties":{"the_geom":{"type":"Point","coordinates":[12.3958,47.4495]},"country":"AT","city":"Kitzbühel","cap_beds":"120","postcode":"6370","house_number":"32","lon":"12.39578","url":"www.reha-kitz.at","pub_date":"2020_03_18","street":"Hornweg","name":"Rehabilitationszentrum Kitzbühel","tel":"05356 67067 0","id":"K705","list_specs":"","lat":"47.44947"},"id":"2476"},{"type":"Feature","properties":{"the_geom":{"type":"Point","coordinates":[11.3875,47.2634]},"country":"AT","city":"Innsbruck","cap_beds":"1457","postcode":"6020","house_number":"35","lon":"11.38755","url":"http:\/\/www.tirol-kliniken.at","pub_date":"2020_03_18","street":"Anichstraße","name":"Landeskrankenhaus Universitätskliniken Innsbruck","tel":"0512\/ 04 0","id":"K706","list_specs":"AN, CH, HCH, IM, KIJU, NCH, NEU, ORTR","lat":"47.26338"},"id":"2477"},{"type":"Feature","properties":{"the_geom":{"type":"Point","coordinates":[11.2638,47.3121]},"country":"AT","city":"Zirl","cap_beds":"325","postcode":"6170","house_number":"","lon":"11.263765335083008","url":"http:\/\/www.tirol-kliniken.at","pub_date":"2020_03_18","street":"Anna-Dengel-Haus","name":"Ö. Landeskrankenhaus Hochzirl - Natters","tel":"05238 501 0","id":"K707","list_specs":"PUL","lat":"47.31210708618164"},"id":"2478"},{"type":"Feature","properties":{"the_geom":{"type":"Point","coordinates":[11.4078,47.2795]},"country":"AT","city":"Innsbruck","cap_beds":"182","postcode":"6020","house_number":"1","lon":"11.40778","url":"http:\/\/www.sanatorium-kettenbruecke.at","pub_date":"2020_03_18","street":"Sennstraße","name":"Sanatorium Kettenbrücke der Barmherzigen Schwestern","tel":"0512 2112 0","id":"K708","list_specs":"","lat":"47.27953"},"id":"2479"},{"type":"Feature","properties":{"the_geom":{"type":"Point","coordinates":[11.4472,47.2886]},"country":"AT","city":"Rum","cap_beds":"124","postcode":"6063","house_number":"41","lon":"11.44717","url":"http:\/\/www.privatklinik-hochrum.com","pub_date":"2020_03_18","street":"Lärchenstraße","name":"Privatklinik Hochrum - Sanatorium der Kreuzschwestern Innsbruck","tel":"0512 234 0","id":"K709","list_specs":"","lat":"47.28862"},"id":"2480"},{"type":"Feature","properties":{"the_geom":{"type":"Point","coordinates":[10.6998,47.2141]},"country":"AT","city":"Imst","cap_beds":"","postcode":"6460","house_number":"1","lon":"10.6998","url":"http:\/\/www.medalp.com","pub_date":"2020_03_18","street":"Medalp Platz","name":"Medalp Sportclinic Imst","tel":"05418 511 00","id":"K711","list_specs":"","lat":"47.21408"},"id":"2481"},{"type":"Feature","properties":{"the_geom":{"type":"Point","coordinates":[12.7636,46.8353]},"country":"AT","city":"Lienz","cap_beds":"372","postcode":"9900","house_number":"5","lon":"12.7636","url":"","pub_date":"2020_03_18","street":"Emanuel-von-Hibler-Straße","name":"Bezirkskrankenhaus Lienz","tel":"04852 606 0","id":"K714","list_specs":"AN, IM, KIJU","lat":"46.83531"},"id":"2482"},{"type":"Feature","properties":{"the_geom":{"type":"Point","coordinates":[10.7121,47.4737]},"country":"AT","city":"Reutte","cap_beds":"117","postcode":"6600","house_number":"39","lon":"10.71214","url":"http:\/\/www.bkh-reutte.at","pub_date":"2020_03_18","street":"Krankenhausstraße","name":"Bezirkskrankenhaus Reutte","tel":"05672 601 0","id":"K717","list_specs":"GEM","lat":"47.47366"},"id":"2483"},{"type":"Feature","properties":{"the_geom":{"type":"Point","coordinates":[12.43,47.5209]},"country":"AT","city":"St. Johann in Tirol","cap_beds":"274","postcode":"6380","house_number":"14","lon":"12.43003","url":"http:\/\/www.khsj.at","pub_date":"2020_03_18","street":"Bahnhofstraße","name":"Bezirkskrankenhaus St. Johann in Tirol","tel":"05352 606 0","id":"K719","list_specs":"GEM, IM","lat":"47.52094"},"id":"2484"},{"type":"Feature","properties":{"the_geom":{"type":"Point","coordinates":[11.7051,47.3448]},"country":"AT","city":"Schwaz","cap_beds":"272","postcode":"6130","house_number":"1","lon":"11.70508","url":"http:\/\/www.kh-schwaz.at","pub_date":"2020_03_18","street":"Swarovskistraße","name":"Bezirkskrankenhaus Schwaz","tel":"05242 600 0","id":"K720","list_specs":"IM","lat":"47.34481"},"id":"2485"},{"type":"Feature","properties":{"the_geom":{"type":"Point","coordinates":[10.5936,47.162]},"country":"AT","city":"Zams","cap_beds":"336","postcode":"6511","house_number":"43","lon":"10.59362","url":"http:\/\/www.khzams.at","pub_date":"2020_03_18","street":"Sanatoriumstraße","name":"Krankenhaus St. Vinzenz Zams","tel":"05442 600 0","id":"K722","list_specs":"AN, IM","lat":"47.16196"},"id":"2486"},{"type":"Feature","properties":{"the_geom":{"type":"Point","coordinates":[11.4166,47.2608]},"country":"AT","city":"Innsbruck","cap_beds":"25","postcode":"6020","house_number":"4","lon":"11.41663","url":"","pub_date":"2020_03_18","street":"Köldererstraße","name":"heereseigene Sonderkrankenanstalt INNSBRUCK","tel":"0512 3317 5611","id":"K724","list_specs":"","lat":"47.26081"},"id":"2487"},{"type":"Feature","properties":{"the_geom":{"type":"Point","coordinates":[12.8294,46.8312]},"country":"AT","city":"Dölsach","cap_beds":"52","postcode":"9991","house_number":"7","lon":"12.82943","url":"","pub_date":"2020_03_18","street":"Stronach","name":"Rehabilitationszentrum Ederhof","tel":"04852 699 90","id":"K729","list_specs":"","lat":"46.83122"},"id":"2488"},{"type":"Feature","properties":{"the_geom":{"type":"Point","coordinates":[12.1504,47.5711]},"country":"AT","city":"Kufstein","cap_beds":"385","postcode":"6330","house_number":"27","lon":"12.15035","url":"http:\/\/www.bkh-kufstein.at","pub_date":"2020_03_18","street":"Endach","name":"Bezirkskrankenhaus Kufstein","tel":"05372 6966 0","id":"K731","list_specs":"GEM, KIJU","lat":"47.57112"},"id":"2489"},{"type":"Feature","properties":{"the_geom":{"type":"Point","coordinates":[12.0618,47.4887]},"country":"AT","city":"Wörgl","cap_beds":"29","postcode":"6300","house_number":"8","lon":"12.06183","url":"","pub_date":"2020_03_18","street":"Fritz-Atzl-Straße","name":"Kursana Sanatorium Wörgl","tel":"05332 74572","id":"K732","list_specs":"","lat":"47.48865"},"id":"2490"},{"type":"Feature","properties":{"the_geom":{"type":"Point","coordinates":[12.3168,47.6544]},"country":"AT","city":"Walchsee","cap_beds":"49","postcode":"6344","house_number":"30","lon":"12.31682","url":"http:\/\/www.wittlinger-therapiezentrum.com","pub_date":"2020_03_18","street":"Alleestraße","name":"Wittlinger Therapiezentrum -  Walchsee","tel":"05374 5245 0","id":"K733","list_specs":"","lat":"47.65435"},"id":"2491"},{"type":"Feature","properties":{"the_geom":{"type":"Point","coordinates":[11.8385,47.421]},"country":"AT","city":"Münster","cap_beds":"260","postcode":"6232","house_number":"700","lon":"11.83851","url":"http:\/\/www.reha-muenster.at","pub_date":"2020_03_18","street":"Gröben","name":"Rehabilitationszentrum Münster - Klinikum für Rehabilitation in Tirol für Neurologie, Kardiologie und Pulmologie und Onkologie","tel":"","id":"K734","list_specs":"","lat":"47.42101"},"id":"2492"},{"type":"Feature","properties":{"the_geom":{"type":"Point","coordinates":[9.8202,47.1595]},"country":"AT","city":"Bludenz","cap_beds":"145","postcode":"6700","house_number":"13","lon":"9.82019","url":"http:\/\/www.lkhz.at","pub_date":"2020_03_18","street":"Spitalgasse","name":"Landeskrankenhaus Bludenz","tel":"05552 603","id":"K802","list_specs":"GEM","lat":"47.15947"},"id":"2493"},{"type":"Feature","properties":{"the_geom":{"type":"Point","coordinates":[9.7453,47.4967]},"country":"AT","city":"Bregenz","cap_beds":"259","postcode":"6900","house_number":"2","lon":"9.74528","url":"http:\/\/www.lkhb.at","pub_date":"2020_03_18","street":"Carl-Pedenz-Straße","name":"Landeskrankenhaus Bregenz","tel":"05574 401 0","id":"K803","list_specs":"IM, KIJU","lat":"47.49673"},"id":"2494"},{"type":"Feature","properties":{"the_geom":{"type":"Point","coordinates":[9.7401,47.4061]},"country":"AT","city":"Dornbirn","cap_beds":"284","postcode":"6850","house_number":"4","lon":"9.74012","url":"http:\/\/krankenhaus.dornbirn.at","pub_date":"2020_03_18","street":"Lustenauer Straße","name":"Krankenhaus der Stadt Dornbirn","tel":"05572 303 0","id":"K807","list_specs":"GEM, KIJU","lat":"47.40607"},"id":"2495"},{"type":"Feature","properties":{"the_geom":{"type":"Point","coordinates":[9.6814,47.3631]},"country":"AT","city":"Hohenems","cap_beds":"152","postcode":"6845","house_number":"31","lon":"9.68135","url":"http:\/\/www.lkhh.at","pub_date":"2020_03_18","street":"Bahnhofstraße","name":"Landeskrankenhaus Hohenems","tel":"05576 703 0","id":"K816","list_specs":"IM","lat":"47.36307"},"id":"2496"},{"type":"Feature","properties":{"the_geom":{"type":"Point","coordinates":[9.6484,47.2611]},"country":"AT","city":"Rankweil","cap_beds":"364","postcode":"6830","house_number":"16","lon":"9.64837","url":"http:\/\/www.lkhr.at","pub_date":"2020_03_18","street":"Valdunastraße","name":"Landeskrankenhaus Rankweil","tel":"05522 403 0","id":"K824","list_specs":"PSY","lat":"47.26114"},"id":"2497"},{"type":"Feature","properties":{"the_geom":{"type":"Point","coordinates":[9.6484,47.2611]},"country":"AT","city":"Rankweil","cap_beds":"23","postcode":"6830","house_number":"16","lon":"9.64837","url":"","pub_date":"2020_03_18","street":"Valdunastraße","name":"Pflegeabteilung des LKH Rankweil (gehört zu K824)","tel":"","id":"K825+","list_specs":"","lat":"47.26114"},"id":"2498"},{"type":"Feature","properties":{"the_geom":{"type":"Point","coordinates":[9.6041,47.2209]},"country":"AT","city":"Frastanz","cap_beds":"85","postcode":"6820","house_number":"17","lon":"9.60406","url":"http:\/\/www.mariaebene.at","pub_date":"2020_03_18","street":"Maria Ebene","name":"Krankenhaus Stiftung Maria Ebene Frastanz","tel":"05522 727 46 0","id":"K828","list_specs":"","lat":"47.22092"},"id":"2499"},{"type":"Feature","properties":{"the_geom":{"type":"Point","coordinates":[9.5797,47.2318]},"country":"AT","city":"Feldkirch","cap_beds":"619","postcode":"6800","house_number":"47","lon":"9.57969","url":"http:\/\/www.lkhf.at","pub_date":"2020_03_18","street":"Carinagasse","name":"Landeskrankenhaus Feldkirch","tel":"05522 303 0","id":"K830","list_specs":"GEM, IM, KIJU","lat":"47.23176"},"id":"2500"},{"type":"Feature","properties":{"the_geom":{"type":"Point","coordinates":[10.1249,47.2153]},"country":"AT","city":"Lech","cap_beds":"11","postcode":"6764","house_number":"439","lon":"10.124895095825195","url":"https:\/\/www.drrohmberg.at","pub_date":"2020_03_18","street":"Oberstubenbach","name":"Unfallsanatorium Dr. Rhomberg","tel":"05583 2234","id":"K838","list_specs":"","lat":"47.215328216552734"},"id":"2501"},{"type":"Feature","properties":{"the_geom":{"type":"Point","coordinates":[9.9134,47.0736]},"country":"AT","city":"Schruns","cap_beds":"8","postcode":"6780","house_number":"29","lon":"9.91341","url":"http:\/\/www.dr-schenk.at","pub_date":"2020_03_18","street":"Montafonerstraße","name":"Sanatorium Dr. Schenk","tel":"05556 740 00 0","id":"K853","list_specs":"","lat":"47.07364"},"id":"2502"},{"type":"Feature","properties":{"the_geom":{"type":"Point","coordinates":[9.9181,47.0786]},"country":"AT","city":"Schruns","cap_beds":"153","postcode":"6780","house_number":"4a","lon":"9.91811","url":"http:\/\/www.rehaklinik-montafon.at","pub_date":"2020_03_18","street":"Wagenweg","name":"Rehabilitationsklinik Montafon","tel":"05556 205","id":"K862","list_specs":"","lat":"47.07856"},"id":"2503"},{"type":"Feature","properties":{"the_geom":{"type":"Point","coordinates":[9.7169,47.5028]},"country":"AT","city":"Bregenz","cap_beds":"10","postcode":"6900","house_number":"72","lon":"9.7169","url":"http:\/\/www.hospiz-vorarlberg.at","pub_date":"2020_03_18","street":"Mehrerauerstraße","name":"Hospiz am See","tel":"05522 200 1100","id":"K863","list_specs":"","lat":"47.50284"},"id":"2504"},{"type":"Feature","properties":{"the_geom":{"type":"Point","coordinates":[16.3444,48.2202]},"country":"AT","city":"Wien","cap_beds":"1621","postcode":"1090","house_number":"18-20","lon":"16.34435","url":"http:\/\/www.akhwien.at","pub_date":"2020_03_18","street":"Währinger Gürtel","name":"Allgemeines Krankenhaus der Stadt Wien-Medizinischer Universitätscampus","tel":"01 40 400 0","id":"K901","list_specs":"AN, CH, DER, GEM, HCH, IM, KIJU, KJC, NCH, NEU, PCH, PSY","lat":"48.22019"},"id":"2505"},{"type":"Feature","properties":{"the_geom":{"type":"Point","coordinates":[16.246,48.1357]},"country":"AT","city":"Wien","cap_beds":"253","postcode":"1230","house_number":"7-9","lon":"16.2460349","url":"http:\/\/www.api.or.at","pub_date":"2020_03_18","street":"Mackgasse","name":"Anton-Proksch-Institut","tel":"01 888 10 0","id":"K902","list_specs":"","lat":"48.13571"},"id":"2506"},{"type":"Feature","properties":{"the_geom":{"type":"Point","coordinates":[16.3822,48.2156]},"country":"AT","city":"Wien","cap_beds":"378","postcode":"1020","house_number":"1","lon":"16.38221810951472","url":"http:\/\/www.bbwien.at","pub_date":"2020_03_18","street":"Johannes von Gott Platz","name":"Krankenhaus der Barmherzigen Brüder","tel":"01 21121 0","id":"K903","list_specs":"AN, IM","lat":"48.21559667059289"},"id":"2507"},{"type":"Feature","properties":{"the_geom":{"type":"Point","coordinates":[16.346,48.1925]},"country":"AT","city":"Wien","cap_beds":"215","postcode":"1060","house_number":"13","lon":"16.345968526921194","url":"http:\/\/www.bhs-wien.at","pub_date":"2020_03_18","street":"Stumpergasse","name":"Krankenhaus der Barmherzigen Schwestern vom heiligen Vinzenz von Paul","tel":"01 599 88 0","id":"K904","list_specs":"AN, IM","lat":"48.19249811629872"},"id":"2508"},{"type":"Feature","properties":{"the_geom":{"type":"Point","coordinates":[16.3485,48.2146]},"country":"AT","city":"Wien","cap_beds":"96","postcode":"1080","house_number":"32","lon":"16.34852","url":"http:\/\/www.confraternitaet.at","pub_date":"2020_03_18","street":"Skodagasse","name":"Privatklinik Confraternität","tel":"01 401 14 0","id":"K905","list_specs":"","lat":"48.21461"},"id":"2509"},{"type":"Feature","properties":{"the_geom":{"type":"Point","coordinates":[16.285,48.2102]},"country":"AT","city":"Wien","cap_beds":"222","postcode":"1140","house_number":"1","lon":"16.28502","url":"http:\/\/www.rehawienbaumgarten.at","pub_date":"2020_03_18","street":"Reizenpfenniggasse","name":"Rehaklinik Baumgarten","tel":"01 41 500","id":"K907","list_specs":"","lat":"48.21017"},"id":"2510"},{"type":"Feature","properties":{"the_geom":{"type":"Point","coordinates":[16.3457,48.2241]},"country":"AT","city":"Wien","cap_beds":"226","postcode":"1180","house_number":"10-12","lon":"16.34571","url":"http:\/\/www.ekhwien.at","pub_date":"2020_03_18","street":"Hans-Sachs-Gasse","name":"Evangelisches Krankenhaus","tel":"01 40422 0","id":"K908","list_specs":"GEM","lat":"48.22413"},"id":"2511"},{"type":"Feature","properties":{"the_geom":{"type":"Point","coordinates":[16.3522,48.1755]},"country":"AT","city":"Wien","cap_beds":"730","postcode":"1100","house_number":"3","lon":"16.35218","url":"http:\/\/www.wienkav.at\/kav\/szx\/","pub_date":"2020_03_18","street":"Kundratstraße","name":"Sozialmedizinisches Zentrum Süd, Kaiser-Franz-Josef-Spital mit Gottfried von Preyer'schem Kinderspital","tel":"01 601 91 0","id":"K910","list_specs":"AN, IM, KIJU","lat":"48.17547"},"id":"2512"},{"type":"Feature","properties":{"the_geom":{"type":"Point","coordinates":[16.347,48.2176]},"country":"AT","city":"Wien","cap_beds":"94","postcode":"1090","house_number":"16-18","lon":"16.34703","url":"http:\/\/www.goldenes-kreuz.at","pub_date":"2020_03_18","street":"Lazarettgasse","name":"Privatklinik Goldenes Kreuz","tel":"01 401 11 0","id":"K911","list_specs":"","lat":"48.21755"},"id":"2513"},{"type":"Feature","properties":{"the_geom":{"type":"Point","coordinates":[16.2938,48.199]},"country":"AT","city":"Wien","cap_beds":"347","postcode":"1140","house_number":"30","lon":"16.293806602588994","url":"http:\/\/www.hanusch-krankenhaus.at","pub_date":"2020_03_18","street":"Heinrich-Collin-Straße","name":"Hanusch-Krankenhaus","tel":"01 910 21 0","id":"K912","list_specs":"AN","lat":"48.198991886290884"},"id":"2514"},{"type":"Feature","properties":{"the_geom":{"type":"Point","coordinates":[16.3516,48.2264]},"country":"AT","city":"Wien","cap_beds":"102","postcode":"1090","house_number":"14","lon":"16.35164674092025","url":"http:\/\/www.hera.co.at","pub_date":"2020_03_18","street":"Löblichgasse","name":"Sanatorium Hera","tel":"01 313 50 0","id":"K913","list_specs":"","lat":"48.22639482366377"},"id":"2515"},{"type":"Feature","properties":{"the_geom":{"type":"Point","coordinates":[16.3984,48.1956]},"country":"AT","city":"Wien","cap_beds":"147","postcode":"1030","house_number":"20a","lon":"16.39837","url":"http:\/\/www.kh-herzjesu.at","pub_date":"2020_03_18","street":"Baumgasse","name":"Herz Jesu-Krankenhaus","tel":"01 712 26 84 0","id":"K914","list_specs":"AN","lat":"48.1956"},"id":"2516"},{"type":"Feature","properties":{"the_geom":{"type":"Point","coordinates":[16.3618,48.1879]},"country":"AT","city":"Wien","cap_beds":"228","postcode":"1050","house_number":"26-36","lon":"16.3618232","url":"http:\/\/www.franziskusspital.com","pub_date":"2020_03_18","street":"Nikolsdorfergasse","name":"FRANZISKUS SPITAL","tel":"01 54 60 50","id":"K915","list_specs":"GEM","lat":"48.1878718"},"id":"2517"},{"type":"Feature","properties":{"the_geom":{"type":"Point","coordinates":[16.2794,48.1694]},"country":"AT","city":"Wien","cap_beds":"995","postcode":"1130","house_number":"1","lon":"16.27942","url":"http:\/\/www.wienkav.at\/kav\/khl\/","pub_date":"2020_03_18","street":"Wolkersbergenstraße","name":"Krankenhaus Hietzing mit Neurologischem Zentrum Rosenhügel","tel":"01 801 10 0","id":"K916","list_specs":"AN, CH, HCH, IM, NEU","lat":"48.16942"},"id":"2518"},{"type":"Feature","properties":{"the_geom":{"type":"Point","coordinates":[16.3912,48.1966]},"country":"AT","city":"Wien","cap_beds":"675","postcode":"1030","house_number":"25","lon":"16.39116666743483","url":"http:\/\/www.wienkav.at\/kav\/kar\/","pub_date":"2020_03_18","street":"Juchgasse","name":"Krankenanstalt Rudolfstiftung der Stadt Wien inklusive dem Standort Semmelweis-Frauenklinik","tel":"01 711 65 0","id":"K917","list_specs":"AN, IM, KIJU","lat":"48.19658007843794"},"id":"2519"},{"type":"Feature","properties":{"the_geom":{"type":"Point","coordinates":[16.2628,48.1945]},"country":"AT","city":"Wien","cap_beds":"148","postcode":"1130","house_number":"189","lon":"16.262819668861216","url":"http:\/\/www.sjk-wien.at","pub_date":"2020_03_18","street":"Auhofstraße","name":"St. Josef-Krankenhaus","tel":"01 878 44 0","id":"K919","list_specs":"GEM, KIJU","lat":"48.19451952947924"},"id":"2520"},{"type":"Feature","properties":{"the_geom":{"type":"Point","coordinates":[16.3433,48.1728]},"country":"AT","city":"Wien","cap_beds":"267","postcode":"1120","house_number":"37","lon":"16.3432646","url":"http:\/\/www.auva.at\/ukhmeidling","pub_date":"2020_03_18","street":"Kundratstraße","name":"Traumazentrum Wien der Allgemeinen Unfallversicherungsanstalt","tel":"01 601 50 0","id":"K920","list_specs":"","lat":"48.172795"},"id":"2521"},{"type":"Feature","properties":{"the_geom":{"type":"Point","coordinates":[16.3017,48.2112]},"country":"AT","city":"Wien","cap_beds":"933","postcode":"1160","house_number":"37","lon":"16.30172","url":"http:\/\/www.wienkav.at\/kav\/wil\/","pub_date":"2020_03_18","street":"Montleartstraße","name":"Wilhelminenspital der Stadt Wien","tel":"01 491 50 0","id":"K921","list_specs":"AN, IM, KIJU","lat":"48.21116"},"id":"2522"},{"type":"Feature","properties":{"the_geom":{"type":"Point","coordinates":[16.2861,48.197]},"country":"AT","city":"Wien","cap_beds":"313","postcode":"1140","house_number":"188","lon":"16.28606670006093","url":"http:\/\/www.wienkav.at\/kav\/gzb\/","pub_date":"2020_03_18","street":"Hütteldorfer Straße","name":"Pflegewohnhaus Baumgarten - Pflegeanstalt für chronisch Kranke","tel":"01 910 34 0","id":"K924","list_specs":"","lat":"48.19699063118642"},"id":"2523"},{"type":"Feature","properties":{"the_geom":{"type":"Point","coordinates":[16.3541,48.2137]},"country":"AT","city":"Wien","cap_beds":"76","postcode":"1082","house_number":"18-22","lon":"16.35409","url":"http:\/\/www.bmj.gv.at","pub_date":"2020_03_18","street":"Wickenburggasse","name":"Sonderkrankenanstalt der Justizanstalt Wien-Josefstadt","tel":"01 404 03 358343","id":"K927","list_specs":"","lat":"48.21374"},"id":"2524"},{"type":"Feature","properties":{"the_geom":{"type":"Point","coordinates":[16.3135,48.2185]},"country":"AT","city":"Wien","cap_beds":"350","postcode":"1160","house_number":"30A","lon":"16.31349","url":"http:\/\/www.hausderbarmherzigkeit.at","pub_date":"2020_03_18","street":"Seeböckgasse","name":"Haus der Barmherzigkeit Seeböckgasse","tel":"01 401 99 1326","id":"K931","list_specs":"","lat":"48.2185"},"id":"2525"},{"type":"Feature","properties":{"the_geom":{"type":"Point","coordinates":[16.4195,48.2957]},"country":"AT","city":"Wien","cap_beds":"25","postcode":"1210","house_number":"238","lon":"16.419492241174435","url":"","pub_date":"2020_03_18","street":"Brünner Straße","name":"Heereskrankenanstalt Wien","tel":"05020110 65115","id":"K933","list_specs":"","lat":"48.29571076490432"},"id":"2526"},{"type":"Feature","properties":{"the_geom":{"type":"Point","coordinates":[16.2809,48.1349]},"country":"AT","city":"Wien","cap_beds":"322","postcode":"1235","house_number":"1A","lon":"16.28085","url":"http:\/\/www.wienkav.at\/kav\/pli\/","pub_date":"2020_03_18","street":"Haeckelstraße","name":"Pflegewohnhaus Liesing - Pflegeanstalt für chronisch Kranke","tel":"01 86 600 0","id":"K939","list_specs":"","lat":"48.13489"},"id":"2527"},{"type":"Feature","properties":{"the_geom":{"type":"Point","coordinates":[16.2809,48.1641]},"country":"AT","city":"Wien","cap_beds":"262","postcode":"1130","house_number":"109","lon":"16.280857062239903","url":"http:\/\/www.oss.at","pub_date":"2020_03_18","street":"Speisinger Straße","name":"Orthopädisches Spital Speising","tel":"01 801 82 0","id":"K943","list_specs":"GEM","lat":"48.164068329721324"},"id":"2528"},{"type":"Feature","properties":{"the_geom":{"type":"Point","coordinates":[16.3452,48.1723]},"country":"AT","city":"Wien","cap_beds":"52","postcode":"1120","house_number":"2A","lon":"16.3452","url":"http:\/\/www.auva.at\/rzmeidling","pub_date":"2020_03_18","street":"Köglergasse","name":"Rehabilitationszentrum Meidling der Allgemeinen Unfallversicherungsanstalt","tel":"01 601 50 4000","id":"K945","list_specs":"","lat":"48.17233"},"id":"2529"},{"type":"Feature","properties":{"the_geom":{"type":"Point","coordinates":[16.3474,48.2433]},"country":"AT","city":"Wien","cap_beds":"155","postcode":"1190","house_number":"78","lon":"16.34738","url":"http:\/\/www.rudolfinerhaus.at","pub_date":"2020_03_18","street":"Billrothstraße","name":"Rudolfinerhaus","tel":"01 360 36 0","id":"K949","list_specs":"","lat":"48.24331"},"id":"2530"},{"type":"Feature","properties":{"the_geom":{"type":"Point","coordinates":[16.3011,48.2166]},"country":"AT","city":"Wien","cap_beds":"137","postcode":"1160","house_number":"6-10","lon":"16.30113","url":"","pub_date":"2020_03_18","street":"Kollburggasse","name":"Sanatorium Liebhartstal","tel":"01 488 07 0","id":"K951","list_specs":"","lat":"48.21663"},"id":"2531"},{"type":"Feature","properties":{"the_geom":{"type":"Point","coordinates":[16.3443,48.2159]},"country":"AT","city":"Wien","cap_beds":"119","postcode":"1090","house_number":"6","lon":"16.34434","url":"http:\/\/www.stanna.at","pub_date":"2020_03_18","street":"Kinderspitalgasse","name":"St. Anna-Kinderspital Zentrum für Kinder- und Jugendheilkunde","tel":"01 401 70 0","id":"K952","list_specs":"KIJU","lat":"48.21594"},"id":"2532"},{"type":"Feature","properties":{"the_geom":{"type":"Point","coordinates":[16.3481,48.2173]},"country":"AT","city":"Wien","cap_beds":"145","postcode":"1090","house_number":"15","lon":"16.348090711581925","url":"http:\/\/www.wpk.at","pub_date":"2020_03_18","street":"Pelikangasse","name":"Wiener Privatklinik","tel":"01 401 80 0","id":"K954","list_specs":"","lat":"48.21725528006179"},"id":"2533"},{"type":"Feature","properties":{"the_geom":{"type":"Point","coordinates":[16.3042,48.2276]},"country":"AT","city":"Wien","cap_beds":"274","postcode":"1170","house_number":"20-28","lon":"16.30423","url":"http:\/\/www.khgh.at","pub_date":"2020_03_18","street":"Dornbacher Straße","name":"Krankenhaus Göttlicher Heiland","tel":"01 400 88 0","id":"K955","list_specs":"AN, IM","lat":"48.22759"},"id":"2534"},{"type":"Feature","properties":{"the_geom":{"type":"Point","coordinates":[16.4642,48.219]},"country":"AT","city":"Wien","cap_beds":"954","postcode":"1220","house_number":"122","lon":"16.46422","url":"http:\/\/www.wienkav.at\/kav\/dsp","pub_date":"2020_03_18","street":"Langobardenstraße","name":"Sozialmedizinisches Zentrum Ost - Donauspital","tel":"01 288 02 0","id":"K956","list_specs":"AN, IM, KIJU, KJC, ORTR","lat":"48.21902"},"id":"2535"},{"type":"Feature","properties":{"the_geom":{"type":"Point","coordinates":[16.4642,48.219]},"country":"AT","city":"Wien","cap_beds":"382","postcode":"1220","house_number":"122","lon":"16.46422","url":"http:\/\/www.wienkav.at\/kav\/gzd\/","pub_date":"2020_03_18","street":"Langobardenstraße","name":"Pflegewohnhaus Donaustadt mit sozialmedizinischer Betreuung, Zentrum für Langzeitbeatmung und Appaliker Care Unit","tel":"01 288 02 0","id":"K957","list_specs":"","lat":"48.21902"},"id":"2536"},{"type":"Feature","properties":{"the_geom":{"type":"Point","coordinates":[16.3586,48.2388]},"country":"AT","city":"Wien","cap_beds":"160","postcode":"1190","house_number":"55-63","lon":"16.35859","url":"http:\/\/www.privatklinik-doebling.at","pub_date":"2020_03_18","street":"Heiligenstädter Straße","name":"Privatklinik Döbling - Vienna International Health Center","tel":"01 360 66 0","id":"K963","list_specs":"","lat":"48.23881"},"id":"2537"},{"type":"Feature","properties":{"the_geom":{"type":"Point","coordinates":[16.3408,48.2224]},"country":"AT","city":"Wien","cap_beds":"20","postcode":"1180","house_number":"17-19","lon":"16.34084","url":"http:\/\/www.privatklinik-waehring.com","pub_date":"2020_03_18","street":"Kreuzgasse","name":"Privatklinik Währing","tel":"650 328 73 37","id":"K970","list_specs":"","lat":"48.22238"},"id":"2538"},{"type":"Feature","properties":{"the_geom":{"type":"Point","coordinates":[16.2796,48.2068]},"country":"AT","city":"Wien","cap_beds":"600","postcode":"1140","house_number":"1","lon":"16.279600042082002","url":"http:\/\/www.wienkav.at\/kav\/ows\/","pub_date":"2020_03_18","street":"Baumgartner Höhe","name":"Sozialmedizinisches Zentrum Baumgartner Höhe, Otto Wagner-Spital","tel":"01 910 60 0","id":"K971","list_specs":"IM, PUL, TCH","lat":"48.206802955882075"},"id":"2539"},{"type":"Feature","properties":{"the_geom":{"type":"Point","coordinates":[16.2835,48.1591]},"country":"AT","city":"Wien","cap_beds":"147","postcode":"1130","house_number":"192a","lon":"16.28347","url":"http:\/\/www.nrz.at","pub_date":"2020_03_18","street":"Rosenhügelstraße","name":"Neurologisches Rehabilitationszentrum Rosenhügel","tel":"01 88 032 0","id":"K973","list_specs":"","lat":"48.15912"},"id":"2540"},{"type":"Feature","properties":{"the_geom":{"type":"Point","coordinates":[16.4306,48.2469]},"country":"AT","city":"Wien","cap_beds":"270","postcode":"1220","house_number":"4","lon":"16.43058","url":"http:\/\/www.hausderbarmherzigkeit.at","pub_date":"2020_03_18","street":"Tokiostraße","name":"Haus der Barmherzigkeit Tokiostraße","tel":"","id":"K975","list_specs":"","lat":"48.24687"},"id":"2541"},{"type":"Feature","properties":{"the_geom":{"type":"Point","coordinates":[16.4048,48.27]},"country":"AT","city":"Wien","cap_beds":"","postcode":"1210","house_number":"73","lon":"16.404812173300577","url":"http:\/\/www.khnord.at","pub_date":"2020_03_18","street":"Brünner Straße","name":"Krankenhaus Nord","tel":"01 277 00 0","id":"K976","list_specs":"","lat":"48.269996527260936"},"id":"2542"},{"type":"Feature","properties":{"the_geom":{"type":"Point","coordinates":[16.3273,48.1659]},"country":"AT","city":"Wien","cap_beds":"256","postcode":"1120","house_number":"2","lon":"16.32727","url":"","pub_date":"2020_03_18","street":"Stüber-Gunther-Gasse","name":"Pflegewohnhaus Meidling - Pflegeanstalt für chronisch Kranke","tel":"01 80 181 1300","id":"K977","list_specs":"","lat":"48.16591"},"id":"2543"},{"type":"Feature","properties":{"the_geom":{"type":"Point","coordinates":[16.3989,48.2271]},"country":"AT","city":"Wien","cap_beds":"306","postcode":"1020","house_number":"129-143","lon":"16.39893","url":"","pub_date":"2020_03_18","street":"Vorgartenstraße","name":"Pflegewohnhaus Leopoldstadt - Pflegeanstalt für chronisch Kranke","tel":"01 245 45 0","id":"K978","list_specs":"","lat":"48.22711"},"id":"2544"},{"type":"Feature","properties":{"the_geom":{"type":"Point","coordinates":[16.4165,48.1767]},"country":"AT","city":"Wien","cap_beds":"348","postcode":"1110","house_number":"5","lon":"16.41647","url":"","pub_date":"2020_03_18","street":"Dittmanngasse","name":"Pflegewohnhaus Simmering - Pflegeanstalt für chronisch Kranke","tel":"01 74084 0","id":"K979","list_specs":"","lat":"48.17669"},"id":"2545"},{"type":"Feature","properties":{"the_geom":{"type":"Point","coordinates":[16.3253,48.1967]},"country":"AT","city":"Wien","cap_beds":"324","postcode":"1150","house_number":"2","lon":"16.32527","url":"","pub_date":"2020_03_18","street":"Kardinal-Rauscher-Platz","name":"Pflegewohnhaus Rudolfsheim-Fünfhaus","tel":"01 215 35 0","id":"K980","list_specs":"","lat":"48.19673"},"id":"2546"},{"type":"Feature","properties":{"the_geom":{"type":"Point","coordinates":[16.3613,48.1737]},"country":"AT","city":"Wien","cap_beds":"266","postcode":"1100","house_number":"32","lon":"16.36131","url":"","pub_date":"2020_03_18","street":"Bernhardtstalgasse","name":"Pflegewohnhaus Innerfavoriten - Pflegeanstalt für chronisch Kranke","tel":"01 60806 1301","id":"K981","list_specs":"","lat":"48.1737"},"id":"2547"},{"type":"Feature","properties":{"the_geom":{"type":"Point","coordinates":[16.3689,48.2101]},"country":"AT","city":"Wien","cap_beds":"9","postcode":"1010","house_number":"2-4-6","lon":"16.36886","url":"http:\/\/www.kuzbari.at","pub_date":"2020_03_18","street":"Seitzergasse","name":"Kuzbari Zentrum für ästhetische Medizin","tel":"01  358 28 70","id":"K982","list_specs":"","lat":"48.21009"},"id":"2548"}]}