{"type":"FeatureCollection","features":[{"type":"Feature","geometry":{"type":"Point","coordinates":[8.0024,51.9604]},"properties":{"cc":"DE","country":"Germany","city":"Warendorf","postcode":"48231","ref_date":"2020","house_number":"2","lon":8.002352893336,"pub_date":"2020_03_22","street":"Am Krankenhaus","id":"771077","facility_type":"standort","lat":51.960420529706,"hospital_name":"Josephs-Hospital Warendorf"},"id":"6555"},{"type":"Feature","geometry":{"type":"Point","coordinates":[12.0935,51.9605]},"properties":{"cc":"DE","country":"Germany","city":"Zerbst\/Anhalt","postcode":"39261","ref_date":"2020","house_number":"53","lon":12.09354137759,"pub_date":"2020_03_22","street":"Friedrich-Naumann-Straße","id":"771770","facility_type":"standort","lat":51.960538935624,"hospital_name":"Hauptstandort"},"id":"6556"},{"type":"Feature","geometry":{"type":"Point","coordinates":[7.3439,51.4456]},"properties":{"cc":"DE","country":"Germany","city":"Witten","postcode":"58455","ref_date":"2020","house_number":"27","lon":7.343875944598,"pub_date":"2020_03_22","street":"Pferdebachstraße","id":"771997","facility_type":"standort","lat":51.445604014753,"hospital_name":"Evangelisches Krankenhaus Witten gGmbH"},"id":"6557"},{"type":"Feature","geometry":{"type":"Point","coordinates":[9.7775,52.3623]},"properties":{"cc":"DE","country":"Germany","city":"Hannover","postcode":"30173","ref_date":"2020","house_number":"160","lon":9.777482271129,"pub_date":"2020_03_22","street":"Bischofsholer Damm","id":"772573","facility_type":"standort","lat":52.362268389496,"hospital_name":"Sophienklinik GmbH"},"id":"6558"},{"type":"Feature","geometry":{"type":"Point","coordinates":[6.7854,51.3807]},"properties":{"cc":"DE","country":"Germany","city":"Duisburg","postcode":"47249","ref_date":"2020","house_number":"250","lon":6.785428762469,"pub_date":"2020_03_22","street":"Großenbaumer Allee","id":"773308","facility_type":"standort","lat":51.380675639817,"hospital_name":"BG Klinikum Duisburg gGmbH"},"id":"6559"},{"type":"Feature","geometry":{"type":"Point","coordinates":[11.2198,47.6716]},"properties":{"cc":"DE","country":"Germany","city":"Murnau am Staffelsee","postcode":"82418","ref_date":"2020","house_number":"8","lon":11.219773683697,"pub_date":"2020_03_22","street":"Prof.-Küntscher-Straße","id":"773597","facility_type":"standort","lat":47.671590022337,"hospital_name":"Klinikum Garmisch-Partenkirchen Standort Murnau"},"id":"6560"},{"type":"Feature","geometry":{"type":"Point","coordinates":[11.1276,47.4839]},"properties":{"cc":"DE","country":"Germany","city":"Garmisch-Partenkirchen","postcode":"82467","ref_date":"2020","house_number":"6","lon":11.127636015399,"pub_date":"2020_03_22","street":"Auenstraße","id":"773617","facility_type":"standort","lat":47.483929564176,"hospital_name":"Klinikum Garmisch-Partenkirchen"},"id":"6561"},{"type":"Feature","geometry":{"type":"Point","coordinates":[8.7934,53.2334]},"properties":{"cc":"DE","country":"Germany","city":"Osterholz-Scharmbeck","postcode":"27711","ref_date":"2020","house_number":"4","lon":8.793386220932,"pub_date":"2020_03_22","street":"Am Krankenhaus","id":"771364","facility_type":"standort","lat":53.23344318708,"hospital_name":"Kreiskrankenhaus Osterholz"},"id":"6562"},{"type":"Feature","geometry":{"type":"Point","coordinates":[8.5381,51.1933]},"properties":{"cc":"DE","country":"Germany","city":"Winterberg, Westfalen","postcode":"59955","ref_date":"2020","house_number":"2","lon":8.5381085872,"pub_date":"2020_03_22","street":"Franziskusstraße","id":"772118","facility_type":"standort","lat":51.193310232526,"hospital_name":"St. Franziskus-Hospital Winterberg gGmbH"},"id":"6563"},{"type":"Feature","geometry":{"type":"Point","coordinates":[11.0116,50.9941]},"properties":{"cc":"DE","country":"Germany","city":"Erfurt","postcode":"99089","ref_date":"2020","house_number":"74","lon":11.011598825553,"pub_date":"2020_03_22","street":"Nordhäuser Straße","id":"771835","facility_type":"standort","lat":50.994088107174,"hospital_name":"Helios Klinikum Erfurt GmbH"},"id":"6564"},{"type":"Feature","geometry":{"type":"Point","coordinates":[7.5475,51.5031]},"properties":{"cc":"DE","country":"Germany","city":"Dortmund","postcode":"44287","ref_date":"2020","house_number":"162a","lon":7.547493696147,"pub_date":"2020_03_22","street":"Marsbruchstraße","id":"772303","facility_type":"standort","lat":51.503072843858,"hospital_name":"LWL-Klinik Dortmund - Elisabeth-Klinik - Kinder- und Jugendpsychiatrie Psychotherapie · Psychosomatik"},"id":"6565"},{"type":"Feature","geometry":{"type":"Point","coordinates":[7.4554,51.5091]},"properties":{"cc":"DE","country":"Germany","city":"Dortmund","postcode":"44137","ref_date":"2020","house_number":"47","lon":7.455439746363,"pub_date":"2020_03_22","street":"Beurhausstraße","id":"772304","facility_type":"standort","lat":51.509104715874,"hospital_name":"LWL-Tagesklinik Dortmund  Kinder- und Jugendpsychiatrie · Psychosomatik"},"id":"6566"},{"type":"Feature","geometry":{"type":"Point","coordinates":[7.8417,51.7082]},"properties":{"cc":"DE","country":"Germany","city":"Hamm, Westfalen","postcode":"59073","ref_date":"2020","house_number":"1","lon":7.841748386613,"pub_date":"2020_03_22","street":"Am Heessener Wald","id":"772561","facility_type":"standort","lat":51.708239818582,"hospital_name":"St. Barbara Klinik Hamm-Heessen"},"id":"6567"},{"type":"Feature","geometry":{"type":"Point","coordinates":[7.763,51.6984]},"properties":{"cc":"DE","country":"Germany","city":"Hamm, Westfalen","postcode":"59075","ref_date":"2020","house_number":"1","lon":7.762981832011,"pub_date":"2020_03_22","street":"Albert-Struck-Str.","id":"772562","facility_type":"standort","lat":51.698388463495,"hospital_name":"St. Josef-Krankenhaus Hamm-Bockum-Hövel"},"id":"6568"},{"type":"Feature","geometry":{"type":"Point","coordinates":[9.1856,47.6717]},"properties":{"cc":"DE","country":"Germany","city":"Konstanz","postcode":"78464","ref_date":"2020","house_number":"9a","lon":9.185561120494,"pub_date":"2020_03_22","street":"Luisenstraße","id":"772963","facility_type":"standort","lat":47.671732707494,"hospital_name":"Hauptstandort Herz-Zentrum"},"id":"6569"},{"type":"Feature","geometry":{"type":"Point","coordinates":[8.4026,51.0606]},"properties":{"cc":"DE","country":"Germany","city":"Bad Berleburg","postcode":"57319","ref_date":"2020","house_number":"7","lon":8.402625381873,"pub_date":"2020_03_22","street":"An der Gontardslust","id":"771727","facility_type":"standort","lat":51.060568548166,"hospital_name":"VAMED Klinik Bad Berleburg"},"id":"6570"},{"type":"Feature","geometry":{"type":"Point","coordinates":[7.3119,51.2934]},"properties":{"cc":"DE","country":"Germany","city":"Schwelm","postcode":"58332","ref_date":"2020","house_number":"15","lon":7.311882555468,"pub_date":"2020_03_22","street":"Dr.-Moeller-Straße","id":"771535","facility_type":"standort","lat":51.293446626116,"hospital_name":"Helios Klinikum Schwelm"},"id":"6571"},{"type":"Feature","geometry":{"type":"Point","coordinates":[6.9238,50.9922]},"properties":{"cc":"DE","country":"Germany","city":"Köln","postcode":"50737","ref_date":"2020","house_number":"105","lon":6.923839330698,"pub_date":"2020_03_22","street":"Graseggerstr.","id":"772936","facility_type":"standort","lat":50.992215873468,"hospital_name":"Hauptstandort"},"id":"6572"},{"type":"Feature","geometry":{"type":"Point","coordinates":[9.9748,53.5899]},"properties":{"cc":"DE","country":"Germany","city":"Hamburg","postcode":"20251","ref_date":"2020","house_number":"52","lon":9.974761963022,"pub_date":"2020_03_22","street":"Martinistraße","id":"773675","facility_type":"standort","lat":53.589913025365,"hospital_name":"Hauptstandort"},"id":"6573"},{"type":"Feature","geometry":{"type":"Point","coordinates":[9.9657,53.5469]},"properties":{"cc":"DE","country":"Germany","city":"Hamburg","postcode":"20359","ref_date":"2020","house_number":"74","lon":9.965663910043,"pub_date":"2020_03_22","street":"Bernhard-Nocht-Straße","id":"773676","facility_type":"standort","lat":53.546943961731,"hospital_name":"Bernhard-Nocht-Institut"},"id":"6574"},{"type":"Feature","geometry":{"type":"Point","coordinates":[7.5592,50.3508]},"properties":{"cc":"DE","country":"Germany","city":"Koblenz am Rhein","postcode":"56073","ref_date":"2020","house_number":"157b","lon":7.559179544514,"pub_date":"2020_03_22","street":"Koblenzer Straße","id":"772586","facility_type":"standort","lat":50.350807367331,"hospital_name":"Johanniter Tagesklinik Koblenz"},"id":"6575"},{"type":"Feature","geometry":{"type":"Point","coordinates":[8.5232,52.0232]},"properties":{"cc":"DE","country":"Germany","city":"Bielefeld","postcode":"33615","ref_date":"2020","house_number":"26","lon":8.523210525709,"pub_date":"2020_03_22","street":"Kiskerstrassse","id":"773289","facility_type":"standort","lat":52.023233817794,"hospital_name":"Franziskus Hospital"},"id":"6576"},{"type":"Feature","geometry":{"type":"Point","coordinates":[8.6752,52.1122]},"properties":{"cc":"DE","country":"Germany","city":"Herford","postcode":"32052","ref_date":"2020","house_number":"1-3","lon":8.675173759657,"pub_date":"2020_03_22","street":"Renntormauer","id":"773290","facility_type":"standort","lat":52.112178478842,"hospital_name":"Mathilden Hospital"},"id":"6577"},{"type":"Feature","geometry":{"type":"Point","coordinates":[8.3304,51.833]},"properties":{"cc":"DE","country":"Germany","city":"Rheda-Wiedenbrück","postcode":"33378","ref_date":"2020","house_number":"1","lon":8.330376863578,"pub_date":"2020_03_22","street":"St.-Vinzenz-Straße","id":"773291","facility_type":"standort","lat":51.833002974089,"hospital_name":"Sankt Vinzenz Hospital"},"id":"6578"},{"type":"Feature","geometry":{"type":"Point","coordinates":[6.9614,50.922]},"properties":{"cc":"DE","country":"Germany","city":"Köln","postcode":"50678","ref_date":"2020","house_number":"8-12","lon":6.961371481402,"pub_date":"2020_03_22","street":"Alteburger Straße","id":"771063","facility_type":"standort","lat":50.922022744784,"hospital_name":"Tagesklinik Alteburger Straße gGmbH"},"id":"6579"},{"type":"Feature","geometry":{"type":"Point","coordinates":[6.9869,51.4338]},"properties":{"cc":"DE","country":"Germany","city":"Essen","postcode":"45147","ref_date":"2020","house_number":"174","lon":6.986943125758,"pub_date":"2020_03_22","street":"Virchowstraße","id":"771539","facility_type":"standort","lat":51.433783520247,"hospital_name":"Virchowstraße 174, 45147 Essen"},"id":"6580"},{"type":"Feature","geometry":{"type":"Point","coordinates":[6.9696,51.44]},"properties":{"cc":"DE","country":"Germany","city":"Essen","postcode":"45147","ref_date":"2020","house_number":"21","lon":6.969621419939,"pub_date":"2020_03_22","street":"Wickenburgstraße","id":"771540","facility_type":"standort","lat":51.440003454576,"hospital_name":"Wickenburgstraße 21, 45147 Essen"},"id":"6581"},{"type":"Feature","geometry":{"type":"Point","coordinates":[7.0123,51.4722]},"properties":{"cc":"DE","country":"Germany","city":"Essen","postcode":"45141","ref_date":"2020","house_number":"27","lon":7.012279272112,"pub_date":"2020_03_22","street":"Overbergstraße","id":"771541","facility_type":"standort","lat":51.472229876166,"hospital_name":"Overbergstraße 27, 45141 Essen"},"id":"6582"},{"type":"Feature","geometry":{"type":"Point","coordinates":[6.8701,51.4081]},"properties":{"cc":"DE","country":"Germany","city":"Mülheim an der Ruhr","postcode":"45481","ref_date":"2020","house_number":"136-138","lon":6.870079278979,"pub_date":"2020_03_22","street":"Düsseldorfer Straße","id":"771542","facility_type":"standort","lat":51.408088895493,"hospital_name":"Düsseldorfer Straße 136-138, 45481 Mülheim an der Ruhr"},"id":"6583"},{"type":"Feature","geometry":{"type":"Point","coordinates":[8.0304,50.8795]},"properties":{"cc":"DE","country":"Germany","city":"Siegen","postcode":"57072","ref_date":"2020","house_number":"51","lon":8.030419528468,"pub_date":"2020_03_22","street":"Kampenstraße","id":"772061","facility_type":"standort","lat":50.879455893095,"hospital_name":"St. Marien-Krankenhaus Siegen"},"id":"6584"},{"type":"Feature","geometry":{"type":"Point","coordinates":[9.3545,50.2162]},"properties":{"cc":"DE","country":"Germany","city":"Bad Orb","postcode":"63619","ref_date":"2020","house_number":"20","lon":9.354513466342,"pub_date":"2020_03_22","street":"Spessartstraße","id":"772966","facility_type":"standort","lat":50.216243891937,"hospital_name":"MediClin Reha-Zentrum Bad Orb"},"id":"6585"},{"type":"Feature","geometry":{"type":"Point","coordinates":[11.0969,47.9472]},"properties":{"cc":"DE","country":"Germany","city":"Dießen am Ammersee","postcode":"86911","ref_date":"2020","house_number":"20","lon":11.096890282461,"pub_date":"2020_03_22","street":"Klosterhof","id":"773665","facility_type":"standort","lat":47.947182357075,"hospital_name":"Hauptstandort"},"id":"6586"},{"type":"Feature","geometry":{"type":"Point","coordinates":[8.575,49.5361]},"properties":{"cc":"DE","country":"Germany","city":"Viernheim","postcode":"68519","ref_date":"2020","house_number":"4","lon":8.575010418908,"pub_date":"2020_03_22","street":"Seegartenstraße","id":"771922","facility_type":"standort","lat":49.536069595531,"hospital_name":"Krankenhaus"},"id":"6587"},{"type":"Feature","geometry":{"type":"Point","coordinates":[8.4216,49.3157]},"properties":{"cc":"DE","country":"Germany","city":"Speyer","postcode":"67346","ref_date":"2020","house_number":"4A","lon":8.421648941003,"pub_date":"2020_03_22","street":"Holzstraße","id":"772863","facility_type":"standort","lat":49.315695817169,"hospital_name":"Hauptstandort"},"id":"6588"},{"type":"Feature","geometry":{"type":"Point","coordinates":[6.3273,51.5285]},"properties":{"cc":"DE","country":"Germany","city":"Geldern","postcode":"47608","ref_date":"2020","house_number":"6","lon":6.327309285953,"pub_date":"2020_03_22","street":"Clemensstraße","id":"773026","facility_type":"standort","lat":51.528499725763,"hospital_name":"St.-Clemens-Hospital"},"id":"6589"},{"type":"Feature","geometry":{"type":"Point","coordinates":[9.0939,54.1922]},"properties":{"cc":"DE","country":"Germany","city":"Heide, Holst","postcode":"25746","ref_date":"2020","house_number":"18","lon":9.093926668102,"pub_date":"2020_03_22","street":"Neue Anlage","id":"773333","facility_type":"standort","lat":54.19221696234,"hospital_name":"Psychiatrische Tagesklinik Heide, Brücke Schleswig-Holstein gGmbH"},"id":"6590"},{"type":"Feature","geometry":{"type":"Point","coordinates":[9.0939,54.1923]},"properties":{"cc":"DE","country":"Germany","city":"Heide, Holst","postcode":"25746","ref_date":"2020","house_number":"18","lon":9.093926668102,"pub_date":"2020_03_22","street":"Neue Anlage","id":"773334","facility_type":"standort","lat":54.192267179086,"hospital_name":"Psychiatrische Institutsambulanz Heide, Brücke Schleswig-Holstein gGmbH"},"id":"6591"},{"type":"Feature","geometry":{"type":"Point","coordinates":[9.7577,52.4341]},"properties":{"cc":"DE","country":"Germany","city":"Langenhagen, Han","postcode":"30851","ref_date":"2020","house_number":"24","lon":9.757717609536,"pub_date":"2020_03_22","street":"Oertzeweg","id":"771849","facility_type":"standort","lat":52.434121822202,"hospital_name":"Paracelsus-Klinik am Silbersee"},"id":"6592"},{"type":"Feature","geometry":{"type":"Point","coordinates":[7.5174,49.9804]},"properties":{"cc":"DE","country":"Germany","city":"Simmern, Hunsrück","postcode":"55469","ref_date":"2020","house_number":"1","lon":7.517382698134,"pub_date":"2020_03_22","street":"Holzbacher Straße","id":"772202","facility_type":"standort","lat":49.980434681353,"hospital_name":"Hunsrück Klinik, kreuznacher diakonie"},"id":"6593"},{"type":"Feature","geometry":{"type":"Point","coordinates":[8.1396,53.3926]},"properties":{"cc":"DE","country":"Germany","city":"Varel, Jadebusen","postcode":"26316","ref_date":"2020","house_number":"9","lon":8.139644443972,"pub_date":"2020_03_22","street":"Bleichenpfad","id":"771998","facility_type":"standort","lat":53.392550366892,"hospital_name":"St. Johannes Hospital"},"id":"6594"},{"type":"Feature","geometry":{"type":"Point","coordinates":[8.356,51.4417]},"properties":{"cc":"DE","country":"Germany","city":"Warstein","postcode":"59581","ref_date":"2020","house_number":"3-7","lon":8.355967283233,"pub_date":"2020_03_22","street":"Hospitalstr.","id":"772614","facility_type":"standort","lat":51.44174889685,"hospital_name":"Krankenhaus Maria Hilf GmbH"},"id":"6595"},{"type":"Feature","geometry":{"type":"Point","coordinates":[13.7619,51.0473]},"properties":{"cc":"DE","country":"Germany","city":"Dresden","postcode":"01307","ref_date":"2020","house_number":"15\/17","lon":13.761893731153,"pub_date":"2020_03_22","street":"Wintergartenstraße","id":"771043","facility_type":"standort","lat":51.047260729446,"hospital_name":"Krankenhaus St. Joseph-Stift Dresden"},"id":"6596"},{"type":"Feature","geometry":{"type":"Point","coordinates":[12.3897,47.8341]},"properties":{"cc":"DE","country":"Germany","city":"Bernau am Chiemsee","postcode":"83233","ref_date":"2020","house_number":"25","lon":12.389730691975,"pub_date":"2020_03_22","street":"Rasthausstraße","id":"771163","facility_type":"standort","lat":47.834088760404,"hospital_name":"Standort"},"id":"6597"},{"type":"Feature","geometry":{"type":"Point","coordinates":[10.1163,54.3532]},"properties":{"cc":"DE","country":"Germany","city":"Kiel","postcode":"24106","ref_date":"2020","house_number":"25","lon":10.116285771123,"pub_date":"2020_03_22","street":"Steenbeker Weg","id":"771994","facility_type":"standort","lat":54.353174510392,"hospital_name":"Lubinus Clinicum"},"id":"6598"},{"type":"Feature","geometry":{"type":"Point","coordinates":[10.1274,54.3169]},"properties":{"cc":"DE","country":"Germany","city":"Kiel","postcode":"24103","ref_date":"2020","house_number":"8","lon":10.127381131049,"pub_date":"2020_03_22","street":"Königsweg","id":"771993","facility_type":"standort","lat":54.316855314927,"hospital_name":"Sankt Elisabeth Krankenhaus Kiel"},"id":"6599"},{"type":"Feature","geometry":{"type":"Point","coordinates":[7.1439,51.2602]},"properties":{"cc":"DE","country":"Germany","city":"Wuppertal","postcode":"42105","ref_date":"2020","house_number":"6 -12","lon":7.143887758239,"pub_date":"2020_03_22","street":"Bergstr.","id":"771563","facility_type":"standort","lat":51.260170938981,"hospital_name":"Krankenhaus St. Josef"},"id":"6600"},{"type":"Feature","geometry":{"type":"Point","coordinates":[7.1426,51.2745]},"properties":{"cc":"DE","country":"Germany","city":"Wuppertal","postcode":"42109","ref_date":"2020","house_number":"106","lon":7.142563820016,"pub_date":"2020_03_22","street":"Vogelsangstraße","id":"771564","facility_type":"standort","lat":51.274514722201,"hospital_name":"St. Anna-Klinik"},"id":"6601"},{"type":"Feature","geometry":{"type":"Point","coordinates":[7.1918,51.2755]},"properties":{"cc":"DE","country":"Germany","city":"Wuppertal","postcode":"42283","ref_date":"2020","house_number":"48","lon":7.191768407756,"pub_date":"2020_03_22","street":"Carnaper Str.","id":"771562","facility_type":"standort","lat":51.275534912024,"hospital_name":"Petrus-Krankenhaus"},"id":"6602"},{"type":"Feature","geometry":{"type":"Point","coordinates":[7.7643,51.978]},"properties":{"cc":"DE","country":"Germany","city":"Telgte","postcode":"48291","ref_date":"2020","house_number":"1","lon":7.764253199084,"pub_date":"2020_03_22","street":"Am Rochus-Hospital","id":"771846","facility_type":"standort","lat":51.977963140494,"hospital_name":"Hauptstandort Telgte"},"id":"6603"},{"type":"Feature","geometry":{"type":"Point","coordinates":[7.9772,51.9473]},"properties":{"cc":"DE","country":"Germany","city":"Warendorf","postcode":"48231","ref_date":"2020","house_number":"39","lon":7.97716145217,"pub_date":"2020_03_22","street":"Von-Ketteler-Straße","id":"771845","facility_type":"standort","lat":51.947335528808,"hospital_name":"Tagesklinik Warendorf"},"id":"6604"},{"type":"Feature","geometry":{"type":"Point","coordinates":[7.8839,51.7696]},"properties":{"cc":"DE","country":"Germany","city":"Ahlen, Westfalen","postcode":"59227","ref_date":"2020","house_number":"49","lon":7.883884951468,"pub_date":"2020_03_22","street":"Parkstraße","id":"771844","facility_type":"standort","lat":51.769618002432,"hospital_name":"Tagesklinik Ahlen"},"id":"6605"},{"type":"Feature","geometry":{"type":"Point","coordinates":[13.0147,48.2638]},"properties":{"cc":"DE","country":"Germany","city":"Simbach am Inn","postcode":"84359","ref_date":"2020","house_number":"1","lon":13.014651060039,"pub_date":"2020_03_22","street":"Jakob-Weindler-Straße","id":"772758","facility_type":"standort","lat":48.26383405213,"hospital_name":"AMEOS Institut Süd"},"id":"6606"},{"type":"Feature","geometry":{"type":"Point","coordinates":[13.0146,48.2638]},"properties":{"cc":"DE","country":"Germany","city":"Simbach am Inn","postcode":"84359","ref_date":"2020","house_number":"1","lon":13.01463979481,"pub_date":"2020_03_22","street":"Jakob-Weindler-Straße","id":"772759","facility_type":"standort","lat":48.263782271136,"hospital_name":"AMEOS Klinikum Inntal"},"id":"6607"},{"type":"Feature","geometry":{"type":"Point","coordinates":[10.9924,50.1112]},"properties":{"cc":"DE","country":"Germany","city":"Bad Staffelstein","postcode":"96231","ref_date":"2020","house_number":"11","lon":10.992414593729,"pub_date":"2020_03_22","street":"Am Kurpark","id":"772495","facility_type":"standort","lat":50.111161470425,"hospital_name":"Hauptstandort"},"id":"6608"},{"type":"Feature","geometry":{"type":"Point","coordinates":[10.2863,54.2362]},"properties":{"cc":"DE","country":"Germany","city":"Preetz, Holst","postcode":"24211","ref_date":"2020","house_number":"18","lon":10.28632897137,"pub_date":"2020_03_22","street":"Wakendorfer Straße","id":"773336","facility_type":"standort","lat":54.23624772599,"hospital_name":"Psychiatrische Tagesklinik Preetz"},"id":"6609"},{"type":"Feature","geometry":{"type":"Point","coordinates":[10.1691,47.983]},"properties":{"cc":"DE","country":"Germany","city":"Memmingen","postcode":"87700","ref_date":"2020","house_number":"23","lon":10.169085323819,"pub_date":"2020_03_22","street":"Bismarckstraße","id":"772549","facility_type":"standort","lat":47.982971923559,"hospital_name":"Memmingen"},"id":"6610"},{"type":"Feature","geometry":{"type":"Point","coordinates":[9.635,47.9532]},"properties":{"cc":"DE","country":"Germany","city":"Aulendorf, Württemberg","postcode":"88326","ref_date":"2020","house_number":"5","lon":9.635003328258,"pub_date":"2020_03_22","street":"Safranmoosstraße","id":"772653","facility_type":"standort","lat":47.953166506683,"hospital_name":"Hauptstandort"},"id":"6611"},{"type":"Feature","geometry":{"type":"Point","coordinates":[8.8905,49.252]},"properties":{"cc":"DE","country":"Germany","city":"Sinsheim, Elsenz","postcode":"74889","ref_date":"2020","house_number":"2","lon":8.890484064809,"pub_date":"2020_03_22","street":"Alte Waibstadter Straße","id":"771951","facility_type":"standort","lat":49.251958261548,"hospital_name":"GRN-Klinik Sinsheim"},"id":"6612"},{"type":"Feature","geometry":{"type":"Point","coordinates":[6.9665,51.3237]},"properties":{"cc":"DE","country":"Germany","city":"Heiligenhaus","postcode":"42579","ref_date":"2020","house_number":"161","lon":6.966521322711,"pub_date":"2020_03_22","street":"Südring","id":"771584","facility_type":"standort","lat":51.323694623637,"hospital_name":"Tagesklinik"},"id":"6613"},{"type":"Feature","geometry":{"type":"Point","coordinates":[7.0117,51.3504]},"properties":{"cc":"DE","country":"Germany","city":"Velbert","postcode":"42549","ref_date":"2020","house_number":"2","lon":7.01174873112,"pub_date":"2020_03_22","street":"Robert-Koch-Straße","id":"771585","facility_type":"standort","lat":51.350371418841,"hospital_name":"Helios Klinikum Niederberg"},"id":"6614"},{"type":"Feature","geometry":{"type":"Point","coordinates":[6.8606,51.298]},"properties":{"cc":"DE","country":"Germany","city":"Ratingen","postcode":"40878","ref_date":"2020","house_number":"3","lon":6.860622346385,"pub_date":"2020_03_22","street":"Calor-Emag-Straße","id":"771586","facility_type":"standort","lat":51.297951554735,"hospital_name":"ASV Rheumazentrum Ratingen"},"id":"6615"},{"type":"Feature","geometry":{"type":"Point","coordinates":[13.3629,52.5544]},"properties":{"cc":"DE","country":"Germany","city":"Berlin","postcode":"13347","ref_date":"2020","house_number":"61","lon":13.362906932962,"pub_date":"2020_03_22","street":"Reinickendorfer Straße","id":"771907","facility_type":"standort","lat":52.554378711771,"hospital_name":"Evangelisches Geriatriezentrum Berlin gGmbH"},"id":"6616"},{"type":"Feature","geometry":{"type":"Point","coordinates":[13.566,52.519]},"properties":{"cc":"DE","country":"Germany","city":"Berlin","postcode":"12683","ref_date":"2020","house_number":"7","lon":13.566016137584,"pub_date":"2020_03_22","street":"Warener  Straße","id":"771923","facility_type":"standort","lat":52.519049415154,"hospital_name":"BG Klinikum Unfallkrankenhaus Berlin gGmbH"},"id":"6617"},{"type":"Feature","geometry":{"type":"Point","coordinates":[11.5565,48.0849]},"properties":{"cc":"DE","country":"Germany","city":"München","postcode":"81545","ref_date":"2020","house_number":"65","lon":11.55648744103,"pub_date":"2020_03_22","street":"Seybothstrasse","id":"773385","facility_type":"standort","lat":48.084920459785,"hospital_name":"Hauptstandort"},"id":"6618"},{"type":"Feature","geometry":{"type":"Point","coordinates":[10.3857,53.4235]},"properties":{"cc":"DE","country":"Germany","city":"Geesthacht","postcode":"21502","ref_date":"2020","house_number":"100","lon":10.385719299447,"pub_date":"2020_03_22","street":"Johannes-Ritter-Straße","id":"772870","facility_type":"standort","lat":53.423516218972,"hospital_name":"Hauptstandort"},"id":"6619"},{"type":"Feature","geometry":{"type":"Point","coordinates":[11.6324,48.0998]},"properties":{"cc":"DE","country":"Germany","city":"München","postcode":"81737","ref_date":"2020","house_number":"9","lon":11.63238336565,"pub_date":"2020_03_22","street":"Putzbrunner Straße","id":"773656","facility_type":"standort","lat":48.099778091228,"hospital_name":"Standort Altperlach"},"id":"6620"},{"type":"Feature","geometry":{"type":"Point","coordinates":[8.9905,49.4634]},"properties":{"cc":"DE","country":"Germany","city":"Eberbach, Baden","postcode":"69412","ref_date":"2020","house_number":"3","lon":8.990470513697,"pub_date":"2020_03_22","street":"Scheuerberg","id":"771952","facility_type":"standort","lat":49.46337696797,"hospital_name":"GRN-Klinik Eberbach"},"id":"6621"},{"type":"Feature","geometry":{"type":"Point","coordinates":[7.2929,52.6888]},"properties":{"cc":"DE","country":"Germany","city":"Meppen","postcode":"49716","ref_date":"2020","house_number":"4-6","lon":7.292885273687,"pub_date":"2020_03_22","street":"Ludmillenstraße","id":"773405","facility_type":"standort","lat":52.688817186788,"hospital_name":"Hauptstandort"},"id":"6622"},{"type":"Feature","geometry":{"type":"Point","coordinates":[10.089,53.5698]},"properties":{"cc":"DE","country":"Germany","city":"Hamburg","postcode":"22043","ref_date":"2020","house_number":"14","lon":10.089032649994,"pub_date":"2020_03_22","street":"Alphonsstraße","id":"772924","facility_type":"standort","lat":53.569835328196,"hospital_name":"Asklepios klinik Wandsbek"},"id":"6623"},{"type":"Feature","geometry":{"type":"Point","coordinates":[8.2654,50.0913]},"properties":{"cc":"DE","country":"Germany","city":"Wiesbaden","postcode":"65191","ref_date":"2020","house_number":"21","lon":8.265354216082,"pub_date":"2020_03_22","street":"Leibnizstraße","id":"772313","facility_type":"standort","lat":50.091255765061,"hospital_name":"Helios Aukamm-Klinik Wiesbaden GmbH"},"id":"6624"},{"type":"Feature","geometry":{"type":"Point","coordinates":[9.2238,52.6355]},"properties":{"cc":"DE","country":"Germany","city":"Nienburg(Weser)","postcode":"31582","ref_date":"2020","house_number":"39","lon":9.223802768811,"pub_date":"2020_03_22","street":"Ziegelkampstraße","id":"773542","facility_type":"standort","lat":52.635514407833,"hospital_name":"Helios Kliniken Mittelweser GmbH- Krankenhaus Nienburg"},"id":"6625"},{"type":"Feature","geometry":{"type":"Point","coordinates":[10.0987,49.9787]},"properties":{"cc":"DE","country":"Germany","city":"Werneck","postcode":"97440","ref_date":"2020","house_number":"1","lon":10.098724544032,"pub_date":"2020_03_22","street":"Balthasar-Neumann-Platz","id":"771350","facility_type":"standort","lat":49.978692609636,"hospital_name":"Krankenhaus für Psychiatrie, Psychotherapie und Psychosomatische Medizin Schloss Werneck"},"id":"6626"},{"type":"Feature","geometry":{"type":"Point","coordinates":[10.2295,50.055]},"properties":{"cc":"DE","country":"Germany","city":"Schweinfurt","postcode":"97422","ref_date":"2020","house_number":"13 - 15","lon":10.229472309343,"pub_date":"2020_03_22","street":"Dittelbrunner Straße","id":"771349","facility_type":"standort","lat":50.055002536815,"hospital_name":"Tagesklinik für Psychiatrie Schweinfurt"},"id":"6627"},{"type":"Feature","geometry":{"type":"Point","coordinates":[7.8438,52.1988]},"properties":{"cc":"DE","country":"Germany","city":"Lengerich, Westfalen","postcode":"49525","ref_date":"2020","house_number":"49","lon":7.843791612904,"pub_date":"2020_03_22","street":"Martin-Luther-Straße","id":"771304","facility_type":"standort","lat":52.19879125876,"hospital_name":"Helios Klinik Lengerich"},"id":"6628"},{"type":"Feature","geometry":{"type":"Point","coordinates":[7.8792,50.8064]},"properties":{"cc":"DE","country":"Germany","city":"Kirchen(Sieg)","postcode":"57548","ref_date":"2020","house_number":"24","lon":7.879177057771,"pub_date":"2020_03_22","street":"Bahnhofstraße","id":"771808","facility_type":"standort","lat":50.806362446003,"hospital_name":"Standort 1"},"id":"6629"},{"type":"Feature","geometry":{"type":"Point","coordinates":[13.3706,52.5553]},"properties":{"cc":"DE","country":"Germany","city":"Berlin","postcode":"13347","ref_date":"2020","house_number":"1","lon":13.370569467479,"pub_date":"2020_03_22","street":"Heinz-Galinski-Straße","id":"772386","facility_type":"standort","lat":52.555278906928,"hospital_name":"Krankenhaus"},"id":"6630"},{"type":"Feature","geometry":{"type":"Point","coordinates":[9.1633,48.7613]},"properties":{"cc":"DE","country":"Germany","city":"Stuttgart","postcode":"70199","ref_date":"2020","house_number":"37","lon":9.163320243383,"pub_date":"2020_03_22","street":"Böheimstraße","id":"772796","facility_type":"standort","lat":48.761254645194,"hospital_name":"Marienhospital Stuttgart"},"id":"6631"},{"type":"Feature","geometry":{"type":"Point","coordinates":[9.7061,52.8688]},"properties":{"cc":"DE","country":"Germany","city":"Bad Fallingbostel","postcode":"29683","ref_date":"2020","house_number":"1","lon":9.706089699157,"pub_date":"2020_03_22","street":"Kolkweg","id":"773307","facility_type":"standort","lat":52.868827023068,"hospital_name":"Klinik Fallingbostel"},"id":"6632"},{"type":"Feature","geometry":{"type":"Point","coordinates":[10.1014,49.9802]},"properties":{"cc":"DE","country":"Germany","city":"Werneck","postcode":"97440","ref_date":"2020","house_number":"1","lon":10.101361960165,"pub_date":"2020_03_22","street":"Balthasar-Neumann-Platz","id":"771351","facility_type":"standort","lat":49.980161301004,"hospital_name":"Orthopädisches Krankenhaus Schloss Werneck"},"id":"6633"},{"type":"Feature","geometry":{"type":"Point","coordinates":[10.5667,51.4432]},"properties":{"cc":"DE","country":"Germany","city":"Bleicherode","postcode":"99752","ref_date":"2020","house_number":"11","lon":10.56665253649,"pub_date":"2020_03_22","street":"Barbarastraße","id":"772367","facility_type":"standort","lat":51.443248519549,"hospital_name":"Bleicherode"},"id":"6634"},{"type":"Feature","geometry":{"type":"Point","coordinates":[13.7813,51.0568]},"properties":{"cc":"DE","country":"Germany","city":"Dresden","postcode":"01307","ref_date":"2020","house_number":"74","lon":13.781290769675,"pub_date":"2020_03_22","street":"Fetscherstr.","id":"773444","facility_type":"standort","lat":51.056819087868,"hospital_name":"Universitätsklinikum Carl Gustav Carus an der TU Dresden, Fetscherstr. 74, 01307 Dresden"},"id":"6635"},{"type":"Feature","geometry":{"type":"Point","coordinates":[9.108,51.1122]},"properties":{"cc":"DE","country":"Germany","city":"Bad Wildungen","postcode":"34537","ref_date":"2020","house_number":"9","lon":9.108039915545,"pub_date":"2020_03_22","street":"Dr.-Born-Straße","id":"772008","facility_type":"standort","lat":51.112182970769,"hospital_name":"Hauptstandort"},"id":"6636"},{"type":"Feature","geometry":{"type":"Point","coordinates":[11.5961,48.1515]},"properties":{"cc":"DE","country":"Germany","city":"München","postcode":"80538","ref_date":"2020","house_number":"6","lon":11.596060753,"pub_date":"2020_03_22","street":"Hirschauer Straße","id":"772377","facility_type":"standort","lat":48.151521195776,"hospital_name":"Frauenklinik Dr. Geisenhofer GmbH"},"id":"6637"},{"type":"Feature","geometry":{"type":"Point","coordinates":[7.0057,51.3898]},"properties":{"cc":"DE","country":"Germany","city":"Essen, Ruhr","postcode":"45239","ref_date":"2020","house_number":"1-3","lon":7.00573603157,"pub_date":"2020_03_22","street":"Pattbergstr.","id":"773166","facility_type":"standort","lat":51.389826096284,"hospital_name":"Evang. Krankenhaus Essen-Werden"},"id":"6638"},{"type":"Feature","geometry":{"type":"Point","coordinates":[7.0617,51.4422]},"properties":{"cc":"DE","country":"Germany","city":"Essen, Ruhr","postcode":"45276","ref_date":"2020","house_number":"34a","lon":7.06172844395,"pub_date":"2020_03_22","street":"Am Deimelsberg","id":"773167","facility_type":"standort","lat":51.44219026249,"hospital_name":"Evang. Krankenhaus Essen-Steele"},"id":"6639"},{"type":"Feature","geometry":{"type":"Point","coordinates":[7.0304,51.442]},"properties":{"cc":"DE","country":"Germany","city":"Essen, Ruhr","postcode":"45136","ref_date":"2020","house_number":"92","lon":7.030423083343,"pub_date":"2020_03_22","street":"Henricistr.","id":"773168","facility_type":"standort","lat":51.441965400604,"hospital_name":"Evang. Huyssens-Stiftung in Essen-Huttrop"},"id":"6640"},{"type":"Feature","geometry":{"type":"Point","coordinates":[6.9667,50.9629]},"properties":{"cc":"DE","country":"Germany","city":"Köln","postcode":"50735","ref_date":"2020","house_number":"59","lon":6.966712832418,"pub_date":"2020_03_22","street":"Amsterdamerstr.","id":"773533","facility_type":"standort","lat":50.962863088277,"hospital_name":"Kliniken der Stadt Köln gGmbH - Kinderkrankenhaus Amsterdamer Strasse"},"id":"6641"},{"type":"Feature","geometry":{"type":"Point","coordinates":[7.0568,50.9651]},"properties":{"cc":"DE","country":"Germany","city":"Köln","postcode":"51067","ref_date":"2020","house_number":"1","lon":7.056777119669,"pub_date":"2020_03_22","street":"Florentine-Eichler-Str.","id":"773534","facility_type":"standort","lat":50.965094625798,"hospital_name":"Kliniken der Stadt gGmbH - Standort Holweide - Kinder-und Jugendpsychiatrie"},"id":"6642"},{"type":"Feature","geometry":{"type":"Point","coordinates":[9.8731,53.3335]},"properties":{"cc":"DE","country":"Germany","city":"Buchholz in der Nordheide","postcode":"21244","ref_date":"2020","house_number":"44","lon":9.873097658092,"pub_date":"2020_03_22","street":"Steinbecker Straße","id":"773292","facility_type":"standort","lat":53.333455000899,"hospital_name":"Psychiatrische Tagesklinik Buchholz"},"id":"6643"},{"type":"Feature","geometry":{"type":"Point","coordinates":[9.4419,53.5946]},"properties":{"cc":"DE","country":"Germany","city":"Stade, Niederelbe","postcode":"21682","ref_date":"2020","house_number":"111","lon":9.44188594206,"pub_date":"2020_03_22","street":"Bremervörder Straße","id":"773293","facility_type":"standort","lat":53.594598179178,"hospital_name":"Psychiatrische Tagesklinik Stade Kinder und Jugendliche"},"id":"6644"},{"type":"Feature","geometry":{"type":"Point","coordinates":[9.8565,52.9896]},"properties":{"cc":"DE","country":"Germany","city":"Soltau","postcode":"29614","ref_date":"2020","house_number":"30","lon":9.856532335216,"pub_date":"2020_03_22","street":"Oeninger Weg","id":"773294","facility_type":"standort","lat":52.989557896186,"hospital_name":"Psychiatrische Tagesklinik Heidekreis Kinder und Jugendliche"},"id":"6645"},{"type":"Feature","geometry":{"type":"Point","coordinates":[10.5528,52.9632]},"properties":{"cc":"DE","country":"Germany","city":"Uelzen, Lüneburger Heide","postcode":"29525","ref_date":"2020","house_number":"26","lon":10.552758157237,"pub_date":"2020_03_22","street":"Dieterichsstraße","id":"773295","facility_type":"standort","lat":52.963249928723,"hospital_name":"Psychiatrische Institutsambulanz Uelzen Kinder und Jugendliche"},"id":"6646"},{"type":"Feature","geometry":{"type":"Point","coordinates":[10.2046,53.3645]},"properties":{"cc":"DE","country":"Germany","city":"Winsen(Luhe)","postcode":"21423","ref_date":"2020","house_number":"1","lon":10.204553782924,"pub_date":"2020_03_22","street":"Deichstraße","id":"773296","facility_type":"standort","lat":53.364454235416,"hospital_name":"Psychiatrische Institutsambulanz Winsen"},"id":"6647"},{"type":"Feature","geometry":{"type":"Point","coordinates":[10.5928,53.0865]},"properties":{"cc":"DE","country":"Germany","city":"Bad Bevensen","postcode":"29549","ref_date":"2020","house_number":"3","lon":10.592782080157,"pub_date":"2020_03_22","street":"Lerchenweg","id":"773297","facility_type":"standort","lat":53.086512816218,"hospital_name":"Tagesklinik Uelzen Kinder und Jugendliche"},"id":"6648"},{"type":"Feature","geometry":{"type":"Point","coordinates":[10.3867,53.2535]},"properties":{"cc":"DE","country":"Germany","city":"Lüneburg","postcode":"21339","ref_date":"2020","house_number":"1","lon":10.386661291122,"pub_date":"2020_03_22","street":"Am Wienebütteler Weg","id":"773507","facility_type":"standort","lat":53.253525897745,"hospital_name":"Psychiatrische Klinik Lüneburg gGmbH"},"id":"6649"},{"type":"Feature","geometry":{"type":"Point","coordinates":[11.7909,48.8196]},"properties":{"cc":"DE","country":"Germany","city":"Neustadt an der Donau","postcode":"93333","ref_date":"2020","house_number":"9","lon":11.790887296183,"pub_date":"2020_03_22","street":"Kaiser-Augustus-Straße","id":"773602","facility_type":"standort","lat":48.819610678566,"hospital_name":"Passauer Wolf Bad Gögging - Neurologisches Zentrum für Bewegungsstörungen"},"id":"6650"},{"type":"Feature","geometry":{"type":"Point","coordinates":[11.5622,48.1327]},"properties":{"cc":"DE","country":"Germany","city":"München","postcode":"80336","ref_date":"2020","house_number":"1","lon":11.56221556666,"pub_date":"2020_03_22","street":"Ziemssenstraße","id":"771734","facility_type":"standort","lat":48.132668345376,"hospital_name":"Klinikum der Universität München - Standort Innenstadt"},"id":"6651"},{"type":"Feature","geometry":{"type":"Point","coordinates":[11.5823,48.1541]},"properties":{"cc":"DE","country":"Germany","city":"München","postcode":"80802","ref_date":"2020","house_number":"5","lon":11.582317113926,"pub_date":"2020_03_22","street":"Leopoldstraße","id":"771735","facility_type":"standort","lat":48.154081864292,"hospital_name":"Klinikum der Universität München - Außenstelle Tropenmedizin"},"id":"6652"},{"type":"Feature","geometry":{"type":"Point","coordinates":[11.472,48.1111]},"properties":{"cc":"DE","country":"Germany","city":"München","postcode":"81377","ref_date":"2020","house_number":"15","lon":11.471995174934,"pub_date":"2020_03_22","street":"Marchioninistraße","id":"771736","facility_type":"standort","lat":48.111138440404,"hospital_name":"Klinikum der Universität München - Standort Großhadern"},"id":"6653"},{"type":"Feature","geometry":{"type":"Point","coordinates":[11.488,48.1224]},"properties":{"cc":"DE","country":"Germany","city":"München","postcode":"81377","ref_date":"2020","house_number":"15","lon":11.488039076312,"pub_date":"2020_03_22","street":"Marchioninistraße","id":"772336","facility_type":"standort","lat":48.122446592812,"hospital_name":"Klinikum der Universität München - Außenstelle Augustinum"},"id":"6654"},{"type":"Feature","geometry":{"type":"Point","coordinates":[10.5148,50.0403]},"properties":{"cc":"DE","country":"Germany","city":"Haßfurt","postcode":"97437","ref_date":"2020","house_number":"69","lon":10.514809727702,"pub_date":"2020_03_22","street":"Hofheimer Straße","id":"771093","facility_type":"standort","lat":50.0403132101,"hospital_name":"Haßberg-Kliniken Haus Haßfurt"},"id":"6655"},{"type":"Feature","geometry":{"type":"Point","coordinates":[10.7985,50.097]},"properties":{"cc":"DE","country":"Germany","city":"Ebern","postcode":"96106","ref_date":"2020","house_number":"21","lon":10.798469424281,"pub_date":"2020_03_22","street":"Coburger Straße","id":"771094","facility_type":"standort","lat":50.097006387061,"hospital_name":"Haßberg-Kliniken Haus Ebern"},"id":"6656"},{"type":"Feature","geometry":{"type":"Point","coordinates":[8.6123,48.165]},"properties":{"cc":"DE","country":"Germany","city":"Rottweil","postcode":"78628","ref_date":"2020","house_number":"30","lon":8.612275958094,"pub_date":"2020_03_22","street":"Krankenhausstraße","id":"771543","facility_type":"standort","lat":48.165042443185,"hospital_name":"Helios Klinik Rottweil"},"id":"6657"},{"type":"Feature","geometry":{"type":"Point","coordinates":[9.4895,48.4041]},"properties":{"cc":"DE","country":"Germany","city":"Münsingen, Württemberg","postcode":"72525","ref_date":"2020","house_number":"47","lon":9.489466935388,"pub_date":"2020_03_22","street":"Lautertalstraße","id":"771544","facility_type":"standort","lat":48.404089859142,"hospital_name":"Albklinik"},"id":"6658"},{"type":"Feature","geometry":{"type":"Point","coordinates":[14.291,51.0468]},"properties":{"cc":"DE","country":"Germany","city":"Neustadt i. Sam","postcode":"01844","ref_date":"2020","house_number":"40","lon":14.290974318965,"pub_date":"2020_03_22","street":"Hohwaldstraße","id":"772023","facility_type":"standort","lat":51.046812185075,"hospital_name":"Asklepios Orthopädische Klinik Hohwald"},"id":"6659"},{"type":"Feature","geometry":{"type":"Point","coordinates":[8.965,50.0417]},"properties":{"cc":"DE","country":"Germany","city":"Seligenstadt, Hess","postcode":"63500","ref_date":"2020","house_number":"9","lon":8.964987516338,"pub_date":"2020_03_22","street":"Dudenhöfer Straße","id":"772588","facility_type":"standort","lat":50.041686138228,"hospital_name":"Asklepios Klinik Seligenstadt"},"id":"6660"},{"type":"Feature","geometry":{"type":"Point","coordinates":[8.7922,51.0622]},"properties":{"cc":"DE","country":"Germany","city":"Frankenberg(Eder)","postcode":"35066","ref_date":"2020","house_number":"9","lon":8.792190223928,"pub_date":"2020_03_22","street":"Forststraße","id":"772704","facility_type":"standort","lat":51.062222506323,"hospital_name":"Kreiskrankenhaus Frankenberg gGmbH"},"id":"6661"},{"type":"Feature","geometry":{"type":"Point","coordinates":[9.0686,52.5148]},"properties":{"cc":"DE","country":"Germany","city":"Stolzenau, Weser","postcode":"31592","ref_date":"2020","house_number":"28","lon":9.068628931163,"pub_date":"2020_03_22","street":"Holzhäuser Weg","id":"773553","facility_type":"standort","lat":52.51483018802,"hospital_name":"Helios Kliniken Mittelweser GmbH- Krankenhaus Stolzenau"},"id":"6662"},{"type":"Feature","geometry":{"type":"Point","coordinates":[9.3657,51.7854]},"properties":{"cc":"DE","country":"Germany","city":"Höxter","postcode":"37671","ref_date":"2020","house_number":"71","lon":9.365723597871,"pub_date":"2020_03_22","street":"Brenkhäuser Straße","id":"773298","facility_type":"standort","lat":51.78536599817,"hospital_name":"St. Ansgar Krankenhaus"},"id":"6663"},{"type":"Feature","geometry":{"type":"Point","coordinates":[9.1806,51.7277]},"properties":{"cc":"DE","country":"Germany","city":"Brakel, Westfalen","postcode":"33034","ref_date":"2020","house_number":"17","lon":9.180609682148,"pub_date":"2020_03_22","street":"Danziger Straße","id":"773299","facility_type":"standort","lat":51.72769994922,"hospital_name":"St. Vincenz Hospital"},"id":"6664"},{"type":"Feature","geometry":{"type":"Point","coordinates":[9.0105,51.742]},"properties":{"cc":"DE","country":"Germany","city":"Bad Driburg","postcode":"33014","ref_date":"2020","house_number":"38","lon":9.01045219277,"pub_date":"2020_03_22","street":"Elmarstraße","id":"773300","facility_type":"standort","lat":51.741993251764,"hospital_name":"St. Josef Hospital"},"id":"6665"},{"type":"Feature","geometry":{"type":"Point","coordinates":[9.0893,51.8566]},"properties":{"cc":"DE","country":"Germany","city":"Steinheim, Westfalen","postcode":"32839","ref_date":"2020","house_number":"34","lon":9.089313268514,"pub_date":"2020_03_22","street":"Nieheimer Straße","id":"773301","facility_type":"standort","lat":51.856601380292,"hospital_name":"St. Rochus Krankenhaus"},"id":"6666"},{"type":"Feature","geometry":{"type":"Point","coordinates":[9.4549,51.8346]},"properties":{"cc":"DE","country":"Germany","city":"Holzminden","postcode":"37603","ref_date":"2020","house_number":"34","lon":9.454921960896,"pub_date":"2020_03_22","street":"Forster Weg","id":"771391","facility_type":"standort","lat":51.834643855496,"hospital_name":"AGAPLESION EVANGELISCHES KRANKENHAUS Holzminden gGmbH"},"id":"6667"},{"type":"Feature","geometry":{"type":"Point","coordinates":[9.9922,54.0659]},"properties":{"cc":"DE","country":"Germany","city":"Neumünster","postcode":"24534","ref_date":"2020","house_number":"11","lon":9.992158770528,"pub_date":"2020_03_22","street":"Friesenstraße","id":"772073","facility_type":"standort","lat":54.065914474962,"hospital_name":"Hauptstandort"},"id":"6668"},{"type":"Feature","geometry":{"type":"Point","coordinates":[9.2182,48.4837]},"properties":{"cc":"DE","country":"Germany","city":"Reutlingen","postcode":"72764","ref_date":"2020","house_number":"31","lon":9.21819368004,"pub_date":"2020_03_22","street":"Steinenbergstraße","id":"771565","facility_type":"standort","lat":48.483743343529,"hospital_name":"Klinikum am Steinenberg"},"id":"6669"},{"type":"Feature","geometry":{"type":"Point","coordinates":[9.389,48.4962]},"properties":{"cc":"DE","country":"Germany","city":"Bad Urach","postcode":"72574","ref_date":"2020","house_number":"100","lon":9.389001309855,"pub_date":"2020_03_22","street":"Stuttgarter Straße","id":"771566","facility_type":"standort","lat":48.496248125295,"hospital_name":"Ermstalklinik"},"id":"6670"},{"type":"Feature","geometry":{"type":"Point","coordinates":[13.0416,53.9027]},"properties":{"cc":"DE","country":"Germany","city":"Demmin, Hansestadt","postcode":"17109","ref_date":"2020","house_number":"21","lon":13.041572767388,"pub_date":"2020_03_22","street":"Wollweberstraße","id":"772074","facility_type":"standort","lat":53.902698241062,"hospital_name":"Kreiskrankenhaus Demmin GmbH"},"id":"6671"},{"type":"Feature","geometry":{"type":"Point","coordinates":[8.2178,53.1121]},"properties":{"cc":"DE","country":"Germany","city":"Oldenburg(Oldb)","postcode":"26133","ref_date":"2020","house_number":"10","lon":8.217821824574,"pub_date":"2020_03_22","street":"Rahel-Straus-Straße","id":"771936","facility_type":"standort","lat":53.112105072622,"hospital_name":"Hauptstandort"},"id":"6672"},{"type":"Feature","geometry":{"type":"Point","coordinates":[11.6381,52.0863]},"properties":{"cc":"DE","country":"Germany","city":"Magdeburg","postcode":"39120","ref_date":"2020","house_number":"4","lon":11.638070583376,"pub_date":"2020_03_22","street":"Gustav-Ricker-Straße","id":"773465","facility_type":"standort","lat":52.086288647157,"hospital_name":"Hauptstandort"},"id":"6673"},{"type":"Feature","geometry":{"type":"Point","coordinates":[7.5494,50.9074]},"properties":{"cc":"DE","country":"Germany","city":"Nümbrecht","postcode":"51588","ref_date":"2020","house_number":"30","lon":7.549379825723,"pub_date":"2020_03_22","street":"Höhenstraße","id":"773603","facility_type":"standort","lat":50.907410212183,"hospital_name":"Rheinisch-westfälisches Zentrum für Frührehabilitation und Beatmung in der Dr. Becker Rhein-Sieg-Klinik"},"id":"6674"},{"type":"Feature","geometry":{"type":"Point","coordinates":[9.9311,52.3442]},"properties":{"cc":"DE","country":"Germany","city":"Sehnde","postcode":"31319","ref_date":"2020","house_number":"22","lon":9.931095331899,"pub_date":"2020_03_22","street":"Rudolf-Wahrendorff-Straße","id":"771006","facility_type":"standort","lat":52.344230214838,"hospital_name":"Klinikum Wahrendorff -Ilten\/Köthenwald-"},"id":"6675"},{"type":"Feature","geometry":{"type":"Point","coordinates":[9.7668,52.3386]},"properties":{"cc":"DE","country":"Germany","city":"Hannover","postcode":"30519","ref_date":"2020","house_number":"4","lon":9.766833364947,"pub_date":"2020_03_22","street":"Borgentrickstr.","id":"771007","facility_type":"standort","lat":52.338644678375,"hospital_name":"Tagesklinik Borgentrickstr."},"id":"6676"},{"type":"Feature","geometry":{"type":"Point","coordinates":[9.9829,52.3802]},"properties":{"cc":"DE","country":"Germany","city":"Lehrte bei Hannover","postcode":"31275","ref_date":"2020","house_number":"22A","lon":9.982906758769,"pub_date":"2020_03_22","street":"Manskestraße","id":"771008","facility_type":"standort","lat":52.380165765524,"hospital_name":"Tagesklinik Lehrte"},"id":"6677"},{"type":"Feature","geometry":{"type":"Point","coordinates":[9.7201,52.3682]},"properties":{"cc":"DE","country":"Germany","city":"Hannover","postcode":"30449","ref_date":"2020","house_number":"8","lon":9.720056444398,"pub_date":"2020_03_22","street":"Schwarzer Bär","id":"771009","facility_type":"standort","lat":52.368204689553,"hospital_name":"Tagesklinik Linden"},"id":"6678"},{"type":"Feature","geometry":{"type":"Point","coordinates":[9.7467,52.3806]},"properties":{"cc":"DE","country":"Germany","city":"Hannover","postcode":"30161","ref_date":"2020","house_number":"19","lon":9.746704459158,"pub_date":"2020_03_22","street":"Gartenstraße","id":"771010","facility_type":"standort","lat":52.380632385695,"hospital_name":"Tageskliniken Gartenstr.\/Welfenplatz"},"id":"6679"},{"type":"Feature","geometry":{"type":"Point","coordinates":[9.2606,51.2279]},"properties":{"cc":"DE","country":"Germany","city":"Bad Emstal","postcode":"34308","ref_date":"2020","house_number":"9","lon":9.260580897339,"pub_date":"2020_03_22","street":"Landgraf-Philipp-Straße","id":"771270","facility_type":"standort","lat":51.227946143158,"hospital_name":"Vitos psychiatrische Ambulanz Bad Emstal"},"id":"6680"},{"type":"Feature","geometry":{"type":"Point","coordinates":[9.2618,51.2257]},"properties":{"cc":"DE","country":"Germany","city":"Bad Emstal","postcode":"34308","ref_date":"2020","house_number":"2","lon":9.261841535576,"pub_date":"2020_03_22","street":"Klosterweg","id":"771270","facility_type":"standort","lat":51.225705418675,"hospital_name":"Vitos psychiatrische Ambulanz Bad Emstal"},"id":"6681"},{"type":"Feature","geometry":{"type":"Point","coordinates":[9.2603,51.2263]},"properties":{"cc":"DE","country":"Germany","city":"Bad Emstal","postcode":"34308","ref_date":"2020","house_number":"4","lon":9.260339498528,"pub_date":"2020_03_22","street":"Klosterweg","id":"771279","facility_type":"standort","lat":51.226336998236,"hospital_name":"Vitos Klinik für Psychiatrie und Psychotherapie Bad Emstal, Haus 4"},"id":"6682"},{"type":"Feature","geometry":{"type":"Point","coordinates":[9.4297,51.3118]},"properties":{"cc":"DE","country":"Germany","city":"Kassel, Hess","postcode":"34131","ref_date":"2020","house_number":"345A","lon":9.429656624843,"pub_date":"2020_03_22","street":"Wilhelmshöher Allee","id":"771283","facility_type":"standort","lat":51.311762124477,"hospital_name":"Vitos Klinik für Psychiatrie und Psychotherapie Kassel"},"id":"6683"},{"type":"Feature","geometry":{"type":"Point","coordinates":[9.4544,51.3139]},"properties":{"cc":"DE","country":"Germany","city":"Kassel, Hess","postcode":"34119","ref_date":"2020","house_number":"111","lon":9.454394102113,"pub_date":"2020_03_22","street":"Herkulesstraße","id":"771282","facility_type":"standort","lat":51.313919860165,"hospital_name":"Vitos Klinik Bad Wilhelmshöhe"},"id":"6684"},{"type":"Feature","geometry":{"type":"Point","coordinates":[10.0531,51.1835]},"properties":{"cc":"DE","country":"Germany","city":"Eschwege","postcode":"37269","ref_date":"2020","house_number":"23","lon":10.053141287019,"pub_date":"2020_03_22","street":"Luisenstraße","id":"771281","facility_type":"standort","lat":51.183520317536,"hospital_name":"Vitos kinder- und jugendpsychiatrische Ambulanz und Tagesklinik Eschwege"},"id":"6685"},{"type":"Feature","geometry":{"type":"Point","coordinates":[9.4029,51.5025]},"properties":{"cc":"DE","country":"Germany","city":"Hofgeismar","postcode":"34369","ref_date":"2020","house_number":"2","lon":9.402897861671,"pub_date":"2020_03_22","street":"Gesundbrunnen","id":"771280","facility_type":"standort","lat":51.502522690086,"hospital_name":"Vitos kinder- und jugendpsychiatrische Ambulanz und Tagesklinik Hofgeismar"},"id":"6686"},{"type":"Feature","geometry":{"type":"Point","coordinates":[9.3689,51.4961]},"properties":{"cc":"DE","country":"Germany","city":"Hofgeismar","postcode":"34369","ref_date":"2020","house_number":"1","lon":9.368926048287,"pub_date":"2020_03_22","street":"Liebenauer Straße","id":"771278","facility_type":"standort","lat":51.496075005529,"hospital_name":"Vitos Klinik für Psychiatrie und Psychotherapie Hofgeismar"},"id":"6687"},{"type":"Feature","geometry":{"type":"Point","coordinates":[9.4856,51.3134]},"properties":{"cc":"DE","country":"Germany","city":"Kassel, Hess","postcode":"34117","ref_date":"2020","house_number":"3","lon":9.485602140435,"pub_date":"2020_03_22","street":"Karthäuserstraße","id":"771277","facility_type":"standort","lat":51.313431989412,"hospital_name":"Vitos psychiatrische Ambulanz und Tagesklinik Kassel"},"id":"6688"},{"type":"Feature","geometry":{"type":"Point","coordinates":[9.5399,51.1372]},"properties":{"cc":"DE","country":"Germany","city":"Melsungen","postcode":"34212","ref_date":"2020","house_number":"80","lon":9.539943695077,"pub_date":"2020_03_22","street":"Kasseler Straße","id":"771276","facility_type":"standort","lat":51.137185253334,"hospital_name":"Vitos psychiatrische Ambulanz und Tagesklinik Melsungen"},"id":"6689"},{"type":"Feature","geometry":{"type":"Point","coordinates":[9.3415,51.1046]},"properties":{"cc":"DE","country":"Germany","city":"Wabern, Hess","postcode":"34590","ref_date":"2020","house_number":"26","lon":9.341508507737,"pub_date":"2020_03_22","street":"Kurfürstenstraße","id":"771275","facility_type":"standort","lat":51.104594765265,"hospital_name":"Vitos kinder- und jugendpsychiatrische Ambulanz und Tagesklinik Wabern"},"id":"6690"},{"type":"Feature","geometry":{"type":"Point","coordinates":[8.8673,51.2805]},"properties":{"cc":"DE","country":"Germany","city":"Korbach","postcode":"34497","ref_date":"2020","house_number":"4","lon":8.867292129858,"pub_date":"2020_03_22","street":"Skagerrakstraße","id":"771274","facility_type":"standort","lat":51.280466069401,"hospital_name":"Vitos kinder- und jugendpsychiatrische Ambulanz und Tagesklinik Korbach"},"id":"6691"},{"type":"Feature","geometry":{"type":"Point","coordinates":[9.8601,51.3425]},"properties":{"cc":"DE","country":"Germany","city":"Witzenhausen","postcode":"37213","ref_date":"2020","house_number":"20","lon":9.860111904441,"pub_date":"2020_03_22","street":"Carl-Ludwig-Straße","id":"771273","facility_type":"standort","lat":51.342533067967,"hospital_name":"Vitos kinder- und jugendpsychiatrische Ambulanz Witzenhausen"},"id":"6692"},{"type":"Feature","geometry":{"type":"Point","coordinates":[9.4296,51.3118]},"properties":{"cc":"DE","country":"Germany","city":"Kassel, Hess","postcode":"34131","ref_date":"2020","house_number":"345A","lon":9.42963516713,"pub_date":"2020_03_22","street":"Wilhelmshöher Allee","id":"771272","facility_type":"standort","lat":51.311752064865,"hospital_name":"Vito Klinik für Psychosomatik Kassel"},"id":"6693"},{"type":"Feature","geometry":{"type":"Point","coordinates":[11.3393,50.8599]},"properties":{"cc":"DE","country":"Germany","city":"Blankenhain, Thüringen","postcode":"99444","ref_date":"2020","house_number":"5","lon":11.339337408526,"pub_date":"2020_03_22","street":"Wirthstraße","id":"772244","facility_type":"standort","lat":50.859854352109,"hospital_name":"Helios Klinik Blankenhain"},"id":"6694"},{"type":"Feature","geometry":{"type":"Point","coordinates":[13.065,52.4014]},"properties":{"cc":"DE","country":"Germany","city":"Potsdam","postcode":"14467","ref_date":"2020","house_number":"72","lon":13.065048694643,"pub_date":"2020_03_22","street":"Charlottenstraße","id":"772305","facility_type":"standort","lat":52.401382990772,"hospital_name":"Klinikum Westbrandenburg, Standort Potsdam"},"id":"6695"},{"type":"Feature","geometry":{"type":"Point","coordinates":[12.5452,52.4138]},"properties":{"cc":"DE","country":"Germany","city":"Brandenburg an der Havel","postcode":"14770","ref_date":"2020","house_number":"29","lon":12.545166850123,"pub_date":"2020_03_22","street":"Hochstraße","id":"772306","facility_type":"standort","lat":52.4138414325,"hospital_name":"Klinikum Westbrandenburg, Standort Brandenburg a.d. Havel"},"id":"6696"},{"type":"Feature","geometry":{"type":"Point","coordinates":[7.1793,50.1557]},"properties":{"cc":"DE","country":"Germany","city":"Cochem","postcode":"56812","ref_date":"2020","house_number":"32","lon":7.179316520887,"pub_date":"2020_03_22","street":"Avallonstraße","id":"772167","facility_type":"standort","lat":50.155737767425,"hospital_name":"Marienkrankenhaus Cochem"},"id":"6697"},{"type":"Feature","geometry":{"type":"Point","coordinates":[9.2544,48.7416]},"properties":{"cc":"DE","country":"Germany","city":"Ostfildern","postcode":"73760","ref_date":"2020","house_number":"166","lon":9.254379630056,"pub_date":"2020_03_22","street":"Hedelfinger Straße","id":"772696","facility_type":"standort","lat":48.741633665497,"hospital_name":"medius KLINIK OSTFILDERN - RUIT"},"id":"6698"},{"type":"Feature","geometry":{"type":"Point","coordinates":[12.1581,49.3593]},"properties":{"cc":"DE","country":"Germany","city":"Schwandorf, Bayern","postcode":"92421","ref_date":"2020","house_number":"18","lon":12.158093149819,"pub_date":"2020_03_22","street":"Lindenlohe","id":"772994","facility_type":"standort","lat":49.359312861769,"hospital_name":"Klinikgebäude"},"id":"6699"},{"type":"Feature","geometry":{"type":"Point","coordinates":[11.613,50.1183]},"properties":{"cc":"DE","country":"Germany","city":"Wirsberg","postcode":"95339","ref_date":"2020","house_number":"2","lon":11.61301930435,"pub_date":"2020_03_22","street":"Goldene Adlerhütte","id":"773648","facility_type":"standort","lat":50.11826840075,"hospital_name":"Hauptstandort"},"id":"6700"},{"type":"Feature","geometry":{"type":"Point","coordinates":[8.6887,49.4026]},"properties":{"cc":"DE","country":"Germany","city":"Heidelberg, Neckar","postcode":"69115","ref_date":"2020","house_number":"25","lon":8.688714086993,"pub_date":"2020_03_22","street":"Landhausstraße","id":"771138","facility_type":"standort","lat":49.40264302376,"hospital_name":"Hauptstandort"},"id":"6701"},{"type":"Feature","geometry":{"type":"Point","coordinates":[8.0516,50.3878]},"properties":{"cc":"DE","country":"Germany","city":"Limburg an der Lahn","postcode":"65549","ref_date":"2020","house_number":"0","lon":8.051592886432,"pub_date":"2020_03_22","street":"Auf dem Schafsberg","id":"772912","facility_type":"standort","lat":50.387810499459,"hospital_name":"Limburg"},"id":"6702"},{"type":"Feature","geometry":{"type":"Point","coordinates":[9.7056,51.2128]},"properties":{"cc":"DE","country":"Germany","city":"Hessisch Lichtenau","postcode":"37235","ref_date":"2020","house_number":"20","lon":9.705641502096,"pub_date":"2020_03_22","street":"Am Mühlenberg","id":"773162","facility_type":"standort","lat":51.212824209987,"hospital_name":"Klinik"},"id":"6703"},{"type":"Feature","geometry":{"type":"Point","coordinates":[11.3777,52.2851]},"properties":{"cc":"DE","country":"Germany","city":"Haldensleben","postcode":"39340","ref_date":"2020","house_number":"27","lon":11.377711772166,"pub_date":"2020_03_22","street":"Kiefholzstraße","id":"773305","facility_type":"standort","lat":52.285076554018,"hospital_name":"AMEOS Klinikum Haldensleben, Somatik"},"id":"6704"},{"type":"Feature","geometry":{"type":"Point","coordinates":[11.6247,48.1553]},"properties":{"cc":"DE","country":"Germany","city":"München","postcode":"81925","ref_date":"2020","house_number":"77","lon":11.624686360392,"pub_date":"2020_03_22","street":"Englschalkinger Straße","id":"771080","facility_type":"standort","lat":48.155259263671,"hospital_name":"München Klinik Bogenhausen"},"id":"6705"},{"type":"Feature","geometry":{"type":"Point","coordinates":[8.3361,52.1984]},"properties":{"cc":"DE","country":"Germany","city":"Melle, Wiehengeb","postcode":"49324","ref_date":"2020","house_number":"3","lon":8.336137711985,"pub_date":"2020_03_22","street":"Engelgarten","id":"771608","facility_type":"standort","lat":52.198412712174,"hospital_name":"Hauptstandort"},"id":"6706"},{"type":"Feature","geometry":{"type":"Point","coordinates":[8.2076,47.6226]},"properties":{"cc":"DE","country":"Germany","city":"Waldshut-Tiengen","postcode":"79761","ref_date":"2020","house_number":"95","lon":8.20764105767,"pub_date":"2020_03_22","street":"Kaiserstraße","id":"771416","facility_type":"standort","lat":47.622573569654,"hospital_name":"Waldshut"},"id":"6707"},{"type":"Feature","geometry":{"type":"Point","coordinates":[10.8398,51.56]},"properties":{"cc":"DE","country":"Germany","city":"Neustadt\/Harz","postcode":"99762","ref_date":"2020","house_number":"23","lon":10.839835524657,"pub_date":"2020_03_22","street":"Badestraße","id":"771547","facility_type":"standort","lat":51.560000720476,"hospital_name":"Lungenklinik Neustadt"},"id":"6708"},{"type":"Feature","geometry":{"type":"Point","coordinates":[13.6453,50.9917]},"properties":{"cc":"DE","country":"Germany","city":"Freital","postcode":"01705","ref_date":"2020","house_number":"7","lon":13.645339464893,"pub_date":"2020_03_22","street":"Bürgerstr.","id":"771986","facility_type":"standort","lat":50.991660570445,"hospital_name":"Freital"},"id":"6709"},{"type":"Feature","geometry":{"type":"Point","coordinates":[13.6678,50.9014]},"properties":{"cc":"DE","country":"Germany","city":"Dippoldiswalde","postcode":"01744","ref_date":"2020","house_number":"9","lon":13.667824315671,"pub_date":"2020_03_22","street":"Rabenauer Straße","id":"771985","facility_type":"standort","lat":50.901410457206,"hospital_name":"Klinik Dippoldiswalde"},"id":"6710"},{"type":"Feature","geometry":{"type":"Point","coordinates":[13.953,50.9585]},"properties":{"cc":"DE","country":"Germany","city":"Pirna","postcode":"01796","ref_date":"2020","house_number":"13","lon":13.952973389351,"pub_date":"2020_03_22","street":"Struppener Str.","id":"771987","facility_type":"standort","lat":50.95851525232,"hospital_name":"Pädiatrie Pirna"},"id":"6711"},{"type":"Feature","geometry":{"type":"Point","coordinates":[8.5096,50.1446]},"properties":{"cc":"DE","country":"Germany","city":"Bad Soden am Taunus","postcode":"65812","ref_date":"2020","house_number":"11","lon":8.509577821205,"pub_date":"2020_03_22","street":"Sebastian-Kneipp-Straße","id":"772959","facility_type":"standort","lat":50.144632634797,"hospital_name":"Standort Bad Soden"},"id":"6712"},{"type":"Feature","geometry":{"type":"Point","coordinates":[8.0807,50.0439]},"properties":{"cc":"DE","country":"Germany","city":"Kiedrich, Rheingau","postcode":"65399","ref_date":"2020","house_number":"24","lon":8.080659662937,"pub_date":"2020_03_22","street":"Suttonstraße","id":"772960","facility_type":"standort","lat":50.043940411477,"hospital_name":"Standort Kiedrich"},"id":"6713"},{"type":"Feature","geometry":{"type":"Point","coordinates":[14.9697,51.1615]},"properties":{"cc":"DE","country":"Germany","city":"Görlitz, Neiße","postcode":"02828","ref_date":"2020","house_number":"1-3","lon":14.969681301154,"pub_date":"2020_03_22","street":"Girbigsdorfer Straße","id":"772378","facility_type":"standort","lat":51.161540703266,"hospital_name":"Städt. Klinikum Görlitz gGmbH"},"id":"6714"},{"type":"Feature","geometry":{"type":"Point","coordinates":[11.6482,53.575]},"properties":{"cc":"DE","country":"Germany","city":"Crivitz","postcode":"19089","ref_date":"2020","house_number":"1","lon":11.648212764958,"pub_date":"2020_03_22","street":"Amtsstraße","id":"773306","facility_type":"standort","lat":53.575004444812,"hospital_name":"MediClin Krankenhaus am Crivitzer See"},"id":"6715"},{"type":"Feature","geometry":{"type":"Point","coordinates":[10.7544,48.7241]},"properties":{"cc":"DE","country":"Germany","city":"Donauwörth","postcode":"86609","ref_date":"2020","house_number":"6","lon":10.754439353959,"pub_date":"2020_03_22","street":"Neudegger Allee","id":"773619","facility_type":"standort","lat":48.724110670375,"hospital_name":"Donau-Ries Klinik Donauwörth"},"id":"6716"},{"type":"Feature","geometry":{"type":"Point","coordinates":[10.4987,48.837]},"properties":{"cc":"DE","country":"Germany","city":"Nördlingen","postcode":"86720","ref_date":"2020","house_number":"4","lon":10.498657465014,"pub_date":"2020_03_22","street":"Stoffelsberg","id":"773620","facility_type":"standort","lat":48.837036815159,"hospital_name":"Stiftungskrankenhaus Nördlingen"},"id":"6717"},{"type":"Feature","geometry":{"type":"Point","coordinates":[10.5973,48.957]},"properties":{"cc":"DE","country":"Germany","city":"Oettingen in Bayern","postcode":"86732","ref_date":"2020","house_number":"15","lon":10.597310185449,"pub_date":"2020_03_22","street":"Kellerstraße","id":"773621","facility_type":"standort","lat":48.956965663396,"hospital_name":"Donau-Ries Klinik Oettingen"},"id":"6718"},{"type":"Feature","geometry":{"type":"Point","coordinates":[11.5645,48.1288]},"properties":{"cc":"DE","country":"Germany","city":"München","postcode":"80337","ref_date":"2020","house_number":"48","lon":11.564486861262,"pub_date":"2020_03_22","street":"Thalkirchner Straße","id":"771082","facility_type":"standort","lat":48.128759452289,"hospital_name":"München Klinik Thalkirchner Straße"},"id":"6719"},{"type":"Feature","geometry":{"type":"Point","coordinates":[7.4887,52.4976]},"properties":{"cc":"DE","country":"Germany","city":"Thuine, Emsl","postcode":"49832","ref_date":"2020","house_number":"4","lon":7.488681435552,"pub_date":"2020_03_22","street":"Klosterstraße","id":"771573","facility_type":"standort","lat":52.497606316962,"hospital_name":"Hauptstandort"},"id":"6720"},{"type":"Feature","geometry":{"type":"Point","coordinates":[7.8154,48.0239]},"properties":{"cc":"DE","country":"Germany","city":"Freiburg im Breisgau","postcode":"79110","ref_date":"2020","house_number":"11","lon":7.815443426371,"pub_date":"2020_03_22","street":"Wirthstraße","id":"771430","facility_type":"standort","lat":48.023886676398,"hospital_name":"Hauptstandort"},"id":"6721"},{"type":"Feature","geometry":{"type":"Point","coordinates":[7.8154,48.0239]},"properties":{"cc":"DE","country":"Germany","city":"Freiburg im Breisgau","postcode":"79110","ref_date":"2020","house_number":"11","lon":7.815443426371,"pub_date":"2020_03_22","street":"Wirthstraße","id":"771430","facility_type":"standort","lat":48.023886676398,"hospital_name":"Hauptstandort"},"id":"6722"},{"type":"Feature","geometry":{"type":"Point","coordinates":[12.8104,48.9171]},"properties":{"cc":"DE","country":"Germany","city":"Schwarzach, Niederbayern","postcode":"94374","ref_date":"2020","house_number":"2-6","lon":12.810395479137,"pub_date":"2020_03_22","street":"Dekan-Graf-Straße","id":"771310","facility_type":"standort","lat":48.917105955223,"hospital_name":"Hauptstandort"},"id":"6723"},{"type":"Feature","geometry":{"type":"Point","coordinates":[8.1916,50.0657]},"properties":{"cc":"DE","country":"Germany","city":"Wiesbaden","postcode":"65199","ref_date":"2020","house_number":"100","lon":8.191581665733,"pub_date":"2020_03_22","street":"Ludwig-Erhard-Straße","id":"773371","facility_type":"standort","lat":50.065690632694,"hospital_name":"Helios Dr. Horst-Schmidt-Kliniken"},"id":"6724"},{"type":"Feature","geometry":{"type":"Point","coordinates":[8.2746,50.0875]},"properties":{"cc":"DE","country":"Germany","city":"Wiesbaden","postcode":"65191","ref_date":"2020","house_number":"39","lon":8.274588042509,"pub_date":"2020_03_22","street":"Aukammallee","id":"773141","facility_type":"standort","lat":50.087525286587,"hospital_name":"Helios Wilhelm Fresenius Klinik"},"id":"6725"},{"type":"Feature","geometry":{"type":"Point","coordinates":[7.2306,51.5345]},"properties":{"cc":"DE","country":"Germany","city":"Herne, Westfalen","postcode":"44623","ref_date":"2020","house_number":"24","lon":7.230587482518,"pub_date":"2020_03_22","street":"Wiescherstraße","id":"772000","facility_type":"standort","lat":51.534453885174,"hospital_name":"Herne-Mitte"},"id":"6726"},{"type":"Feature","geometry":{"type":"Point","coordinates":[7.1755,51.5107]},"properties":{"cc":"DE","country":"Germany","city":"Herne","postcode":"44651","ref_date":"2020","house_number":"7-9","lon":7.175529241595,"pub_date":"2020_03_22","street":"Hordeler Str.","id":"771999","facility_type":"standort","lat":51.510657213551,"hospital_name":"Herne-Eickel"},"id":"6727"},{"type":"Feature","geometry":{"type":"Point","coordinates":[13.2047,52.4236]},"properties":{"cc":"DE","country":"Germany","city":"Berlin","postcode":"14129","ref_date":"2020","house_number":"69","lon":13.204680472604,"pub_date":"2020_03_22","street":"Potsdamer Chaussee","id":"772463","facility_type":"standort","lat":52.423614771379,"hospital_name":"Potsdamer Chaussee 69"},"id":"6728"},{"type":"Feature","geometry":{"type":"Point","coordinates":[13.3565,52.4341]},"properties":{"cc":"DE","country":"Germany","city":"Berlin","postcode":"12249","ref_date":"2020","house_number":"1E","lon":13.356549829236,"pub_date":"2020_03_22","street":"Kamenzer Damm","id":"772464","facility_type":"standort","lat":52.434132451463,"hospital_name":"Kamenzer Damm 1"},"id":"6729"},{"type":"Feature","geometry":{"type":"Point","coordinates":[6.864,51.1645]},"properties":{"cc":"DE","country":"Germany","city":"Düsseldorf","postcode":"40597","ref_date":"2020","house_number":"79-81","lon":6.86401265858,"pub_date":"2020_03_22","street":"Marbacher Str.","id":"772321","facility_type":"standort","lat":51.164464915594,"hospital_name":"Johanniter Tagesklinik Düsseldorf gGmbH   Klinik für Psychiatrie und Psychotherapie"},"id":"6730"},{"type":"Feature","geometry":{"type":"Point","coordinates":[11.5571,48.0856]},"properties":{"cc":"DE","country":"Germany","city":"München","postcode":"81545","ref_date":"2020","house_number":"2","lon":11.557083964381,"pub_date":"2020_03_22","street":"Sanatoriumsplatz","id":"771083","facility_type":"standort","lat":48.085567292582,"hospital_name":"München Klinik Harlaching"},"id":"6731"},{"type":"Feature","geometry":{"type":"Point","coordinates":[12.067,50.0018]},"properties":{"cc":"DE","country":"Germany","city":"Marktredwitz","postcode":"95615","ref_date":"2020","house_number":"1","lon":12.067034768852,"pub_date":"2020_03_22","street":"Schillerhain","id":"771308","facility_type":"standort","lat":50.001792732594,"hospital_name":"Klinikum Fichtelgebirge - Haus Marktredwitz"},"id":"6732"},{"type":"Feature","geometry":{"type":"Point","coordinates":[12.1185,50.1687]},"properties":{"cc":"DE","country":"Germany","city":"Selb","postcode":"95100","ref_date":"2020","house_number":"62","lon":12.118507862124,"pub_date":"2020_03_22","street":"Weißenbacher Straße","id":"771309","facility_type":"standort","lat":50.16874332031,"hospital_name":"Klinikum Fichtelgebirge - Haus Selb"},"id":"6733"},{"type":"Feature","geometry":{"type":"Point","coordinates":[10.8883,48.3683]},"properties":{"cc":"DE","country":"Germany","city":"Augsburg, Bayern","postcode":"86150","ref_date":"2020","house_number":"17","lon":10.888340055967,"pub_date":"2020_03_22","street":"Frölichstraße","id":"773618","facility_type":"standort","lat":48.368319252393,"hospital_name":"die stadtklinik im diako"},"id":"6734"},{"type":"Feature","geometry":{"type":"Point","coordinates":[7.709,52.0133]},"properties":{"cc":"DE","country":"Germany","city":"Münster, Westfalen","postcode":"48157","ref_date":"2020","house_number":"300","lon":7.709048509532,"pub_date":"2020_03_22","street":"Dorbaumstraße","id":"771779","facility_type":"standort","lat":52.01326383455,"hospital_name":"Fachklinik Hornheide"},"id":"6735"},{"type":"Feature","geometry":{"type":"Point","coordinates":[12.7447,52.3222]},"properties":{"cc":"DE","country":"Germany","city":"Kloster Lehnin","postcode":"14797","ref_date":"2020","house_number":"8a","lon":12.744667321449,"pub_date":"2020_03_22","street":"Klosterkirchplatz","id":"772029","facility_type":"standort","lat":52.322206966322,"hospital_name":"Evangelische Kliniken Luise-Henrietten-Stift Lehnin"},"id":"6736"},{"type":"Feature","geometry":{"type":"Point","coordinates":[6.7494,51.3003]},"properties":{"cc":"DE","country":"Germany","city":"Düsseldorf","postcode":"40489","ref_date":"2020","house_number":"79","lon":6.749400258032,"pub_date":"2020_03_22","street":"Kreuzbergstraße","id":"772846","facility_type":"standort","lat":51.300317890771,"hospital_name":"Kaiserswerther Diakonie        Florence-Nightingale-Krankenhaus, Kreuzbergstrasse 79, 40489 Düsseldorf"},"id":"6737"},{"type":"Feature","geometry":{"type":"Point","coordinates":[11.7181,51.7933]},"properties":{"cc":"DE","country":"Germany","city":"Bernburg(Saale)","postcode":"06406","ref_date":"2020","house_number":"8","lon":11.718135595256,"pub_date":"2020_03_22","street":"Keßlerstraße","id":"773540","facility_type":"standort","lat":51.79329531819,"hospital_name":"Waldklinik Bernburg GmbH"},"id":"6738"},{"type":"Feature","geometry":{"type":"Point","coordinates":[11.6565,48.0954]},"properties":{"cc":"DE","country":"Germany","city":"München","postcode":"81737","ref_date":"2020","house_number":"51","lon":11.656508088145,"pub_date":"2020_03_22","street":"Oskar-Maria-Graf-Ring","id":"771084","facility_type":"standort","lat":48.095395999887,"hospital_name":"München Klinik Neuperlach"},"id":"6739"},{"type":"Feature","geometry":{"type":"Point","coordinates":[12.1184,49.007]},"properties":{"cc":"DE","country":"Germany","city":"Regensburg","postcode":"93053","ref_date":"2020","house_number":"65","lon":12.118438124689,"pub_date":"2020_03_22","street":"Landshuter Straße","id":"771144","facility_type":"standort","lat":49.0070151794,"hospital_name":"Hauptstandort"},"id":"6740"},{"type":"Feature","geometry":{"type":"Point","coordinates":[9.6215,47.7879]},"properties":{"cc":"DE","country":"Germany","city":"Ravensburg, Württemberg","postcode":"88212","ref_date":"2020","house_number":"15","lon":9.621534937132,"pub_date":"2020_03_22","street":"Elisabethenstraße","id":"773137","facility_type":"standort","lat":47.787945360369,"hospital_name":"Hauptstandort"},"id":"6741"},{"type":"Feature","geometry":{"type":"Point","coordinates":[7.006,51.389]},"properties":{"cc":"DE","country":"Germany","city":"Essen, Ruhr","postcode":"45239","ref_date":"2020","house_number":"2","lon":7.00595211998,"pub_date":"2020_03_22","street":"Propsteistr.","id":"772016","facility_type":"standort","lat":51.389033346782,"hospital_name":"St. Josef Krankenhaus Essen-Werden GmbH"},"id":"6742"},{"type":"Feature","geometry":{"type":"Point","coordinates":[7.006,51.389]},"properties":{"cc":"DE","country":"Germany","city":"Essen, Ruhr","postcode":"45239","ref_date":"2020","house_number":"2","lon":7.00595211998,"pub_date":"2020_03_22","street":"Propsteistr.","id":"772016","facility_type":"standort","lat":51.389033346782,"hospital_name":"St. Josef Krankenhaus Essen-Werden GmbH"},"id":"6743"},{"type":"Feature","geometry":{"type":"Point","coordinates":[7.1134,49.2906]},"properties":{"cc":"DE","country":"Germany","city":"St. Ingbert","postcode":"66386","ref_date":"2020","house_number":"1","lon":7.113414645228,"pub_date":"2020_03_22","street":"Klaus-Tussing-Straße","id":"772682","facility_type":"standort","lat":49.290550240755,"hospital_name":"Einziger Standort"},"id":"6744"},{"type":"Feature","geometry":{"type":"Point","coordinates":[10.8555,48.0487]},"properties":{"cc":"DE","country":"Germany","city":"Landsberg am Lech","postcode":"86899","ref_date":"2020","house_number":"50","lon":10.855548977852,"pub_date":"2020_03_22","street":"Bürgermeister-Dr.-Hartmann-Straße","id":"773309","facility_type":"standort","lat":48.048700332184,"hospital_name":"Zentrale Notaufnahme"},"id":"6745"},{"type":"Feature","geometry":{"type":"Point","coordinates":[11.5776,48.1706]},"properties":{"cc":"DE","country":"Germany","city":"München","postcode":"80804","ref_date":"2020","house_number":"1","lon":11.577624321017,"pub_date":"2020_03_22","street":"Kölner Platz","id":"771085","facility_type":"standort","lat":48.170562997054,"hospital_name":"München Klinik Schwabing"},"id":"6746"},{"type":"Feature","geometry":{"type":"Point","coordinates":[13.1923,52.5694]},"properties":{"cc":"DE","country":"Germany","city":"Berlin","postcode":"13587","ref_date":"2020","house_number":"26","lon":13.192334532787,"pub_date":"2020_03_22","street":"Schönwalder Allee","id":"771908","facility_type":"standort","lat":52.569410528029,"hospital_name":"Wichernkrankenhaus inklusive Tagesklinik"},"id":"6747"},{"type":"Feature","geometry":{"type":"Point","coordinates":[6.6711,53.5849]},"properties":{"cc":"DE","country":"Germany","city":"Borkum","postcode":"26757","ref_date":"2020","house_number":"20","lon":6.671117305887,"pub_date":"2020_03_22","street":"Gartenstraße","id":"772024","facility_type":"standort","lat":53.58488183671,"hospital_name":"Inselkrankenhaus Borkum"},"id":"6748"},{"type":"Feature","geometry":{"type":"Point","coordinates":[7.2188,50.3262]},"properties":{"cc":"DE","country":"Germany","city":"Mayen","postcode":"56727","ref_date":"2020","house_number":"20","lon":7.218805342904,"pub_date":"2020_03_22","street":"Siegfriedstraße","id":"772553","facility_type":"standort","lat":50.326201063534,"hospital_name":"Tagesklinik Mayen"},"id":"6749"},{"type":"Feature","geometry":{"type":"Point","coordinates":[7.1782,50.1548]},"properties":{"cc":"DE","country":"Germany","city":"Cochem","postcode":"56812","ref_date":"2020","house_number":"30","lon":7.178239613763,"pub_date":"2020_03_22","street":"Avallonstraße","id":"772439","facility_type":"standort","lat":50.154834687447,"hospital_name":"Tagesklinik Cochem"},"id":"6750"},{"type":"Feature","geometry":{"type":"Point","coordinates":[7.3976,50.429]},"properties":{"cc":"DE","country":"Germany","city":"Andernach","postcode":"56626","ref_date":"2020","house_number":"58","lon":7.397550433866,"pub_date":"2020_03_22","street":"Vulkanstraße","id":"772551","facility_type":"standort","lat":50.428970325021,"hospital_name":"Rhein-Mosel-Fachklinik"},"id":"6751"},{"type":"Feature","geometry":{"type":"Point","coordinates":[7.5901,50.3491]},"properties":{"cc":"DE","country":"Germany","city":"Koblenz am Rhein","postcode":"56068","ref_date":"2020","house_number":"11","lon":7.590063706036,"pub_date":"2020_03_22","street":"Neversstraße","id":"772552","facility_type":"standort","lat":50.349074891983,"hospital_name":"Tagesklinik Koblenz"},"id":"6752"},{"type":"Feature","geometry":{"type":"Point","coordinates":[13.253,52.4229]},"properties":{"cc":"DE","country":"Germany","city":"Berlin","postcode":"14165","ref_date":"2020","house_number":"11","lon":13.25299161671,"pub_date":"2020_03_22","street":"Walterhöferstraße","id":"772955","facility_type":"standort","lat":52.422884442758,"hospital_name":"Helios Klinikum Emil von Behring"},"id":"6753"},{"type":"Feature","geometry":{"type":"Point","coordinates":[9.9054,53.6314]},"properties":{"cc":"DE","country":"Germany","city":"Hamburg","postcode":"22457","ref_date":"2020","house_number":"11a","lon":9.905438303986,"pub_date":"2020_03_22","street":"Süntelstraße","id":"773692","facility_type":"standort","lat":53.631448907265,"hospital_name":"Perinatalzentrum Schnelsen"},"id":"6754"},{"type":"Feature","geometry":{"type":"Point","coordinates":[9.913,53.5512]},"properties":{"cc":"DE","country":"Germany","city":"Hamburg","postcode":"22763","ref_date":"2020","house_number":"38","lon":9.913026809845,"pub_date":"2020_03_22","street":"Bleickenallee","id":"773693","facility_type":"standort","lat":53.551159545356,"hospital_name":"Hauptstandort"},"id":"6755"},{"type":"Feature","geometry":{"type":"Point","coordinates":[13.5113,52.6314]},"properties":{"cc":"DE","country":"Germany","city":"Berlin","postcode":"13125","ref_date":"2020","house_number":"50","lon":13.511301755971,"pub_date":"2020_03_22","street":"Schwanebecker Chaussee","id":"773608","facility_type":"standort","lat":52.631418701813,"hospital_name":"Helios Klinikum Berlin-Buch"},"id":"6756"},{"type":"Feature","geometry":{"type":"Point","coordinates":[13.1442,52.999]},"properties":{"cc":"DE","country":"Germany","city":"Gransee","postcode":"16775","ref_date":"2020","house_number":"12-13","lon":13.144247111663,"pub_date":"2020_03_22","street":"Meseberger Weg","id":"771052","facility_type":"standort","lat":52.999037967658,"hospital_name":"Oberhavel Klinik Gransee GmbH"},"id":"6757"},{"type":"Feature","geometry":{"type":"Point","coordinates":[7.351,51.1986]},"properties":{"cc":"DE","country":"Germany","city":"Radevormwald","postcode":"42477","ref_date":"2020","house_number":"33","lon":7.351010084185,"pub_date":"2020_03_22","street":"Siepenstraße","id":"771457","facility_type":"standort","lat":51.19860988881,"hospital_name":"Sana Krankenhaus Radevormwald"},"id":"6758"},{"type":"Feature","geometry":{"type":"Point","coordinates":[7.2184,50.7884]},"properties":{"cc":"DE","country":"Germany","city":"Siegburg","postcode":"53721","ref_date":"2020","house_number":"2","lon":7.218443512884,"pub_date":"2020_03_22","street":"Mühlengrabenstr.","id":"772262","facility_type":"standort","lat":50.788435460491,"hospital_name":"Hauptstandort"},"id":"6759"},{"type":"Feature","geometry":{"type":"Point","coordinates":[7.1375,50.99]},"properties":{"cc":"DE","country":"Germany","city":"Bergisch Gladbach","postcode":"51465","ref_date":"2020","house_number":"24","lon":7.137549161944,"pub_date":"2020_03_22","street":"Ferrenbergstraße","id":"773200","facility_type":"standort","lat":50.990031223958,"hospital_name":"Evangelisches Krankenhaus Bergisch Gladbach gGmbH"},"id":"6760"},{"type":"Feature","geometry":{"type":"Point","coordinates":[10.4464,54.1372]},"properties":{"cc":"DE","country":"Germany","city":"Bösdorf bei Plön","postcode":"24306","ref_date":"2020","house_number":"3","lon":10.446381747706,"pub_date":"2020_03_22","street":"Missionsweg","id":"773328","facility_type":"standort","lat":54.137210295381,"hospital_name":"Fachklinik Freudenholm-Ruhleben"},"id":"6761"},{"type":"Feature","geometry":{"type":"Point","coordinates":[10.3118,54.217]},"properties":{"cc":"DE","country":"Germany","city":"Schellhorn bei Preetz, Holst","postcode":"24211","ref_date":"2020","house_number":"3","lon":10.311813712087,"pub_date":"2020_03_22","street":"Freudenholm","id":"773329","facility_type":"standort","lat":54.216950736336,"hospital_name":"Fachklink Freudenholm-Ruhleben"},"id":"6762"},{"type":"Feature","geometry":{"type":"Point","coordinates":[11.1635,51.7953]},"properties":{"cc":"DE","country":"Germany","city":"Quedlinburg","postcode":"06484","ref_date":"2020","house_number":"24","lon":11.163533091594,"pub_date":"2020_03_22","street":"Ditfurter Weg","id":"771011","facility_type":"standort","lat":51.795329141617,"hospital_name":"Harzklinikum  Standort Quedlinburg"},"id":"6763"},{"type":"Feature","geometry":{"type":"Point","coordinates":[10.7744,51.8354]},"properties":{"cc":"DE","country":"Germany","city":"Wernigerode","postcode":"38855","ref_date":"2020","house_number":"15","lon":10.77440893655,"pub_date":"2020_03_22","street":"Ilsenburger Straße","id":"771012","facility_type":"standort","lat":51.835429468458,"hospital_name":"Harzklinikum, Standort Wernigerode"},"id":"6764"},{"type":"Feature","geometry":{"type":"Point","coordinates":[10.7472,51.8165]},"properties":{"cc":"DE","country":"Germany","city":"Wernigerode","postcode":"38855","ref_date":"2020","house_number":"1","lon":10.74723976853,"pub_date":"2020_03_22","street":"Steinbergstraße","id":"771013","facility_type":"standort","lat":51.81654941914,"hospital_name":"Klinik für Kinder-und Jugendmedizin"},"id":"6765"},{"type":"Feature","geometry":{"type":"Point","coordinates":[10.955,51.7929]},"properties":{"cc":"DE","country":"Germany","city":"Blankenburg","postcode":"38889","ref_date":"2020","house_number":"7 - 10","lon":10.955030500913,"pub_date":"2020_03_22","street":"Tiestraße","id":"771014","facility_type":"standort","lat":51.792862330888,"hospital_name":"Klinik für Psychiatrie und Psychotherapie"},"id":"6766"},{"type":"Feature","geometry":{"type":"Point","coordinates":[8.5886,48.8528]},"properties":{"cc":"DE","country":"Germany","city":"Neuenbürg, Württemberg","postcode":"75305","ref_date":"2020","house_number":"46","lon":8.588635504229,"pub_date":"2020_03_22","street":"Marxzeller Straße","id":"771996","facility_type":"standort","lat":48.852759102414,"hospital_name":"Krankenhaus Neuenbürg"},"id":"6767"},{"type":"Feature","geometry":{"type":"Point","coordinates":[14.0141,51.1799]},"properties":{"cc":"DE","country":"Germany","city":"Pulsnitz","postcode":"01896","ref_date":"2020","house_number":"1","lon":14.014127432874,"pub_date":"2020_03_22","street":"Wittgensteiner Straße","id":"772369","facility_type":"standort","lat":51.179913789671,"hospital_name":"VAMED Klinik Schloss Pulsnitz"},"id":"6768"},{"type":"Feature","geometry":{"type":"Point","coordinates":[6.9046,50.9368]},"properties":{"cc":"DE","country":"Germany","city":"Köln","postcode":"50933","ref_date":"2020","house_number":"445","lon":6.904641151559,"pub_date":"2020_03_22","street":"Aachener Str.","id":"772833","facility_type":"standort","lat":50.936776052749,"hospital_name":"Hauptstandort"},"id":"6769"},{"type":"Feature","geometry":{"type":"Point","coordinates":[10.0503,51.1826]},"properties":{"cc":"DE","country":"Germany","city":"Eschwege","postcode":"37269","ref_date":"2020","house_number":"1","lon":10.050348758714,"pub_date":"2020_03_22","street":"Elsa-Brändström-Straße","id":"772876","facility_type":"standort","lat":51.18258131113,"hospital_name":"Klinikum Werra-Meißner GmbH - Standort Eschwege"},"id":"6770"},{"type":"Feature","geometry":{"type":"Point","coordinates":[9.86,51.3434]},"properties":{"cc":"DE","country":"Germany","city":"Witzenhausen","postcode":"37213","ref_date":"2020","house_number":"18-26","lon":9.859974145897,"pub_date":"2020_03_22","street":"Steinstraße","id":"772877","facility_type":"standort","lat":51.343361885523,"hospital_name":"Klinikum Werra-Meißner GmbH - Standort Witzenhausen"},"id":"6771"},{"type":"Feature","geometry":{"type":"Point","coordinates":[10.0479,51.186]},"properties":{"cc":"DE","country":"Germany","city":"Eschwege","postcode":"37269","ref_date":"2020","house_number":"21","lon":10.047912776454,"pub_date":"2020_03_22","street":"Reichensächser Straße","id":"772878","facility_type":"standort","lat":51.186006028275,"hospital_name":"Psychiatrische Institutsambulanz Eschwege"},"id":"6772"},{"type":"Feature","geometry":{"type":"Point","coordinates":[9.7235,51.1965]},"properties":{"cc":"DE","country":"Germany","city":"Hessisch Lichtenau","postcode":"37235","ref_date":"2020","house_number":"13","lon":9.723537147029,"pub_date":"2020_03_22","street":"Heinrichstraße","id":"772879","facility_type":"standort","lat":51.19649211642,"hospital_name":"Psychiatrische Institutsambulanz Hessisch-Lichtenau"},"id":"6773"},{"type":"Feature","geometry":{"type":"Point","coordinates":[9.9606,53.8317]},"properties":{"cc":"DE","country":"Germany","city":"Kaltenkirchen, Holst","postcode":"24568","ref_date":"2020","house_number":"15a","lon":9.960637450185,"pub_date":"2020_03_22","street":"Flottkamp","id":"773331","facility_type":"standort","lat":53.831703586309,"hospital_name":"Psychiatrische Institutsambulanz Rickling in Kaltenkirchen"},"id":"6774"},{"type":"Feature","geometry":{"type":"Point","coordinates":[10.3037,53.9439]},"properties":{"cc":"DE","country":"Germany","city":"Bad Segeberg","postcode":"23795","ref_date":"2020","house_number":"13a","lon":10.303659796682,"pub_date":"2020_03_22","street":"Schillerstraße","id":"773330","facility_type":"standort","lat":53.94387143271,"hospital_name":"Psychiatrische Institusambulanz Rickling in Bad Segeberg"},"id":"6775"},{"type":"Feature","geometry":{"type":"Point","coordinates":[9.9882,53.7363]},"properties":{"cc":"DE","country":"Germany","city":"Norderstedt","postcode":"22844","ref_date":"2020","house_number":"6","lon":9.988229066125,"pub_date":"2020_03_22","street":"Beim Umspannwerk","id":"773365","facility_type":"standort","lat":53.736325771407,"hospital_name":"Psychiatrische Institutsambulanz Rickling in Norderstedt"},"id":"6776"},{"type":"Feature","geometry":{"type":"Point","coordinates":[10.1745,53.9995]},"properties":{"cc":"DE","country":"Germany","city":"Rickling","postcode":"24635","ref_date":"2020","house_number":"2","lon":10.174523770793,"pub_date":"2020_03_22","street":"Daldorfer Straße","id":"773366","facility_type":"standort","lat":53.999535096333,"hospital_name":"Psychiatrisches Krankenhaus Rickling"},"id":"6777"},{"type":"Feature","geometry":{"type":"Point","coordinates":[10.8046,49.7057]},"properties":{"cc":"DE","country":"Germany","city":"Höchstadt an der Aisch","postcode":"91315","ref_date":"2020","house_number":"5","lon":10.804631155543,"pub_date":"2020_03_22","street":"Spitalstraße","id":"771666","facility_type":"standort","lat":49.705675494301,"hospital_name":"Hauptstandort"},"id":"6778"},{"type":"Feature","geometry":{"type":"Point","coordinates":[8.3256,51.1441]},"properties":{"cc":"DE","country":"Germany","city":"Schmallenberg","postcode":"57392","ref_date":"2020","house_number":"1","lon":8.325611114633,"pub_date":"2020_03_22","street":"Annostraße","id":"771166","facility_type":"standort","lat":51.144133726251,"hospital_name":"Haupstandort"},"id":"6779"},{"type":"Feature","geometry":{"type":"Point","coordinates":[11.8272,47.7672]},"properties":{"cc":"DE","country":"Germany","city":"Hausham","postcode":"83734","ref_date":"2020","house_number":"1a","lon":11.827181339395,"pub_date":"2020_03_22","street":"St.-Agatha-Straße","id":"771346","facility_type":"standort","lat":47.767159346046,"hospital_name":"kbo-Lech-Mangfall-Klinik Agatharied"},"id":"6780"},{"type":"Feature","geometry":{"type":"Point","coordinates":[6.5658,51.3199]},"properties":{"cc":"DE","country":"Germany","city":"Krefeld","postcode":"47805","ref_date":"2020","house_number":"40","lon":6.565841674346,"pub_date":"2020_03_22","street":"Lutherplatz","id":"772782","facility_type":"standort","lat":51.319885882105,"hospital_name":"Helios Klinikum Krefeld"},"id":"6781"},{"type":"Feature","geometry":{"type":"Point","coordinates":[6.5146,51.3762]},"properties":{"cc":"DE","country":"Germany","city":"Krefeld","postcode":"47839","ref_date":"2020","house_number":"50","lon":6.514596462266,"pub_date":"2020_03_22","street":"Fette Henn","id":"772315","facility_type":"standort","lat":51.376167951067,"hospital_name":"Helios Cäcilien Hospital Hüls"},"id":"6782"},{"type":"Feature","geometry":{"type":"Point","coordinates":[9.1678,50.9095]},"properties":{"cc":"DE","country":"Germany","city":"Schwalmstadt","postcode":"34613","ref_date":"2020","house_number":"6","lon":9.167831718905,"pub_date":"2020_03_22","street":"Schimmelpfengstraße","id":"771789","facility_type":"standort","lat":50.909542936904,"hospital_name":"Hephata-Klinik"},"id":"6783"},{"type":"Feature","geometry":{"type":"Point","coordinates":[9.6882,47.5468]},"properties":{"cc":"DE","country":"Germany","city":"Lindau(Bodensee)","postcode":"88131","ref_date":"2020","house_number":"14","lon":9.688163638148,"pub_date":"2020_03_22","street":"Fischergasse","id":"772388","facility_type":"standort","lat":47.546772023759,"hospital_name":"Psychiatrische Tagklinik Lindau"},"id":"6784"},{"type":"Feature","geometry":{"type":"Point","coordinates":[14.7141,51.946]},"properties":{"cc":"DE","country":"Germany","city":"Guben","postcode":"03172","ref_date":"2020","house_number":"1","lon":14.714145898688,"pub_date":"2020_03_22","street":"Dr.-Ayrer-Straße","id":"772604","facility_type":"standort","lat":51.945977756306,"hospital_name":"Hauptstandort"},"id":"6785"},{"type":"Feature","geometry":{"type":"Point","coordinates":[8.3647,51.4598]},"properties":{"cc":"DE","country":"Germany","city":"Warstein","postcode":"59581","ref_date":"2020","house_number":"23","lon":8.364730596477,"pub_date":"2020_03_22","street":"Franz-Hegemann-Straße","id":"773216","facility_type":"standort","lat":51.459829692291,"hospital_name":"Standort 00 LWL-Klinik Warstein"},"id":"6786"},{"type":"Feature","geometry":{"type":"Point","coordinates":[8.7234,48.7819]},"properties":{"cc":"DE","country":"Germany","city":"Bad Liebenzell","postcode":"75378","ref_date":"2020","house_number":"60","lon":8.723368227465,"pub_date":"2020_03_22","street":"Burghaldenweg","id":"773615","facility_type":"standort","lat":48.781873613018,"hospital_name":"Paracelsus Krankenhaus Unterlengenhardt e.V."},"id":"6787"},{"type":"Feature","geometry":{"type":"Point","coordinates":[6.6398,51.4455]},"properties":{"cc":"DE","country":"Germany","city":"Moers","postcode":"47441","ref_date":"2020","house_number":"4","lon":6.639752465771,"pub_date":"2020_03_22","street":"Asberger Straße","id":"771226","facility_type":"standort","lat":51.445547477624,"hospital_name":"St. Josef Krankenhaus Moers"},"id":"6788"},{"type":"Feature","geometry":{"type":"Point","coordinates":[6.6083,51.5416]},"properties":{"cc":"DE","country":"Germany","city":"Rheinberg","postcode":"47495","ref_date":"2020","house_number":"55","lon":6.608257537946,"pub_date":"2020_03_22","street":"Orsoyer Straße","id":"771227","facility_type":"standort","lat":51.54160814473,"hospital_name":"St. Nikolaus Hospital Rheinberg"},"id":"6789"},{"type":"Feature","geometry":{"type":"Point","coordinates":[10.8557,48.0485]},"properties":{"cc":"DE","country":"Germany","city":"Landsberg am Lech","postcode":"86899","ref_date":"2020","house_number":"50 -52","lon":10.855728149545,"pub_date":"2020_03_22","street":"Bürgermeister-Dr.-Hartmann-Straße","id":"771345","facility_type":"standort","lat":48.048473259358,"hospital_name":"kbo-Lech-Mangfall-Klinik Landsberg am Lech"},"id":"6790"},{"type":"Feature","geometry":{"type":"Point","coordinates":[8.2704,49.9893]},"properties":{"cc":"DE","country":"Germany","city":"Mainz am Rhein","postcode":"55131","ref_date":"2020","house_number":"11","lon":8.270441025643,"pub_date":"2020_03_22","street":"An der Goldgrube","id":"772834","facility_type":"standort","lat":49.989290260498,"hospital_name":"Katholisches Klinkum Mainz (Hauptstandort)"},"id":"6791"},{"type":"Feature","geometry":{"type":"Point","coordinates":[12.3786,51.3032]},"properties":{"cc":"DE","country":"Germany","city":"Leipzig","postcode":"04277","ref_date":"2020","house_number":"84","lon":12.37856197331,"pub_date":"2020_03_22","street":"Biedermannstraße","id":"771805","facility_type":"standort","lat":51.30319757913,"hospital_name":"Biedermannstraße 84, 04277 Leipzig"},"id":"6792"},{"type":"Feature","geometry":{"type":"Point","coordinates":[9.1142,51.1172]},"properties":{"cc":"DE","country":"Germany","city":"Bad Wildungen","postcode":"34537","ref_date":"2020","house_number":"19","lon":9.114189147622,"pub_date":"2020_03_22","street":"Brunnenallee","id":"773158","facility_type":"standort","lat":51.117245594667,"hospital_name":"Asklepios Stadtklinik"},"id":"6793"},{"type":"Feature","geometry":{"type":"Point","coordinates":[8.3416,51.6797]},"properties":{"cc":"DE","country":"Germany","city":"Lippstadt","postcode":"59555","ref_date":"2020","house_number":"15","lon":8.341642141277,"pub_date":"2020_03_22","street":"Am Nordbahnhof","id":"772948","facility_type":"standort","lat":51.679653919156,"hospital_name":"Standort 02 LWL-Klinik Lippstadt\/Tagesklinik Psychiatrie Lippstadt"},"id":"6794"},{"type":"Feature","geometry":{"type":"Point","coordinates":[8.2349,51.656]},"properties":{"cc":"DE","country":"Germany","city":"Lippstadt","postcode":"59556","ref_date":"2020","house_number":"6","lon":8.234890222484,"pub_date":"2020_03_22","street":"Im Hofholz","id":"773215","facility_type":"standort","lat":51.655964835945,"hospital_name":"Standort 01 LWL-Klinik Lippstadt"},"id":"6795"},{"type":"Feature","geometry":{"type":"Point","coordinates":[8.1112,51.5748]},"properties":{"cc":"DE","country":"Germany","city":"Soest, Westfalen","postcode":"59494","ref_date":"2020","house_number":"3","lon":8.11121025682,"pub_date":"2020_03_22","street":"Widumgasse","id":"772947","facility_type":"standort","lat":51.574837906615,"hospital_name":"Standort 03 LWL-Klinik Lippstadt\/Tagesklinik Psychiatrie Soest"},"id":"6796"},{"type":"Feature","geometry":{"type":"Point","coordinates":[11.6346,50.3617]},"properties":{"cc":"DE","country":"Germany","city":"Bad Steben","postcode":"95138","ref_date":"2020","house_number":"2","lon":11.634557958751,"pub_date":"2020_03_22","street":"Berliner Str.","id":"773532","facility_type":"standort","lat":50.361702756107,"hospital_name":"Hauptstandort"},"id":"6797"},{"type":"Feature","geometry":{"type":"Point","coordinates":[9.0804,54.1997]},"properties":{"cc":"DE","country":"Germany","city":"Heide, Holst","postcode":"25746","ref_date":"2020","house_number":"50","lon":9.080427056679,"pub_date":"2020_03_22","street":"Esmarchstraße","id":"771042","facility_type":"standort","lat":54.199694819113,"hospital_name":"Standort Heide"},"id":"6798"},{"type":"Feature","geometry":{"type":"Point","coordinates":[9.1455,53.8999]},"properties":{"cc":"DE","country":"Germany","city":"Brunsbüttel","postcode":"25541","ref_date":"2020","house_number":"2","lon":9.145465904248,"pub_date":"2020_03_22","street":"Delbrückstraße","id":"771041","facility_type":"standort","lat":53.899929843295,"hospital_name":"Standort Brunsbüttel"},"id":"6799"},{"type":"Feature","geometry":{"type":"Point","coordinates":[8.8912,51.9452]},"properties":{"cc":"DE","country":"Germany","city":"Detmold","postcode":"32756","ref_date":"2020","house_number":"2-6","lon":8.891151130183,"pub_date":"2020_03_22","street":"Schlabrendorffweg","id":"771147","facility_type":"standort","lat":51.945245327406,"hospital_name":"gpz Gemeindepsychiatrisches Zentrum"},"id":"6800"},{"type":"Feature","geometry":{"type":"Point","coordinates":[8.9877,51.8948]},"properties":{"cc":"DE","country":"Germany","city":"Horn-Bad Meinberg","postcode":"32805","ref_date":"2020","house_number":"12c","lon":8.987682223369,"pub_date":"2020_03_22","street":"Pyrmonter Straße","id":"771148","facility_type":"standort","lat":51.894789743776,"hospital_name":"Tagesklinik Horn-Bad Meinberg"},"id":"6801"},{"type":"Feature","geometry":{"type":"Point","coordinates":[8.7939,51.993]},"properties":{"cc":"DE","country":"Germany","city":"Lage, Lippe","postcode":"32791","ref_date":"2020","house_number":"1","lon":8.793876528789,"pub_date":"2020_03_22","street":"Hindenburgstraße","id":"771149","facility_type":"standort","lat":51.992991839318,"hospital_name":"Tagesklinik Lage"},"id":"6802"},{"type":"Feature","geometry":{"type":"Point","coordinates":[11.072,47.8001]},"properties":{"cc":"DE","country":"Germany","city":"Peißenberg","postcode":"82380","ref_date":"2020","house_number":"55","lon":11.072006464037,"pub_date":"2020_03_22","street":"Hauptstraße","id":"771319","facility_type":"standort","lat":47.800113712925,"hospital_name":"kbo-Lech-Mangfall-Klinik Peißenberg"},"id":"6803"},{"type":"Feature","geometry":{"type":"Point","coordinates":[11.1289,47.4833]},"properties":{"cc":"DE","country":"Germany","city":"Garmisch-Partenkirchen","postcode":"82467","ref_date":"2020","house_number":"6","lon":11.128948688638,"pub_date":"2020_03_22","street":"Auenstraße","id":"771344","facility_type":"standort","lat":47.48325707461,"hospital_name":"kbo-Lech-Mangfall-Klinik Garmisch-Partenkirchen"},"id":"6804"},{"type":"Feature","geometry":{"type":"Point","coordinates":[11.5342,49.9438]},