{"type":"FeatureCollection","features":[{"type":"Feature","geometry":{"type":"Point","coordinates":[24.6665,47.6542]},"properties":{"cc":"RO","country":"Romania","cap_beds":400,"lon":24.666528,"url":"spital_borsa@yahoo.com","pub_date":"2020_03_24","id":"323","lat":47.654216,"hospital_name":"Spitalul de Recuperare Borsa"},"id":"10187"},{"type":"Feature","geometry":{"type":"Point","coordinates":[25.1153,44.7936]},"properties":{"cc":"RO","country":"Romania","cap_beds":107,"lon":25.115331,"url":"www.spitalleordeni.ro","pub_date":"2020_03_24","id":"25","lat":44.793596,"hospital_name":"Spitalul de Pneumoftiziologie Leordeni Consiliul Judetean Arges"},"id":"10188"},{"type":"Feature","geometry":{"type":"Point","coordinates":[25.2204,46.0375]},"properties":{"cc":"RO","country":"Romania","cap_beds":80,"lon":25.220388,"url":"www.spitalrupea.ro","pub_date":"2020_03_24","id":"56","lat":46.0375,"hospital_name":"Spitalul Orasenesc Rupea Consiliul Local Rupea"},"id":"10189"},{"type":"Feature","geometry":{"type":"Point","coordinates":[22.3935,47.0603]},"properties":{"cc":"RO","country":"Romania","cap_beds":147,"lon":22.3935,"url":"www.spitalalesd.ro","pub_date":"2020_03_24","id":"38","lat":47.060329,"hospital_name":"Spitalul Orasenesc Alesd Consiliul Local Alesd"},"id":"10190"},{"type":"Feature","geometry":{"type":"Point","coordinates":[26.3013,45.4197]},"properties":{"cc":"RO","country":"Romania","cap_beds":135,"lon":26.30127,"url":"www.spitalnehoiu.com","pub_date":"2020_03_24","id":"66","lat":45.41966,"hospital_name":"Spitalul Orasenesc Nehoiu Consiliul Local Nehoiu"},"id":"10191"},{"type":"Feature","geometry":{"type":"Point","coordinates":[26.6983,46.7105]},"properties":{"cc":"RO","country":"Romania","cap_beds":193,"lon":26.69829,"url":"www.spitalbuhusi.ro","pub_date":"2020_03_24","id":"32","lat":46.71054,"hospital_name":"Spitalul Orasenesc Buhusi Consiliul Local Buhusi"},"id":"10192"},{"type":"Feature","geometry":{"type":"Point","coordinates":[26.8519,44.4426]},"properties":{"cc":"RO","country":"Romania","cap_beds":114,"lon":26.8519,"url":"www.splehliu.ro","pub_date":"2020_03_24","id":"75","lat":44.442551,"hospital_name":"Spitalul Orasenesc Lehliu-Gara Consiliul Local Lehliu-Gara"},"id":"10193"},{"type":"Feature","geometry":{"type":"Point","coordinates":[24.409,47.284]},"properties":{"cc":"RO","country":"Romania","cap_beds":165,"lon":24.40903,"url":"www.spitalnasaud.mediakom.ro","pub_date":"2020_03_24","id":"42","lat":47.284033,"hospital_name":"Spitalul Orasenesc Dr. George Trifon Nasaud Consiliul Local Nasaud"},"id":"10194"},{"type":"Feature","geometry":{"type":"Point","coordinates":[22.8246,46.1351]},"properties":{"cc":"RO","country":"Romania","cap_beds":155,"lon":22.824563,"url":"www.sanatoriulbrad.ro","pub_date":"2020_03_24","id":"144","lat":46.135081,"hospital_name":"Sanatoriul de Pneumoftiziologie Brad Consiliul Judetean Hunedoara"},"id":"10195"},{"type":"Feature","geometry":{"type":"Point","coordinates":[22.7585,45.8008]},"properties":{"cc":"RO","country":"Romania","cap_beds":612,"lon":22.758522,"url":"www.sphd.ro","pub_date":"2020_03_24","id":"137","lat":45.800802,"hospital_name":"Spitalul Municipal Dr. A. Simionescu Hunedoara Consiliul Local Hunedoara"},"id":"10196"},{"type":"Feature","geometry":{"type":"Point","coordinates":[24.8654,44.8508]},"properties":{"cc":"RO","country":"Romania","cap_beds":411,"lon":24.865354,"url":"www.pediatriepitesti.ro","pub_date":"2020_03_24","id":"23","lat":44.850796,"hospital_name":"Spitalul de Pediatrie Pitesti Consiliul Judetean Arges"},"id":"10197"},{"type":"Feature","geometry":{"type":"Point","coordinates":[21.8858,47.2513]},"properties":{"cc":"RO","country":"Romania","cap_beds":885,"lon":21.885796,"url":"www.spitaljudetean-oradea.ro\/","pub_date":"2020_03_24","id":"34","lat":47.251271,"hospital_name":"Spitalul Clinic Judetean de Urgenta Oradea Consiliul Local al Municipiului Oradea"},"id":"10198"},{"type":"Feature","geometry":{"type":"Point","coordinates":[24.5058,47.1397]},"properties":{"cc":"RO","country":"Romania","cap_beds":1035,"lon":24.505847,"url":"spital.bistrita.ro","pub_date":"2020_03_24","id":"41","lat":47.139691,"hospital_name":"Spitalul Judetean de Urgenta Bistrita Consiliul Judetean Bistrita Nasaud"},"id":"10199"},{"type":"Feature","geometry":{"type":"Point","coordinates":[28.6053,44.0494]},"properties":{"cc":"RO","country":"Romania","cap_beds":935,"lon":28.605314,"url":"www.sbtghiol.ro","pub_date":"2020_03_24","id":"313","lat":44.049401,"hospital_name":"Sanatoriul Balnear si de Recuperare Techirghiol"},"id":"10200"},{"type":"Feature","geometry":{"type":"Point","coordinates":[26.8995,46.5644]},"properties":{"cc":"RO","country":"Romania","cap_beds":176,"lon":26.899542,"url":"www.pneumoftiziologie-bacau.ro","pub_date":"2020_03_24","id":"33","lat":46.564445,"hospital_name":"Spitalul de Pneumoftiziologie Bacau Consiliul Local Bacau"},"id":"10201"},{"type":"Feature","geometry":{"type":"Point","coordinates":[27.4372,45.8472]},"properties":{"cc":"RO","country":"Romania","cap_beds":265,"lon":27.437249,"pub_date":"2020_03_24","id":"114","lat":45.847202,"hospital_name":"Spitalul Municipal Anton Cincu Tecuci"},"id":"10202"},{"type":"Feature","geometry":{"type":"Point","coordinates":[24.288,44.812]},"properties":{"cc":"RO","country":"Romania","cap_beds":125,"lon":24.288025,"url":"www.spitaluldragoesti.ro","pub_date":"2020_03_24","id":"254","lat":44.812045,"hospital_name":"Spitalul de Psihiatrie Dragoesti Consiliul Judetean Valcea"},"id":"10203"},{"type":"Feature","geometry":{"type":"Point","coordinates":[24.2583,44.6594]},"properties":{"cc":"RO","country":"Romania","cap_beds":246,"lon":24.258279,"url":"www.smcnd.ro","pub_date":"2020_03_24","id":"250","lat":44.659378,"hospital_name":"Spitalul Municipal Costache Nicolescu Dragasani Consiliul Local Dragasani"},"id":"10204"},{"type":"Feature","geometry":{"type":"Point","coordinates":[26.4393,44.9983]},"properties":{"cc":"RO","country":"Romania","cap_beds":102,"lon":26.439285,"url":"www.spitalmizil.ro","pub_date":"2020_03_24","id":"194","lat":44.99831,"hospital_name":"Spitalul Orasenesc Sf. Filofteia Mizil Consiliul Local Mizil"},"id":"10205"},{"type":"Feature","geometry":{"type":"Point","coordinates":[28.2843,44.2649]},"properties":{"cc":"RO","country":"Romania","cap_beds":350,"lon":28.284302,"url":"www.spitalmedgidia.ro","pub_date":"2020_03_24","id":"93","lat":44.264871,"hospital_name":"Spitalul Municipal Medgidia Consiliul Local Medgidia"},"id":"10206"},{"type":"Feature","geometry":{"type":"Point","coordinates":[25.5353,45.4161]},"properties":{"cc":"RO","country":"Romania","cap_beds":104,"lon":25.535322,"url":"www.sanatoriulbusteni.ro","pub_date":"2020_03_24","id":"325","lat":45.416128,"hospital_name":"Sanatoriul Balneoclimateric de Copii Busteni"},"id":"10207"},{"type":"Feature","geometry":{"type":"Point","coordinates":[21.6101,45.6497]},"properties":{"cc":"RO","country":"Romania","cap_beds":50,"lon":21.610145,"url":"www.ccserban.ro","pub_date":"2020_03_24","id":"328","lat":45.649692,"hospital_name":"Centrul Medical de Evaluare si Recuperare pentru Copii si Tineri Cristian Șerban Buziaș"},"id":"10208"},{"type":"Feature","geometry":{"type":"Point","coordinates":[27.5848,47.1696]},"properties":{"cc":"RO","country":"Romania","cap_beds":350,"lon":27.584814,"pub_date":"2020_03_24","id":"153","lat":47.169644,"hospital_name":"Spitalul Clinic de Pneumoftiziologie Iasi"},"id":"10209"},{"type":"Feature","geometry":{"type":"Point","coordinates":[23.5909,47.6614]},"properties":{"cc":"RO","country":"Romania","cap_beds":135,"lon":23.5908618,"url":"www.sbidvp.ro","pub_date":"2020_03_24","id":"166","lat":47.6614145,"hospital_name":"Spitalul de Boli Infectioase Dermato - Venerologie si Psihiatrie Baia Mare Consiliul Judetean Maramures"},"id":"10210"},{"type":"Feature","geometry":{"type":"Point","coordinates":[24.1157,44.3471]},"properties":{"cc":"RO","country":"Romania","cap_beds":119,"lon":24.115725,"url":"http:\/\/www.spitalulbals.ro\/","pub_date":"2020_03_24","id":"186","lat":44.347065,"hospital_name":"Spitalul Orasenesc Bals Consiliul Local Bals"},"id":"10211"},{"type":"Feature","geometry":{"type":"Point","coordinates":[23.8109,44.299]},"properties":{"cc":"RO","country":"Romania","cap_beds":495,"lon":23.81089,"url":"www.filantropia.ro","pub_date":"2020_03_24","id":"103","lat":44.29896,"hospital_name":"Spitalul Clinic Municipal Filantropia Craiova Consiliul Local Craiova"},"id":"10212"},{"type":"Feature","geometry":{"type":"Point","coordinates":[26.1533,44.4651]},"properties":{"cc":"RO","country":"Romania","cap_beds":1098,"lon":26.153297,"url":"www.icfundeni.ro\/","pub_date":"2020_03_24","id":"345","lat":44.465132,"hospital_name":"Institutul Clinic Fundeni"},"id":"10213"},{"type":"Feature","geometry":{"type":"Point","coordinates":[22.396,44.7214]},"properties":{"cc":"RO","country":"Romania","cap_beds":120,"lon":22.396027,"url":"in constructie","pub_date":"2020_03_24","id":"170","lat":44.721445,"hospital_name":"Spitalul Municipal Orsova Consiliul Local Orsova"},"id":"10214"},{"type":"Feature","geometry":{"type":"Point","coordinates":[24.0948,46.4746]},"properties":{"cc":"RO","country":"Romania","cap_beds":216,"lon":24.094841,"url":"spital-ludus.ro","pub_date":"2020_03_24","id":"176","lat":46.474591,"hospital_name":"Spitalul Orasenesc Dr. Valer Russu Ludus Consiliul Local Ludus"},"id":"10215"},{"type":"Feature","geometry":{"type":"Point","coordinates":[25.9382,44.5761]},"properties":{"cc":"RO","country":"Romania","cap_beds":60,"lon":25.938168,"pub_date":"2020_03_24","id":"161","lat":44.576147,"hospital_name":"Spitalul de Obstretica Ginecologie Buftea"},"id":"10216"},{"type":"Feature","geometry":{"type":"Point","coordinates":[26.2911,44.3913]},"properties":{"cc":"RO","country":"Romania","cap_beds":274,"lon":26.291088,"url":"www.eftimiediamandescu.ro","pub_date":"2020_03_24","id":"160","lat":44.391288,"hospital_name":"Spitalul de Psihiatrie E. Diamandescu Balaceanca Consiliul Judetean Ilfov"},"id":"10217"},{"type":"Feature","geometry":{"type":"Point","coordinates":[21.6892,45.0374]},"properties":{"cc":"RO","country":"Romania","cap_beds":280,"lon":21.689243,"url":"spitaluloravita.webgarden.ro","pub_date":"2020_03_24","id":"71","lat":45.037384,"hospital_name":"Spitalul Orasenesc Oravita Consiliul Local Oravita"},"id":"10218"},{"type":"Feature","geometry":{"type":"Point","coordinates":[23.0454,46.3657]},"properties":{"cc":"RO","country":"Romania","cap_beds":87,"lon":23.04539,"url":"www.spitaluldebolicronicecimpeni.ro","pub_date":"2020_03_24","id":"9","lat":46.365747,"hospital_name":"Spitalul de Boli Cronice Campeni Consiliul Local Campeni"},"id":"10219"},{"type":"Feature","geometry":{"type":"Point","coordinates":[23.8818,47.1417]},"properties":{"cc":"RO","country":"Romania","cap_beds":348,"lon":23.881766,"url":"www.spitaldej.ro","pub_date":"2020_03_24","id":"82","lat":47.141699,"hospital_name":"Spitalul Municipal Dej Consiliul Local Dej"},"id":"10220"},{"type":"Feature","geometry":{"type":"Point","coordinates":[25.732,45.1293]},"properties":{"cc":"RO","country":"Romania","cap_beds":510,"lon":25.73204,"url":"www.spitalulvoila.ro","pub_date":"2020_03_24","id":"198","lat":45.129258,"hospital_name":"Spitalul de Psihiatrie Voila Consiliul Local Campina"},"id":"10221"},{"type":"Feature","geometry":{"type":"Point","coordinates":[22.8802,47.1619]},"properties":{"cc":"RO","country":"Romania","cap_beds":50,"lon":22.880221,"url":"crasna.ro\/spital","pub_date":"2020_03_24","id":"211","lat":47.1619424,"hospital_name":"Spitalul de Boli Cronice Crasna Consiliul Local Crasna"},"id":"10222"},{"type":"Feature","geometry":{"type":"Point","coordinates":[27.9704,45.2688]},"properties":{"cc":"RO","country":"Romania","cap_beds":152,"lon":27.97044,"url":"www.spitalultbcbr.ro","pub_date":"2020_03_24","id":"62","lat":45.268816,"hospital_name":"Spitalul de Pneumoftiziologie Braila Consiliul Judetean Braila"},"id":"10223"},{"type":"Feature","geometry":{"type":"Point","coordinates":[26.1574,44.4632]},"properties":{"cc":"RO","country":"Romania","cap_beds":643,"lon":26.157417,"url":"www.iob.ro","pub_date":"2020_03_24","id":"340","lat":44.463191,"hospital_name":"Institutul Oncologic prof. dr. Al. Trestioreanu"},"id":"10224"},{"type":"Feature","geometry":{"type":"Point","coordinates":[25.7564,44.4458]},"properties":{"cc":"RO","country":"Romania","cap_beds":168,"lon":25.756416,"url":"www.spitalulbolintin.ro","pub_date":"2020_03_24","id":"121","lat":44.445791,"hospital_name":"Spitalul Orasenesc Bolintin-Vale Consiliul Local Bolintin-Vale"},"id":"10225"},{"type":"Feature","geometry":{"type":"Point","coordinates":[23.9896,45.1356]},"properties":{"cc":"RO","country":"Romania","cap_beds":160,"lon":23.989554,"url":"http:\/\/www.spitalulhorezu.ro\/","pub_date":"2020_03_24","id":"252","lat":45.135555,"hospital_name":"Spitalul Orasenesc Horezu Consiliul Local Horezu"},"id":"10226"},{"type":"Feature","geometry":{"type":"Point","coordinates":[27.5816,47.1692]},"properties":{"cc":"RO","country":"Romania","cap_beds":1153,"lon":27.581558,"url":"www.spitalspiridon.ro","pub_date":"2020_03_24","id":"320","lat":47.169232,"hospital_name":"Spitalul Clinic Judetean de Urgenta Sf. Spiridon Iasi"},"id":"10227"},{"type":"Feature","geometry":{"type":"Point","coordinates":[26.7453,45.2385]},"properties":{"cc":"RO","country":"Romania","cap_beds":830,"lon":26.745272,"url":"www.hsapoca.ro","pub_date":"2020_03_24","id":"305","lat":45.238454,"hospital_name":"Spitalul de Psihiatrie si pentru Masuri de Siguranta Sapoca"},"id":"10228"},{"type":"Feature","geometry":{"type":"Point","coordinates":[26.1232,44.4625]},"properties":{"cc":"RO","country":"Romania","cap_beds":544,"lon":26.123171,"url":"www.iomc.ro","pub_date":"2020_03_24","id":"342","lat":44.462486,"hospital_name":"Institutul pentru Ocrotirea Mamei si Copilului prof. Dr. A. Rusescu"},"id":"10229"},{"type":"Feature","geometry":{"type":"Point","coordinates":[22.4656,47.6808]},"properties":{"cc":"RO","country":"Romania","cap_beds":230,"lon":22.46556,"url":"www.spitalcarei.ro","pub_date":"2020_03_24","id":"205","lat":47.680754,"hospital_name":"Spitalul Municipal Carei Consiliul Local Carei"},"id":"10230"},{"type":"Feature","geometry":{"type":"Point","coordinates":[24.3567,46.163]},"properties":{"cc":"RO","country":"Romania","cap_beds":365,"lon":24.356738,"url":"http:\/\/spitalulmedias.ro","pub_date":"2020_03_24","id":"216","lat":46.163006,"hospital_name":"Spitalul Municipal Medias Consiliul Local Medias"},"id":"10231"},{"type":"Feature","geometry":{"type":"Point","coordinates":[24.2458,45.3422]},"properties":{"cc":"RO","country":"Romania","cap_beds":67,"lon":24.245823,"url":"spitalulbrezoi.ro","pub_date":"2020_03_24","id":"251","lat":45.342237,"hospital_name":"Spitalul Orasenesc Brezoi Consiliul Local Brezoi"},"id":"10232"},{"type":"Feature","geometry":{"type":"Point","coordinates":[23.5135,44.9625]},"properties":{"cc":"RO","country":"Romania","cap_beds":343,"lon":23.5134908,"url":"www.spitalcarbunesti.ro","pub_date":"2020_03_24","id":"127","lat":44.9625323,"hospital_name":"Spitalul Orasenesc Targu Carbunesti Consiliul Local Targu Carbunesti"},"id":"10233"},{"type":"Feature","geometry":{"type":"Point","coordinates":[25.4351,45.0723]},"properties":{"cc":"RO","country":"Romania","cap_beds":270,"lon":25.435066,"url":"www.spitalpucioasa.ro","pub_date":"2020_03_24","id":"102","lat":45.072308,"hospital_name":"Spitalul Orasenesc Pucioasa Consiliul Local Pucioasa"},"id":"10234"},{"type":"Feature","geometry":{"type":"Point","coordinates":[24.6233,44.7801]},"properties":{"cc":"RO","country":"Romania","cap_beds":206,"lon":24.62328,"pub_date":"2020_03_24","id":"21","lat":44.780129,"hospital_name":"Spitalul de Psihiatrie Sf. Maria Vedea"},"id":"10235"},{"type":"Feature","geometry":{"type":"Point","coordinates":[27.3601,44.5554]},"properties":{"cc":"RO","country":"Romania","cap_beds":527,"lon":27.36014,"url":"www.spitalslobozia.ro","pub_date":"2020_03_24","id":"145","lat":44.55536,"hospital_name":"Spitalul Judetean de Urgenta Slobozia Consiliul Judetean Ialomita"},"id":"10236"},{"type":"Feature","geometry":{"type":"Point","coordinates":[21.2592,45.7687]},"properties":{"cc":"RO","country":"Romania","cap_beds":295,"lon":21.259199,"url":"www.spitalul-vbabes-tm.ro","pub_date":"2020_03_24","id":"237","lat":45.768661,"hospital_name":"Spitalul Clinic de Boli Infectioase V. Babeș Timisoara Consiliul Local Timisoara"},"id":"10237"},{"type":"Feature","geometry":{"type":"Point","coordinates":[24.3679,44.4322]},"properties":{"cc":"RO","country":"Romania","cap_beds":1153,"lon":24.367933,"url":"www.spjslatina.ro","pub_date":"2020_03_24","id":"184","lat":44.432156,"hospital_name":"Spitalul Judetean de Urgenta Slatina Consiliul Judetean Olt"},"id":"10238"},{"type":"Feature","geometry":{"type":"Point","coordinates":[25.0386,45.2649]},"properties":{"cc":"RO","country":"Romania","cap_beds":441,"lon":25.038598,"url":"www.smcm.ro","pub_date":"2020_03_24","id":"17","lat":45.264942,"hospital_name":"Spitalul Municipal Campulung Consiliul Local Campulung"},"id":"10239"},{"type":"Feature","geometry":{"type":"Point","coordinates":[26.1541,44.4651]},"properties":{"cc":"RO","country":"Romania","cap_beds":325,"lon":26.154145,"url":"www.cardioiliescu.ro","pub_date":"2020_03_24","id":"341","lat":44.46514,"hospital_name":"Institutul de Urgenta pentru Boli Cardiovasculare prof. dr. C.C. Iliescu"},"id":"10240"},{"type":"Feature","geometry":{"type":"Point","coordinates":[27.9121,45.8698]},"properties":{"cc":"RO","country":"Romania","cap_beds":60,"lon":27.912129,"url":"www.spitaltgbujor.ro","pub_date":"2020_03_24","id":"115","lat":45.869797,"hospital_name":"Spitalul Orasenesc Targu Bujor Consiliul Local Targu Bujor"},"id":"10241"},{"type":"Feature","geometry":{"type":"Point","coordinates":[24.1867,47.1833]},"properties":{"cc":"RO","country":"Romania","cap_beds":226,"lon":24.1866838,"url":"spitalbeclean.ro","pub_date":"2020_03_24","id":"43","lat":47.1832834,"hospital_name":"Spitalul Orasenesc Beclean Consiliul Local Beclean"},"id":"10242"},{"type":"Feature","geometry":{"type":"Point","coordinates":[26.2098,45.8454]},"properties":{"cc":"RO","country":"Romania","cap_beds":891,"lon":26.209785,"url":"www.cardiologie-covasna.ro","pub_date":"2020_03_24","id":"314","lat":45.845386,"hospital_name":"Spitalul de Cardiologie Covasna Dr. B. Geza"},"id":"10243"},{"type":"Feature","geometry":{"type":"Point","coordinates":[21.2001,45.5652]},"properties":{"cc":"RO","country":"Romania","cap_beds":430,"lon":21.200126,"url":"www.spitaljebel.ro","pub_date":"2020_03_24","id":"330","lat":45.565168,"hospital_name":"Spitalul de Psihiatrie si pentru Masuri de Siguranta Jebel"},"id":"10244"},{"type":"Feature","geometry":{"type":"Point","coordinates":[22.3678,45.5256]},"properties":{"cc":"RO","country":"Romania","cap_beds":108,"lon":22.367823,"url":"spiorcs@gmail.com","pub_date":"2020_03_24","id":"70","lat":45.525582,"hospital_name":"Spitalul Orasenesc Otelu Rosu Consiliul Local Otelu Rosu"},"id":"10245"},{"type":"Feature","geometry":{"type":"Point","coordinates":[26.1079,44.3898]},"properties":{"cc":"RO","country":"Romania","cap_beds":114,"lon":26.107904,"url":"WWW.RECUPERARECOPII.RO","pub_date":"2020_03_24","id":"355","lat":44.389839,"hospital_name":"Centrul Medical Clinic de Recuperare Neuropsihomotorie Copii Dr. N. Robănescu"},"id":"10246"},{"type":"Feature","geometry":{"type":"Point","coordinates":[24.3629,45.1186]},"properties":{"cc":"RO","country":"Romania","cap_beds":1353,"lon":24.362891,"pub_date":"2020_03_24","id":"249","lat":45.118599,"hospital_name":"Spitalul Judetean de Urgenta Ramnicu Valcea"},"id":"10247"},{"type":"Feature","geometry":{"type":"Point","coordinates":[27.5681,47.1804]},"properties":{"cc":"RO","country":"Romania","cap_beds":206,"lon":27.56812,"url":"www.spitalulparhoniasi.ro","pub_date":"2020_03_24","id":"154","lat":47.180416,"hospital_name":"Spitalul Clinic Dr. C.I. Parhon Iasi Consiliul Local Iasi"},"id":"10248"},{"type":"Feature","geometry":{"type":"Point","coordinates":[24.5112,43.7729]},"properties":{"cc":"RO","country":"Romania","cap_beds":123,"lon":24.511239,"url":"www.spitalcorabia.ro","pub_date":"2020_03_24","id":"187","lat":43.772851,"hospital_name":"Spitalul Orasenesc Corabia Consiliul Local Corabia"},"id":"10249"},{"type":"Feature","geometry":{"type":"Point","coordinates":[25.5738,45.643]},"properties":{"cc":"RO","country":"Romania","cap_beds":160,"lon":25.5738145,"url":"pneumologie.ro","pub_date":"2020_03_24","id":"59","lat":45.6429901,"hospital_name":"Spitalul de Pneumoftiziologie Brasov Consiliul Judetean Brasov"},"id":"10250"},{"type":"Feature","geometry":{"type":"Point","coordinates":[27.6061,47.1611]},"properties":{"cc":"RO","country":"Romania","cap_beds":321,"lon":27.606068,"url":"www.neuroiasi.ro","pub_date":"2020_03_24","id":"148","lat":47.161058,"hospital_name":"Spitalul Clinic de Urgenta Iasi N. Oblu"},"id":"10251"},{"type":"Feature","geometry":{"type":"Point","coordinates":[22.1711,45.8448]},"properties":{"cc":"RO","country":"Romania","cap_beds":115,"lon":22.171118,"pub_date":"2020_03_24","id":"240","lat":45.844833,"hospital_name":"Spitalul Orasenesc Faget"},"id":"10252"},{"type":"Feature","geometry":{"type":"Point","coordinates":[25.0492,44.8045]},"properties":{"cc":"RO","country":"Romania","cap_beds":40,"lon":25.049171,"url":"www.spitaluldebolicronicecalinesti.com","pub_date":"2020_03_24","id":"374","lat":44.804494,"hospital_name":"Spitalul de Boli Cronice Calinesti"},"id":"10253"},{"type":"Feature","geometry":{"type":"Point","coordinates":[24.9879,44.1083]},"properties":{"cc":"RO","country":"Romania","cap_beds":298,"lon":24.987888,"url":"www.spitalulcaritasrosiori.ro","pub_date":"2020_03_24","id":"230","lat":44.108296,"hospital_name":"Spitalul Municipal Caritas Rosiori de Vede Consiliul Local Rosiori de Vede"},"id":"10254"},{"type":"Feature","geometry":{"type":"Point","coordinates":[24.1432,45.7952]},"properties":{"cc":"RO","country":"Romania","cap_beds":170,"lon":24.143229,"url":"www.spital-tbc.ro","pub_date":"2020_03_24","id":"219","lat":45.795215,"hospital_name":"Spitalul de Pneumoftiziologie Sibiu Consiliul Judetean Sibiu"},"id":"10255"},{"type":"Feature","geometry":{"type":"Point","coordinates":[25.6745,44.3447]},"properties":{"cc":"RO","country":"Romania","cap_beds":524,"lon":25.674534,"url":"http:\/\/www.spitalul-jud-giurgiu.ro","pub_date":"2020_03_24","id":"120","lat":44.344722,"hospital_name":"Spitalul Judetean de Urgenta Giurgiu Consiliul Judetean Giurgiu"},"id":"10256"},{"type":"Feature","geometry":{"type":"Point","coordinates":[25.3648,43.6508]},"properties":{"cc":"RO","country":"Romania","cap_beds":124,"lon":25.364814,"url":"www.spitalulorasenesczimnicea.ro","pub_date":"2020_03_24","id":"232","lat":43.650827,"hospital_name":"Spitalul Orasenesc Zimnicea Consiliul Local Zimnicea"},"id":"10257"},{"type":"Feature","geometry":{"type":"Point","coordinates":[25.7613,46.9607]},"properties":{"cc":"RO","country":"Romania","cap_beds":328,"lon":25.761309,"url":"www.psihiatrietulghes.ro","pub_date":"2020_03_24","id":"134","lat":46.960716,"hospital_name":"Spitalul de Psihiatrie Tulghes Consiliul Judetean Harghita"},"id":"10258"},{"type":"Feature","geometry":{"type":"Point","coordinates":[27.6079,47.1593]},"properties":{"cc":"RO","country":"Romania","cap_beds":625,"lon":27.607913,"url":"www.sfmaria-iasi.ro","pub_date":"2020_03_24","id":"149","lat":47.159344,"hospital_name":"Spitalul Clinic de Urgenta pentru Copii SF MARIA Iasi Consiliul Judetean Iasi"},"id":"10259"},{"type":"Feature","geometry":{"type":"Point","coordinates":[23.5547,47.6549]},"properties":{"cc":"RO","country":"Romania","cap_beds":920,"lon":23.554671,"pub_date":"2020_03_24","id":"162","lat":47.654927,"hospital_name":"Spitalul Judetean de Urgenta C. Opriș Baia Mare"},"id":"10260"},{"type":"Feature","geometry":{"type":"Point","coordinates":[28.6379,44.1711]},"properties":{"cc":"RO","country":"Romania","cap_beds":235,"lon":28.637892,"url":"www.infectioaseconstanta.ro","pub_date":"2020_03_24","id":"91","lat":44.171124,"hospital_name":"Spitalul Clinic de Boli Infectioase Constanta Consiliul Local Constanta"},"id":"10261"},{"type":"Feature","geometry":{"type":"Point","coordinates":[23.218,45.3552]},"properties":{"cc":"RO","country":"Romania","cap_beds":195,"lon":23.2179614,"url":"www.spital-lupeni.ro","pub_date":"2020_03_24","id":"138","lat":45.3552346,"hospital_name":"Spitalul Municipal Lupeni Consiliul Local Lupeni"},"id":"10262"},{"type":"Feature","geometry":{"type":"Point","coordinates":[27.3309,44.198]},"properties":{"cc":"RO","country":"Romania","cap_beds":102,"lon":27.330894,"url":"tbc-calarasi.ro","pub_date":"2020_03_24","id":"76","lat":44.197959,"hospital_name":"Spitalul de Pneumoftiziologie Calarasi Consiliul Judetean Calarasi"},"id":"10263"},{"type":"Feature","geometry":{"type":"Point","coordinates":[27.6722,46.2371]},"properties":{"cc":"RO","country":"Romania","cap_beds":811,"lon":27.672238,"url":"www.spital-barlad.ro","pub_date":"2020_03_24","id":"247","lat":46.23709,"hospital_name":"Spitalul Municipal de Urgenta E. Beldiman Barlad Consiliul Local Barlad"},"id":"10264"},{"type":"Feature","geometry":{"type":"Point","coordinates":[22.4588,46.5352]},"properties":{"cc":"RO","country":"Romania","cap_beds":52,"lon":22.458769,"url":"hpsihiatriestei.ro","pub_date":"2020_03_24","id":"373","lat":46.535241,"hospital_name":"Spitalul Orasenesc Stei"},"id":"10265"},{"type":"Feature","geometry":{"type":"Point","coordinates":[28.0245,45.4311]},"properties":{"cc":"RO","country":"Romania","cap_beds":300,"lon":28.024524,"url":"www.spcopgalati.ro","pub_date":"2020_03_24","id":"113","lat":45.431061,"hospital_name":"Spitalul Clinic de Urgenta pentru Copii Sf. Ioan Galati Consiliul Local Galati"},"id":"10266"},{"type":"Feature","geometry":{"type":"Point","coordinates":[20.6337,46.1158]},"properties":{"cc":"RO","country":"Romania","cap_beds":135,"lon":20.633698,"url":"www.spitalorasanescsannicolaumare.ro","pub_date":"2020_03_24","id":"241","lat":46.115848,"hospital_name":"Spitalul Orasenesc Sannicolau Mare Consiliul Local Sannicolau Mare"},"id":"10267"},{"type":"Feature","geometry":{"type":"Point","coordinates":[28.0457,45.4562]},"properties":{"cc":"RO","country":"Romania","cap_beds":305,"lon":28.045725,"url":"w.w.w. spitalpneumoftiziologiegalati.ro","pub_date":"2020_03_24","id":"116","lat":45.456165,"hospital_name":"Spitalul de Pneumoftiziologie Galati Consiliul Judetean Galati"},"id":"10268"},{"type":"Feature","geometry":{"type":"Point","coordinates":[28.0444,44.3414]},"properties":{"cc":"RO","country":"Romania","cap_beds":60,"lon":28.0444,"pub_date":"2020_03_24","id":"94","lat":44.341441,"hospital_name":"Spitalul Orasenesc Cernavoda"},"id":"10269"},{"type":"Feature","geometry":{"type":"Point","coordinates":[26.6365,47.7531]},"properties":{"cc":"RO","country":"Romania","cap_beds":220,"lon":26.636465,"url":"www.spitalbt-sfgheorghe.ro","pub_date":"2020_03_24","id":"47","lat":47.753106,"hospital_name":"Spitalul de Recuperare Sf. Gheorghe Botosani Consiliul Local Botosani"},"id":"10270"},{"type":"Feature","geometry":{"type":"Point","coordinates":[26.0208,44.9313]},"properties":{"cc":"RO","country":"Romania","cap_beds":267,"lon":26.020839,"pub_date":"2020_03_24","id":"190","lat":44.931342,"hospital_name":"Spitalul Municipal Ploiesti"},"id":"10271"},{"type":"Feature","geometry":{"type":"Point","coordinates":[23.877,47.9273]},"properties":{"cc":"RO","country":"Romania","cap_beds":708,"lon":23.8770063,"pub_date":"2020_03_24","id":"163","lat":47.9273182,"hospital_name":"Spitalul Municipal Sighetu Marmatiei"},"id":"10272"},{"type":"Feature","geometry":{"type":"Point","coordinates":[22.4655,46.5474]},"properties":{"cc":"RO","country":"Romania","cap_beds":235,"lon":22.465528,"url":"hpsihiatriestei.ro","pub_date":"2020_03_24","id":"303","lat":46.547413,"hospital_name":"Spitalul de Psihiatrie si pentru Masuri de Siguranta Stei"},"id":"10273"},{"type":"Feature","geometry":{"type":"Point","coordinates":[26.1404,44.4265]},"properties":{"cc":"RO","country":"Romania","cap_beds":490,"lon":26.140423,"url":"http:\/\/www.spitalulbabes.ro","pub_date":"2020_03_24","id":"267","lat":44.426455,"hospital_name":"Spitalul Clinic de Boli Infectioase Victor Babes Primaria Municipiului Bucuresti"},"id":"10274"},{"type":"Feature","geometry":{"type":"Point","coordinates":[22.8376,44.9923]},"properties":{"cc":"RO","country":"Romania","cap_beds":80,"lon":22.83764,"pub_date":"2020_03_24","id":"171","lat":44.9923,"hospital_name":"Spitalul Orasenesc Baia de Arama"},"id":"10275"},{"type":"Feature","geometry":{"type":"Point","coordinates":[25.9263,47.8378]},"properties":{"cc":"RO","country":"Romania","cap_beds":460,"lon":25.926329,"url":"www.spitalul-radauti.ro\n","pub_date":"2020_03_24","id":"223","lat":47.837772,"hospital_name":"Spitalul Municipal Radauti Consiliul Local Radauti"},"id":"10276"},{"type":"Feature","geometry":{"type":"Point","coordinates":[27.1931,45.7045]},"properties":{"cc":"RO","country":"Romania","cap_beds":728,"lon":27.193142,"url":"www.spitalvn.ro","pub_date":"2020_03_24","id":"331","lat":45.704478,"hospital_name":"Spitalul Judetean de Urgenta Sf. Pantelimon Focsani"},"id":"10277"},{"type":"Feature","geometry":{"type":"Point","coordinates":[26.4039,47.9458]},"properties":{"cc":"RO","country":"Romania","cap_beds":368,"lon":26.403859,"url":"www.spitaldorohoi.ro","pub_date":"2020_03_24","id":"46","lat":47.945826,"hospital_name":"Spitalul Municipal Dorohoi Consiliul Local Dorohoi"},"id":"10278"},{"type":"Feature","geometry":{"type":"Point","coordinates":[27.9411,45.2526]},"properties":{"cc":"RO","country":"Romania","cap_beds":1215,"lon":27.941129,"url":"www.spitalbraila.ro","pub_date":"2020_03_24","id":"60","lat":45.252576,"hospital_name":"Spitalul de Urgenta Judetean Braila Consiliul Judetean Braila"},"id":"10279"},{"type":"Feature","geometry":{"type":"Point","coordinates":[25.4512,44.9223]},"properties":{"cc":"RO","country":"Romania","cap_beds":1767,"lon":25.451213,"pub_date":"2020_03_24","id":"99","lat":44.922333,"hospital_name":"Spitalul Judetean de Urgenta Targoviste"},"id":"10280"},{"type":"Feature","geometry":{"type":"Point","coordinates":[26.6338,44.0801]},"properties":{"cc":"RO","country":"Romania","cap_beds":210,"lon":26.633791,"pub_date":"2020_03_24","id":"74","lat":44.080133,"hospital_name":"Spitalul Municipal Oltenita Consiliul Local Oltenita"},"id":"10281"},{"type":"Feature","geometry":{"type":"Point","coordinates":[21.9175,47.075]},"properties":{"cc":"RO","country":"Romania","cap_beds":1061,"lon":21.917467,"url":"www.scmo.ro","pub_date":"2020_03_24","id":"40","lat":47.074966,"hospital_name":"Spitalul Clinic Municipal Dr. G. Curteanu Oradea Consiliul Local Oradea"},"id":"10282"},{"type":"Feature","geometry":{"type":"Point","coordinates":[25.4445,45.6956]},"properties":{"cc":"RO","country":"Romania","cap_beds":85,"lon":25.444508,"pub_date":"2020_03_24","id":"54","lat":45.695629,"hospital_name":"Spitalul Municipal Codlea"},"id":"10283"},{"type":"Feature","geometry":{"type":"Point","coordinates":[23.3701,44.6812]},"properties":{"cc":"RO","country":"Romania","cap_beds":183,"lon":23.370055,"url":"www.spitalturceni.ro","pub_date":"2020_03_24","id":"128","lat":44.681226,"hospital_name":"Spitalul Orasenesc Turceni Consiliul Local Turceni"},"id":"10284"},{"type":"Feature","geometry":{"type":"Point","coordinates":[28.1332,45.2343]},"properties":{"cc":"RO","country":"Romania","cap_beds":75,"lon":28.13324,"url":"www.spitalulmacin.ro","pub_date":"2020_03_24","id":"244","lat":45.234283,"hospital_name":"Spitalul Orasenesc Macin Consiliul Local Macin"},"id":"10285"},{"type":"Feature","geometry":{"type":"Point","coordinates":[25.994,44.9631]},"properties":{"cc":"RO","country":"Romania","cap_beds":130,"lon":25.993996,"url":"spitalulorasenescbaicoi.ro","pub_date":"2020_03_24","id":"193","lat":44.963098,"hospital_name":"Spitalul Orasenesc Baicoi Consiliul Local Baicoi"},"id":"10286"},{"type":"Feature","geometry":{"type":"Point","coordinates":[26.1421,44.4331]},"properties":{"cc":"RO","country":"Romania","cap_beds":157,"lon":26.142064,"pub_date":"2020_03_24","id":"266","lat":44.43309,"hospital_name":"Spitalul Clinic de Copii V. Gomoiu Primaria Municipiului Bucuresti"},"id":"10287"},{"type":"Feature","geometry":{"type":"Point","coordinates":[28.0323,45.4216]},"properties":{"cc":"RO","country":"Romania","cap_beds":105,"lon":28.03232,"url":"spitalog.galati@gmail.com","pub_date":"2020_03_24","id":"118","lat":45.4216,"hospital_name":"Spitalul de Obstetrica-Ginecologie 'Bunavestire' Galati Consiliul Local Galati"},"id":"10288"},{"type":"Feature","geometry":{"type":"Point","coordinates":[27.9658,45.2611]},"properties":{"cc":"RO","country":"Romania","cap_beds":410,"lon":27.965795,"url":"www.spitalpsihiatriebraila.ro","pub_date":"2020_03_24","id":"63","lat":45.261083,"hospital_name":"Spitalul de Psihiatrie Sf. Pantelimon Braila Consiliul Local Braila"},"id":"10289"},{"type":"Feature","geometry":{"type":"Point","coordinates":[26.2384,46.9585]},"properties":{"cc":"RO","country":"Romania","cap_beds":311,"lon":26.238377,"url":"www.spitalulbisericani.ro","pub_date":"2020_03_24","id":"183","lat":46.958486,"hospital_name":"Spitalul de Pneumoftiziologie Bisericani Consiliul Local Alexandru cel Bun"},"id":"10290"},{"type":"Feature","geometry":{"type":"Point","coordinates":[24.9244,44.8659]},"properties":{"cc":"RO","country":"Romania","cap_beds":101,"lon":24.924363,"url":"www.spitalulstefanesti.ro","pub_date":"2020_03_24","id":"27","lat":44.865862,"hospital_name":"Spitalul de Geriatrie si Boli Cronice C.B. Stolnici Stefanesti Consiliul Judetean Arges"},"id":"10291"},{"type":"Feature","geometry":{"type":"Point","coordinates":[21.9831,46.9905]},"properties":{"cc":"RO","country":"Romania","cap_beds":260,"lon":21.983138,"url":"www.spitalfelix.ro","pub_date":"2020_03_24","id":"302","lat":46.990459,"hospital_name":"Spitalul Clinic de Recuperare Medicala Baile Felix"},"id":"10292"},{"type":"Feature","geometry":{"type":"Point","coordinates":[25.5976,45.6566]},"properties":{"cc":"RO","country":"Romania","cap_beds":107,"lon":25.597581,"url":"www.sbibrasov.ro","pub_date":"2020_03_24","id":"57","lat":45.656588,"hospital_name":"Spitalul de Boli Infectioase Brasov Consiliul Judetean Brasov"},"id":"10293"},{"type":"Feature","geometry":{"type":"Point","coordinates":[28.0397,45.4599]},"properties":{"cc":"RO","country":"Romania","cap_beds":235,"lon":28.039663,"url":"elisabeta_doamna@yahoo.com","pub_date":"2020_03_24","id":"119","lat":45.45989,"hospital_name":"Spitalul de Psihiatrie Elisabeta Doamna Galati Consiliul Local Galati"},"id":"10294"},{"type":"Feature","geometry":{"type":"Point","coordinates":[24.8748,44.6643]},"properties":{"cc":"RO","country":"Romania","cap_beds":140,"lon":24.874812,"url":"http:\/\/www.spitalregelecarol.ro","pub_date":"2020_03_24","id":"20","lat":44.664292,"hospital_name":"Spitalul Orasenesc Regele Carol I Costesti Consiliul Judetean Arges"},"id":"10295"},{"type":"Feature","geometry":{"type":"Point","coordinates":[23.165,45.9116]},"properties":{"cc":"RO","country":"Romania","cap_beds":230,"lon":23.165043,"url":"www.sanatoriulgeoagiu.ro","pub_date":"2020_03_24","id":"143","lat":45.911567,"hospital_name":"Sanatoriul de Pneumoftiziologie Geoagiu Consiliul Judetean Hunedoara"},"id":"10296"},{"type":"Feature","geometry":{"type":"Point","coordinates":[27.5843,47.1702]},"properties":{"cc":"RO","country":"Romania","cap_beds":300,"lon":27.584267,"url":"www.gomi.ro","pub_date":"2020_03_24","id":"151","lat":47.170224,"hospital_name":"Spitalul Clinic de Boli Infectioase 'Sf. Parascheva' Iasi Consiliul Judetean Iasi"},"id":"10297"},{"type":"Feature","geometry":{"type":"Point","coordinates":[26.1239,44.3873]},"properties":{"cc":"RO","country":"Romania","cap_beds":300,"lon":26.123863,"url":"innbn-bucuresti.ro","pub_date":"2020_03_24","id":"336","lat":44.387272,"hospital_name":"Institutul National de Neurologie si Boli Neurovasculare V. Voiculescu"},"id":"10298"},{"type":"Feature","geometry":{"type":"Point","coordinates":[23.2004,45.8491]},"properties":{"cc":"RO","country":"Romania","cap_beds":155,"lon":23.200378,"pub_date":"2020_03_24","id":"139","lat":45.84913,"hospital_name":"Spitalul Municipal Orastie"},"id":"10299"},{"type":"Feature","geometry":{"type":"Point","coordinates":[26.8779,47.4659]},"properties":{"cc":"RO","country":"Romania","cap_beds":150,"lon":26.877859,"url":"http:\/\/www.dspiasi.ro\/index.php?loc=microsites&amp;act=pdeleni","pub_date":"2020_03_24","id":"158","lat":47.465904,"hospital_name":"Preventoriul TBC pentru Copii Deleni Consiliul Local Deleni"},"id":"10300"},{"type":"Feature","geometry":{"type":"Point","coordinates":[25.8086,46.3484]},"properties":{"cc":"RO","country":"Romania","cap_beds":748,"lon":25.808612,"pub_date":"2020_03_24","id":"130","lat":46.348361,"hospital_name":"Spitalul Judetean de Urgenta Miercurea-Ciuc"},"id":"10301"},{"type":"Feature","geometry":{"type":"Point","coordinates":[26.0268,44.9319]},"properties":{"cc":"RO","country":"Romania","cap_beds":135,"lon":26.026783,"url":"www.spitalpediatrie.ro","pub_date":"2020_03_24","id":"196","lat":44.931874,"hospital_name":"Spitalul de Pediatrie Ploiesti Consiliul Judetean Prahova"},"id":"10302"},{"type":"Feature","geometry":{"type":"Point","coordinates":[26.8343,44.4957]},"properties":{"cc":"RO","country":"Romania","cap_beds":170,"lon":26.834273,"url":"www.sp-sapunari.ro","pub_date":"2020_03_24","id":"77","lat":44.495664,"hospital_name":"Spitalul de Psihiatrie Sapunari Consiliul Judetean Calarasi"},"id":"10303"},{"type":"Feature","geometry":{"type":"Point","coordinates":[22.35,46.6694]},"properties":{"cc":"RO","country":"Romania","cap_beds":225,"lon":22.350032,"url":"http:\/\/www.spitalulbeius.ro\/","pub_date":"2020_03_24","id":"35","lat":46.669362,"hospital_name":"Spitalul Municipal Episcop N. Popovici Beius Consiliul Local Beius"},"id":"10304"},{"type":"Feature","geometry":{"type":"Point","coordinates":[21.2568,45.768]},"properties":{"cc":"RO","country":"Romania","cap_beds":197,"lon":21.256828,"url":"www.cardiologie.ro","pub_date":"2020_03_24","id":"326","lat":45.768002,"hospital_name":"Institutul de Boli Cardiovasculare Timisoara"},"id":"10305"},{"type":"Feature","geometry":{"type":"Point","coordinates":[27.5978,47.1607]},"properties":{"cc":"RO","country":"Romania","cap_beds":128,"lon":27.597785,"url":"www.spelenadoamna.ro","pub_date":"2020_03_24","id":"152","lat":47.160715,"hospital_name":"Spitalul Clinic de Obstetrica-Ginecologie Iasi ELENA DOAMNA Consiliul Judetean Iasi"},"id":"10306"},{"type":"Feature","geometry":{"type":"Point","coordinates":[22.7906,46.1258]},"properties":{"cc":"RO","country":"Romania","cap_beds":145,"lon":22.790644,"url":"web.clicknet.ro\/spitalbrad\/","pub_date":"2020_03_24","id":"140","lat":46.125753,"hospital_name":"Spitalul Municipal Brad Consiliul Local Brad"},"id":"10307"},{"type":"Feature","geometry":{"type":"Point","coordinates":[21.3076,46.1832]},"properties":{"cc":"RO","country":"Romania","cap_beds":1322,"lon":21.307576,"pub_date":"2020_03_24","id":"10","lat":46.183203,"hospital_name":"Spitalul Clinic Judetean de Urgenta Arad"},"id":"10308"},{"type":"Feature","geometry":{"type":"Point","coordinates":[23.7387,46.3014]},"properties":{"cc":"RO","country":"Romania","cap_beds":225,"lon":23.738708,"url":"http:\/\/www.spitalaiud.ro\/","pub_date":"2020_03_24","id":"2","lat":46.301406,"hospital_name":"Spitalul Municipal Aiud Consiliul Local Aiud"},"id":"10309"},{"type":"Feature","geometry":{"type":"Point","coordinates":[25.6764,45.1794]},"properties":{"cc":"RO","country":"Romania","cap_beds":75,"lon":25.676449,"url":"www.spital-breaza.ro","pub_date":"2020_03_24","id":"201","lat":45.179447,"hospital_name":"Spitalul de Boli Pulmonare Breaza Consiliul Local Breaza"},"id":"10310"},{"type":"Feature","geometry":{"type":"Point","coordinates":[23.7925,44.3051]},"properties":{"cc":"RO","country":"Romania","cap_beds":1556,"lon":23.792524,"url":"http:\/\/ww.scjuc.ro","pub_date":"2020_03_24","id":"315","lat":44.305117,"hospital_name":"Spitalul Clinic Judetean de Urgenta Craiova"},"id":"10311"},{"type":"Feature","geometry":{"type":"Point","coordinates":[23.35,44.0292]},"properties":{"cc":"RO","country":"Romania","cap_beds":128,"lon":23.34996,"url":"www.spitalbailesti.ro","pub_date":"2020_03_24","id":"106","lat":44.029189,"hospital_name":"Spitalul Municipal Dr. Irinel Popescu Bailesti Consiliul Local Bailesti"},"id":"10312"},{"type":"Feature","geometry":{"type":"Point","coordinates":[24.9648,44.0989]},"properties":{"cc":"RO","country":"Romania","cap_beds":181,"lon":24.964843,"url":"http:\/\/www.spitalulpneumorosiori.ro","pub_date":"2020_03_24","id":"233","lat":44.098897,"hospital_name":"Spitalul de Pneumoftiziologie Rosiori de Vede"},"id":"10313"},{"type":"Feature","geometry":{"type":"Point","coordinates":[24.7618,45.3099]},"properties":{"cc":"RO","country":"Romania","cap_beds":200,"lon":24.76181,"pub_date":"2020_03_24","id":"22","lat":45.309907,"hospital_name":"Spitalul de Recuperare Bradet"},"id":"10314"},{"type":"Feature","geometry":{"type":"Point","coordinates":[25.8989,47.5534]},"properties":{"cc":"RO","country":"Romania","cap_beds":127,"lon":25.898895,"url":"www.spitalgurahumorului.ro","pub_date":"2020_03_24","id":"225","lat":47.55336,"hospital_name":"Spitalul Orasenesc Gura Humorului Consiliul Local Gura Humorului"},"id":"10315"},{"type":"Feature","geometry":{"type":"Point","coordinates":[26.8301,48.0039]},"properties":{"cc":"RO","country":"Romania","cap_beds":80,"lon":26.830062,"url":"www.sanatoriulpodriga.ro","pub_date":"2020_03_24","id":"49","lat":48.003893,"hospital_name":"Sanatoriul de Neuropsihiatrie Podriga Consiliul Judetean Botosani"},"id":"10316"},{"type":"Feature","geometry":{"type":"Point","coordinates":[26.2403,47.6392]},"properties":{"cc":"RO","country":"Romania","cap_beds":1200,"lon":26.240271,"url":"www.spitaluljudeteansuceava.ro","pub_date":"2020_03_24","id":"220","lat":47.639243,"hospital_name":"Spitalul Judetean de Urgenta Sf. Ioan cel Nou Suceava Consiliul Judetean Suceava"},"id":"10317"},{"type":"Feature","geometry":{"type":"Point","coordinates":[24.4246,47.708]},"properties":{"cc":"RO","country":"Romania","cap_beds":212,"lon":24.424555,"url":"www.spitalviseu.ro","pub_date":"2020_03_24","id":"164","lat":47.708,"hospital_name":"Spitalul Orasenesc Viseu de Sus Consiliul Local Viseu de Sus"},"id":"10318"},{"type":"Feature","geometry":{"type":"Point","coordinates":[24.698,45.1861]},"properties":{"cc":"RO","country":"Romania","cap_beds":212,"lon":24.698017,"url":"www.spviasului.ro","pub_date":"2020_03_24","id":"26","lat":45.186075,"hospital_name":"Spitalul de Pneumoftiziologie Sf. Andrei Valea Iasului Consiliul Judetean Arges"},"id":"10319"},{"type":"Feature","geometry":{"type":"Point","coordinates":[26.4485,46.4187]},"properties":{"cc":"RO","country":"Romania","cap_beds":120,"lon":26.448523,"pub_date":"2020_03_24","id":"31","lat":46.418652,"hospital_name":"Spitalul Orasenesc Ioan Lascar Comanesti"},"id":"10320"},{"type":"Feature","geometry":{"type":"Point","coordinates":[21.6231,44.7263]},"properties":{"cc":"RO","country":"Romania","cap_beds":140,"lon":21.623068,"url":"www.spitalmoldovanoua.ro","pub_date":"2020_03_24","id":"72","lat":44.726293,"hospital_name":"Spitalul Orasenesc Moldova Noua Consiliul Local Moldova Noua"},"id":"10321"},{"type":"Feature","geometry":{"type":"Point","coordinates":[23.7186,46.3056]},"properties":{"cc":"RO","country":"Romania","cap_beds":116,"lon":23.718646,"url":"www.sanatoriultbcaiud.ro","pub_date":"2020_03_24","id":"8","lat":46.305553,"hospital_name":"Spitalul de Pneumoftiziologie Aiud Consiliul Judetean Alba"},"id":"10322"},{"type":"Feature","geometry":{"type":"Point","coordinates":[23.6845,44.2887]},"properties":{"cc":"RO","country":"Romania","cap_beds":157,"lon":23.684464,"pub_date":"2020_03_24","id":"110","lat":44.288715,"hospital_name":"Spitalul de Pneumoftiziologie Leamna"},"id":"10323"},{"type":"Feature","geometry":{"type":"Point","coordinates":[26.129,44.3842]},"properties":{"cc":"RO","country":"Romania","cap_beds":311,"lon":26.12904,"url":"spitalulsf.luca.ro","pub_date":"2020_03_24","id":"272","lat":44.384223,"hospital_name":"Spitalul de Boli Cronice și Geriatrie Sf. Luca"},"id":"10324"},{"type":"Feature","geometry":{"type":"Point","coordinates":[26.8003,45.1512]},"properties":{"cc":"RO","country":"Romania","cap_beds":910,"lon":26.800332,"pub_date":"2020_03_24","id":"64","lat":45.151174,"hospital_name":"Spitalul Judetean de Urgenta Buzau Consiliul Judetean Buzau"},"id":"10325"},{"type":"Feature","geometry":{"type":"Point","coordinates":[26.0892,44.4046]},"properties":{"cc":"RO","country":"Romania","cap_beds":548,"lon":26.08916,"url":"www.marius-nasta.ro","pub_date":"2020_03_24","id":"343","lat":44.40463,"hospital_name":"Institutul de Pneumoftiziologie Marius Nasta"},"id":"10326"},{"type":"Feature","geometry":{"type":"Point","coordinates":[28.6422,44.1864]},"properties":{"cc":"RO","country":"Romania","cap_beds":1300,"lon":28.642248,"pub_date":"2020_03_24","id":"89","lat":44.186359,"hospital_name":"Spitalul Clinic Judetean de Urgenta Constanta"},"id":"10327"},{"type":"Feature","geometry":{"type":"Point","coordinates":[23.5951,46.7746]},"properties":{"cc":"RO","country":"Romania","cap_beds":410,"lon":23.595058,"url":"www.irgh.ro","pub_date":"2020_03_24","id":"310","lat":46.774552,"hospital_name":"Institutul Regional de Gastroenterologie-Hepatologie Prof. dr. Octavian Fodor Cluj"},"id":"10328"},{"type":"Feature","geometry":{"type":"Point","coordinates":[28.6071,44.2312]},"properties":{"cc":"RO","country":"Romania","cap_beds":185,"lon":28.607084,"url":"www.tbc.infomedic.ro","pub_date":"2020_03_24","id":"90","lat":44.231241,"hospital_name":"Spitalul Clinic de Pneumoftiziologie Constanta Consiliul Judetean Constanta"},"id":"10329"},{"type":"Feature","geometry":{"type":"Point","coordinates":[23.5714,46.7654]},"properties":{"cc":"RO","country":"Romania","cap_beds":405,"lon":23.57138,"url":"www.recuperarecluj.ro","pub_date":"2020_03_24","id":"80","lat":46.76537,"hospital_name":"Spitalul Clinic de Recuperare Cluj-Napoca Consiliul Judetean Cluj"},"id":"10330"},{"type":"Feature","geometry":{"type":"Point","coordinates":[26.1053,44.4533]},"properties":{"cc":"RO","country":"Romania","cap_beds":123,"lon":26.105297,"url":"pneumosfstefan.ro","pub_date":"2020_03_24","id":"271","lat":44.453255,"hospital_name":"Spitalul de Pneumoftiziologie Sf. Stefan"},"id":"10331"},{"type":"Feature","geometry":{"type":"Point","coordinates":[23.7427,44.0997]},"properties":{"cc":"RO","country":"Romania","cap_beds":112,"lon":23.74271,"url":"www.spitalsegarcea.ro","pub_date":"2020_03_24","id":"108","lat":44.099717,"hospital_name":"Spitalul Orasenesc Segarcea Consiliul Local Segarcea"},"id":"10332"},{"type":"Feature","geometry":{"type":"Point","coordinates":[23.8247,44.3148]},"properties":{"cc":"RO","country":"Romania","cap_beds":435,"lon":23.824722,"url":"www.vbabes-cv.ro","pub_date":"2020_03_24","id":"104","lat":44.314802,"hospital_name":"Spitalul Clinic de Boli Infectioase si Pneumoftiziologie V. Babeș Craiova Consiliul Local Craiova"},"id":"10333"},{"type":"Feature","geometry":{"type":"Point","coordinates":[25.3551,46.9231]},"properties":{"cc":"RO","country":"Romania","cap_beds":163,"lon":25.355072,"url":"www.spitaltoplita.ro","pub_date":"2020_03_24","id":"133","lat":46.923069,"hospital_name":"Spitalul Municipal Toplita Consiliul Local Toplita"},"id":"10334"},{"type":"Feature","geometry":{"type":"Point","coordinates":[25.5553,45.3332]},"properties":{"cc":"RO","country":"Romania","cap_beds":94,"lon":25.555251,"url":"spitalsinaia@yahoo.com","pub_date":"2020_03_24","id":"195","lat":45.333248,"hospital_name":"Spitalul Orasenesc Sinaia Consiliul Local Sinaia"},"id":"10335"},{"type":"Feature","geometry":{"type":"Point","coordinates":[26.1788,44.4381]},"properties":{"cc":"RO","country":"Romania","cap_beds":263,"lon":26.178811,"pub_date":"2020_03_24","id":"264","lat":44.43812,"hospital_name":"Spitalul Clinic Nicolae Malaxa Bucuresti"},"id":"10336"},{"type":"Feature","geometry":{"type":"Point","coordinates":[25.5603,47.5279]},"properties":{"cc":"RO","country":"Romania","cap_beds":70,"lon":25.560315,"url":"www.spcm.ro","pub_date":"2020_03_24","id":"227","lat":47.527866,"hospital_name":"Spitalul de Psihiatrie Campulung Moldovenesc Consiliul Local Campulung Moldovenesc"},"id":"10337"},{"type":"Feature","geometry":{"type":"Point","coordinates":[26.0929,46.9088]},"properties":{"cc":"RO","country":"Romania","cap_beds":50,"lon":26.092873,"pub_date":"2020_03_24","id":"378","lat":46.908764,"hospital_name":"Spitalul Orasenesc Bicaz"},"id":"10338"},{"type":"Feature","geometry":{"type":"Point","coordinates":[26.009,44.9628]},"properties":{"cc":"RO","country":"Romania","cap_beds":1160,"lon":26.009048,"pub_date":"2020_03_24","id":"189","lat":44.962779,"hospital_name":"Spitalul Judetean de Urgenta Ploiesti"},"id":"10339"},{"type":"Feature","geometry":{"type":"Point","coordinates":[25.5521,45.4339]},"properties":{"cc":"RO","country":"Romania","cap_beds":95,"lon":25.552053,"pub_date":"2020_03_24","id":"200","lat":45.433876,"hospital_name":"Spitalul de Ortopedie si Traumatologie Azuga"},"id":"10340"},{"type":"Feature","geometry":{"type":"Point","coordinates":[25.5441,47.5324]},"properties":{"cc":"RO","country":"Romania","cap_beds":246,"lon":25.544103,"url":"http: \/\/ smcm.suceava.astral.ro","pub_date":"2020_03_24","id":"221","lat":47.532393,"hospital_name":"Spitalul Municipal Campulung Moldovenesc Consiliul Local Campulung Moldovenesc"},"id":"10341"},{"type":"Feature","geometry":{"type":"Point","coordinates":[26.2973,47.4632]},"properties":{"cc":"RO","country":"Romania","cap_beds":393,"lon":26.297311,"pub_date":"2020_03_24","id":"222","lat":47.463151,"hospital_name":"Spitalul Municipal Falticeni"},"id":"10342"},{"type":"Feature","geometry":{"type":"Point","coordinates":[22.8042,47.2272]},"properties":{"cc":"RO","country":"Romania","cap_beds":215,"lon":22.804152,"url":"spitalsimleu.ro","pub_date":"2020_03_24","id":"210","lat":47.227241,"hospital_name":"Spitalul Orasenesc Dr. I. Pușcaș Simleul Silvaniei Consiliul Local Simleul Silvaniei"},"id":"10343"},{"type":"Feature","geometry":{"type":"Point","coordinates":[21.2403,45.7384]},"properties":{"cc":"RO","country":"Romania","cap_beds":1174,"lon":21.240333,"url":"www.hosptm.ro","pub_date":"2020_03_24","id":"327","lat":45.738368,"hospital_name":"Spitalul Clinic Judetean de Urgenta Timisoara P. Brinzeu"},"id":"10344"},{"type":"Feature","geometry":{"type":"Point","coordinates":[23.4279,47.8715]},"properties":{"cc":"RO","country":"Romania","cap_beds":244,"lon":23.427883,"url":"www.spitalnegrestioas.ro","pub_date":"2020_03_24","id":"206","lat":47.871511,"hospital_name":"Spitalul Orasenesc Negresti-Oas Consiliul Judetean Satu Mare"},"id":"10345"},{"type":"Feature","geometry":{"type":"Point","coordinates":[26.0821,44.4533]},"properties":{"cc":"RO","country":"Romania","cap_beds":264,"lon":26.082058,"url":"spitalulfilantropia.ro","pub_date":"2020_03_24","id":"356","lat":44.453251,"hospital_name":"Spitalul Clinic de Obstetrica si Ginecologie Filantropia"},"id":"10346"},{"type":"Feature","geometry":{"type":"Point","coordinates":[27.9547,44.6843]},"properties":{"cc":"RO","country":"Romania","cap_beds":64,"lon":27.954712,"pub_date":"2020_03_24","id":"95","lat":44.684277,"hospital_name":"Spitalul Orasenesc Harsova"},"id":"10347"},{"type":"Feature","geometry":{"type":"Point","coordinates":[22.8856,47.7916]},"properties":{"cc":"RO","country":"Romania","cap_beds":188,"lon":22.885635,"pub_date":"2020_03_24","id":"207","lat":47.791629,"hospital_name":"Spitalul de Pneumoftiziologie Satu Mare"},"id":"10348"},{"type":"Feature","geometry":{"type":"Point","coordinates":[26.2408,44.9907]},"properties":{"cc":"RO","country":"Romania","cap_beds":67,"lon":26.240823,"pub_date":"2020_03_24","id":"380","lat":44.990723,"hospital_name":"Spitalul Orasenesc Urlati"},"id":"10349"},{"type":"Feature","geometry":{"type":"Point","coordinates":[26.908,45.9115]},"properties":{"cc":"RO","country":"Romania","cap_beds":56,"lon":26.908001,"url":"runos.spvidra@gmail.com","pub_date":"2020_03_24","id":"333","lat":45.911489,"hospital_name":"Spitalul Comunal N. Saveanu Vidra"},"id":"10350"},{"type":"Feature","geometry":{"type":"Point","coordinates":[25.6021,46.7233]},"properties":{"cc":"RO","country":"Romania","cap_beds":200,"lon":25.602093,"url":"www.spitalgh.ro","pub_date":"2020_03_24","id":"132","lat":46.723252,"hospital_name":"Spitalul Municipal Gheorghieni Consiliul Local Gheorghieni"},"id":"10351"},{"type":"Feature","geometry":{"type":"Point","coordinates":[24.2385,45.0218]},"properties":{"cc":"RO","country":"Romania","cap_beds":148,"lon":24.23849,"url":"www.anastaspital.ro","pub_date":"2020_03_24","id":"253","lat":45.021832,"hospital_name":"Spitalul de Pneumoftiziologie C. Anastasiu Mihaesti Consiliul Judetean Valcea"},"id":"10352"},{"type":"Feature","geometry":{"type":"Point","coordinates":[23.0155,46.8624]},"properties":{"cc":"RO","country":"Romania","cap_beds":165,"lon":23.0155114,"url":"www.spitalulhuedin.ro","pub_date":"2020_03_24","id":"86","lat":46.8624083,"hospital_name":"Spitalul Orasenesc Huedin Consiliul Local Huedin"},"id":"10353"},{"type":"Feature","geometry":{"type":"Point","coordinates":[26.0679,47.9511]},"properties":{"cc":"RO","country":"Romania","cap_beds":210,"lon":26.0678619,"url":"www.psihiatriesiret.ro","pub_date":"2020_03_24","id":"228","lat":47.9511056,"hospital_name":"Spitalul de Psihiatrie Cronici Siret Consiliul Local Siret"},"id":"10354"},{"type":"Feature","geometry":{"type":"Point","coordinates":[25.3584,47.3479]},"properties":{"cc":"RO","country":"Romania","cap_beds":183,"lon":25.358355,"url":"spitalvatradornei.ro","pub_date":"2020_03_24","id":"224","lat":47.347943,"hospital_name":"Spitalul Municipal Vatra Dornei Consiliul Local Vatra Dornei"},"id":"10355"},{"type":"Feature","geometry":{"type":"Point","coordinates":[26.1091,44.3898]},"properties":{"cc":"RO","country":"Romania","cap_beds":473,"lon":26.109095,"url":"www.mscurie.ro","pub_date":"2020_03_24","id":"352","lat":44.389774,"hospital_name":"Spitalul Clinic de Urgenta pentru Copii M.S. Curie"},"id":"10356"},{"type":"Feature","geometry":{"type":"Point","coordinates":[26.1732,44.4418]},"properties":{"cc":"RO","country":"Romania","cap_beds":525,"lon":26.173167,"url":"www.urgentapantelimon.zedwebsolutions.ro","pub_date":"2020_03_24","id":"347","lat":44.441808,"hospital_name":"Spitalul Clinic de Urgenta Sf. Pantelimon"},"id":"10357"},{"type":"Feature","geometry":{"type":"Point","coordinates":[26.8998,47.4304]},"properties":{"cc":"RO","country":"Romania","cap_beds":118,"lon":26.899767,"url":"www.spitaluloraseneschirlau.info","pub_date":"2020_03_24","id":"157","lat":47.430351,"hospital_name":"Spitalul Orasenesc Harlau Consiliul Local Harlau"},"id":"10358"},{"type":"Feature","geometry":{"type":"Point","coordinates":[21.8886,45.6906]},"properties":{"cc":"RO","country":"Romania","cap_beds":363,"lon":21.888553,"url":"www.smlugoj.ro","pub_date":"2020_03_24","id":"238","lat":45.690563,"hospital_name":"Spitalul Municipal Lugoj Consiliul Local Lugoj"},"id":"10359"},{"type":"Feature","geometry":{"type":"Point","coordinates":[24.5664,46.5459]},"properties":{"cc":"RO","country":"Romania","cap_beds":1182,"lon":24.566358,"url":"www.spitaljudeteanmures.ro","pub_date":"2020_03_24","id":"172","lat":46.545919,"hospital_name":"Spitalul Clinic Judetean Mures Consiliul Judetean Mures"},"id":"10360"},{"type":"Feature","geometry":{"type":"Point","coordinates":[27.1054,45.5498]},"properties":{"cc":"RO","country":"Romania","cap_beds":135,"lon":27.105385,"url":"www.spdumbraveni.ro","pub_date":"2020_03_24","id":"332","lat":45.549832,"hospital_name":"Spitalul de Psihiatrie Cronici Dumbraveni"},"id":"10361"},{"type":"Feature","geometry":{"type":"Point","coordinates":[27.1829,46.0975]},"properties":{"cc":"RO","country":"Romania","cap_beds":173,"lon":27.182922,"pub_date":"2020_03_24","id":"255","lat":46.097519,"hospital_name":"Spitalul Municipal Adjud"},"id":"10362"},{"type":"Feature","geometry":{"type":"Point","coordinates":[25.3003,46.3073]},"properties":{"cc":"RO","country":"Romania","cap_beds":553,"lon":25.300344,"url":"www.hospital-odorhei.ro","pub_date":"2020_03_24","id":"131","lat":46.307273,"hospital_name":"Spitalul Municipal Odorheiu Secuiesc Consiliul Local Odorheiu Secuiesc"},"id":"10363"},{"type":"Feature","geometry":{"type":"Point","coordinates":[25.0712,46.5937]},"properties":{"cc":"RO","country":"Romania","cap_beds":33,"lon":25.071241,"pub_date":"2020_03_24","id":"178","lat":46.593699,"hospital_name":"Spitalul Sovata - Niraj"},"id":"10364"},{"type":"Feature","geometry":{"type":"Point","coordinates":[28.0206,46.2053]},"properties":{"cc":"RO","country":"Romania","lon":28.020587,"url":"www.spitalulmurgeni.ro","pub_date":"2020_03_24","id":"248","lat":46.205349,"hospital_name":"Spitalul de Psihiatrie Murgeni Consiliul Local Murgeni"},"id":"10365"}]}