{"type":"FeatureCollection","features":[{"type":"Feature","geometry":{"type":"Point","coordinates":[24.6665,47.6542]},"properties":{"cc":"RO","country":"Romania","public_private":"","city":"","cap_beds":400,"postcode":"","emergency":"","ref_date":"","lon":24.666528,"house_number":"","url":"spital_borsa@yahoo.com","site_name":"","pub_date":"27\/03\/2020","street":"","tel":"","id":"323","facility_type":"","list_specs":"","lat":47.654216,"email":"","hospital_name":"Spitalul de Recuperare Borsa"},"id":"10245"},{"type":"Feature","geometry":{"type":"Point","coordinates":[25.1153,44.7936]},"properties":{"cc":"RO","country":"Romania","public_private":"","city":"","cap_beds":107,"postcode":"","emergency":"","ref_date":"","lon":25.115331,"house_number":"","url":"www.spitalleordeni.ro","site_name":"","pub_date":"27\/03\/2020","street":"","tel":"","id":"25","facility_type":"","list_specs":"","lat":44.793596,"email":"","hospital_name":"Spitalul de Pneumoftiziologie Leordeni Consiliul Judetean Arges"},"id":"10246"},{"type":"Feature","geometry":{"type":"Point","coordinates":[25.2204,46.0375]},"properties":{"cc":"RO","country":"Romania","public_private":"","city":"","cap_beds":80,"postcode":"","emergency":"","ref_date":"","lon":25.220388,"house_number":"","url":"www.spitalrupea.ro","site_name":"","pub_date":"27\/03\/2020","street":"","tel":"","id":"56","facility_type":"","list_specs":"","lat":46.0375,"email":"","hospital_name":"Spitalul Orasenesc Rupea Consiliul Local Rupea"},"id":"10247"},{"type":"Feature","geometry":{"type":"Point","coordinates":[22.3935,47.0603]},"properties":{"cc":"RO","country":"Romania","public_private":"","city":"","cap_beds":147,"postcode":"","emergency":"","ref_date":"","lon":22.3935,"house_number":"","url":"www.spitalalesd.ro","site_name":"","pub_date":"27\/03\/2020","street":"","tel":"","id":"38","facility_type":"","list_specs":"","lat":47.060329,"email":"","hospital_name":"Spitalul Orasenesc Alesd Consiliul Local Alesd"},"id":"10248"},{"type":"Feature","geometry":{"type":"Point","coordinates":[26.3013,45.4197]},"properties":{"cc":"RO","country":"Romania","public_private":"","city":"","cap_beds":135,"postcode":"","emergency":"","ref_date":"","lon":26.30127,"house_number":"","url":"www.spitalnehoiu.com","site_name":"","pub_date":"27\/03\/2020","street":"","tel":"","id":"66","facility_type":"","list_specs":"","lat":45.41966,"email":"","hospital_name":"Spitalul Orasenesc Nehoiu Consiliul Local Nehoiu"},"id":"10249"},{"type":"Feature","geometry":{"type":"Point","coordinates":[26.6983,46.7105]},"properties":{"cc":"RO","country":"Romania","public_private":"","city":"","cap_beds":193,"postcode":"","emergency":"","ref_date":"","lon":26.69829,"house_number":"","url":"www.spitalbuhusi.ro","site_name":"","pub_date":"27\/03\/2020","street":"","tel":"","id":"32","facility_type":"","list_specs":"","lat":46.71054,"email":"","hospital_name":"Spitalul Orasenesc Buhusi Consiliul Local Buhusi"},"id":"10250"},{"type":"Feature","geometry":{"type":"Point","coordinates":[26.8519,44.4426]},"properties":{"cc":"RO","country":"Romania","public_private":"","city":"","cap_beds":114,"postcode":"","emergency":"","ref_date":"","lon":26.8519,"house_number":"","url":"www.splehliu.ro","site_name":"","pub_date":"27\/03\/2020","street":"","tel":"","id":"75","facility_type":"","list_specs":"","lat":44.442551,"email":"","hospital_name":"Spitalul Orasenesc Lehliu-Gara Consiliul Local Lehliu-Gara"},"id":"10251"},{"type":"Feature","geometry":{"type":"Point","coordinates":[24.409,47.284]},"properties":{"cc":"RO","country":"Romania","public_private":"","city":"","cap_beds":165,"postcode":"","emergency":"","ref_date":"","lon":24.40903,"house_number":"","url":"www.spitalnasaud.mediakom.ro","site_name":"","pub_date":"27\/03\/2020","street":"","tel":"","id":"42","facility_type":"","list_specs":"","lat":47.284033,"email":"","hospital_name":"Spitalul Orasenesc Dr. George Trifon Nasaud Consiliul Local Nasaud"},"id":"10252"},{"type":"Feature","geometry":{"type":"Point","coordinates":[22.8246,46.1351]},"properties":{"cc":"RO","country":"Romania","public_private":"","city":"","cap_beds":155,"postcode":"","emergency":"","ref_date":"","lon":22.824563,"house_number":"","url":"www.sanatoriulbrad.ro","site_name":"","pub_date":"27\/03\/2020","street":"","tel":"","id":"144","facility_type":"","list_specs":"","lat":46.135081,"email":"","hospital_name":"Sanatoriul de Pneumoftiziologie Brad Consiliul Judetean Hunedoara"},"id":"10253"},{"type":"Feature","geometry":{"type":"Point","coordinates":[22.7585,45.8008]},"properties":{"cc":"RO","country":"Romania","public_private":"","city":"","cap_beds":612,"postcode":"","emergency":"","ref_date":"","lon":22.758522,"house_number":"","url":"www.sphd.ro","site_name":"","pub_date":"27\/03\/2020","street":"","tel":"","id":"137","facility_type":"","list_specs":"","lat":45.800802,"email":"","hospital_name":"Spitalul Municipal Dr. A. Simionescu Hunedoara Consiliul Local Hunedoara"},"id":"10254"},{"type":"Feature","geometry":{"type":"Point","coordinates":[24.8654,44.8508]},"properties":{"cc":"RO","country":"Romania","public_private":"","city":"","cap_beds":411,"postcode":"","emergency":"","ref_date":"","lon":24.865354,"house_number":"","url":"www.pediatriepitesti.ro","site_name":"","pub_date":"27\/03\/2020","street":"","tel":"","id":"23","facility_type":"","list_specs":"","lat":44.850796,"email":"","hospital_name":"Spitalul de Pediatrie Pitesti Consiliul Judetean Arges"},"id":"10255"},{"type":"Feature","geometry":{"type":"Point","coordinates":[21.8858,47.2513]},"properties":{"cc":"RO","country":"Romania","public_private":"","city":"","cap_beds":885,"postcode":"","emergency":"","ref_date":"","lon":21.885796,"house_number":"","url":"www.spitaljudetean-oradea.ro\/","site_name":"","pub_date":"27\/03\/2020","street":"","tel":"","id":"34","facility_type":"","list_specs":"","lat":47.251271,"email":"","hospital_name":"Spitalul Clinic Judetean de Urgenta Oradea Consiliul Local al Municipiului Oradea"},"id":"10256"},{"type":"Feature","geometry":{"type":"Point","coordinates":[24.5058,47.1397]},"properties":{"cc":"RO","country":"Romania","public_private":"","city":"","cap_beds":1035,"postcode":"","emergency":"","ref_date":"","lon":24.505847,"house_number":"","url":"spital.bistrita.ro","site_name":"","pub_date":"27\/03\/2020","street":"","tel":"","id":"41","facility_type":"","list_specs":"","lat":47.139691,"email":"","hospital_name":"Spitalul Judetean de Urgenta Bistrita Consiliul Judetean Bistrita Nasaud"},"id":"10257"},{"type":"Feature","geometry":{"type":"Point","coordinates":[28.6053,44.0494]},"properties":{"cc":"RO","country":"Romania","public_private":"","city":"","cap_beds":935,"postcode":"","emergency":"","ref_date":"","lon":28.605314,"house_number":"","url":"www.sbtghiol.ro","site_name":"","pub_date":"27\/03\/2020","street":"","tel":"","id":"313","facility_type":"","list_specs":"","lat":44.049401,"email":"","hospital_name":"Sanatoriul Balnear si de Recuperare Techirghiol"},"id":"10258"},{"type":"Feature","geometry":{"type":"Point","coordinates":[26.8995,46.5644]},"properties":{"cc":"RO","country":"Romania","public_private":"","city":"","cap_beds":176,"postcode":"","emergency":"","ref_date":"","lon":26.899542,"house_number":"","url":"www.pneumoftiziologie-bacau.ro","site_name":"","pub_date":"27\/03\/2020","street":"","tel":"","id":"33","facility_type":"","list_specs":"","lat":46.564445,"email":"","hospital_name":"Spitalul de Pneumoftiziologie Bacau Consiliul Local Bacau"},"id":"10259"},{"type":"Feature","geometry":{"type":"Point","coordinates":[27.4372,45.8472]},"properties":{"cc":"RO","country":"Romania","public_private":"","city":"","cap_beds":265,"postcode":"","emergency":"","ref_date":"","lon":27.437249,"house_number":"","url":"","site_name":"","pub_date":"27\/03\/2020","street":"","tel":"","id":"114","facility_type":"","list_specs":"","lat":45.847202,"email":"","hospital_name":"Spitalul Municipal Anton Cincu Tecuci"},"id":"10260"},{"type":"Feature","geometry":{"type":"Point","coordinates":[24.288,44.812]},"properties":{"cc":"RO","country":"Romania","public_private":"","city":"","cap_beds":125,"postcode":"","emergency":"","ref_date":"","lon":24.288025,"house_number":"","url":"www.spitaluldragoesti.ro","site_name":"","pub_date":"27\/03\/2020","street":"","tel":"","id":"254","facility_type":"","list_specs":"","lat":44.812045,"email":"","hospital_name":"Spitalul de Psihiatrie Dragoesti Consiliul Judetean Valcea"},"id":"10261"},{"type":"Feature","geometry":{"type":"Point","coordinates":[24.2583,44.6594]},"properties":{"cc":"RO","country":"Romania","public_private":"","city":"","cap_beds":246,"postcode":"","emergency":"","ref_date":"","lon":24.258279,"house_number":"","url":"www.smcnd.ro","site_name":"","pub_date":"27\/03\/2020","street":"","tel":"","id":"250","facility_type":"","list_specs":"","lat":44.659378,"email":"","hospital_name":"Spitalul Municipal Costache Nicolescu Dragasani Consiliul Local Dragasani"},"id":"10262"},{"type":"Feature","geometry":{"type":"Point","coordinates":[26.4393,44.9983]},"properties":{"cc":"RO","country":"Romania","public_private":"","city":"","cap_beds":102,"postcode":"","emergency":"","ref_date":"","lon":26.439285,"house_number":"","url":"www.spitalmizil.ro","site_name":"","pub_date":"27\/03\/2020","street":"","tel":"","id":"194","facility_type":"","list_specs":"","lat":44.99831,"email":"","hospital_name":"Spitalul Orasenesc Sf. Filofteia Mizil Consiliul Local Mizil"},"id":"10263"},{"type":"Feature","geometry":{"type":"Point","coordinates":[28.2843,44.2649]},"properties":{"cc":"RO","country":"Romania","public_private":"","city":"","cap_beds":350,"postcode":"","emergency":"","ref_date":"","lon":28.284302,"house_number":"","url":"www.spitalmedgidia.ro","site_name":"","pub_date":"27\/03\/2020","street":"","tel":"","id":"93","facility_type":"","list_specs":"","lat":44.264871,"email":"","hospital_name":"Spitalul Municipal Medgidia Consiliul Local Medgidia"},"id":"10264"},{"type":"Feature","geometry":{"type":"Point","coordinates":[25.5353,45.4161]},"properties":{"cc":"RO","country":"Romania","public_private":"","city":"","cap_beds":104,"postcode":"","emergency":"","ref_date":"","lon":25.535322,"house_number":"","url":"www.sanatoriulbusteni.ro","site_name":"","pub_date":"27\/03\/2020","street":"","tel":"","id":"325","facility_type":"","list_specs":"","lat":45.416128,"email":"","hospital_name":"Sanatoriul Balneoclimateric de Copii Busteni"},"id":"10265"},{"type":"Feature","geometry":{"type":"Point","coordinates":[21.6101,45.6497]},"properties":{"cc":"RO","country":"Romania","public_private":"","city":"","cap_beds":50,"postcode":"","emergency":"","ref_date":"","lon":21.610145,"house_number":"","url":"www.ccserban.ro","site_name":"","pub_date":"27\/03\/2020","street":"","tel":"","id":"328","facility_type":"","list_specs":"","lat":45.649692,"email":"","hospital_name":"Centrul Medical de Evaluare si Recuperare pentru Copii si Tineri Cristian Șerban Buziaș"},"id":"10266"},{"type":"Feature","geometry":{"type":"Point","coordinates":[27.5848,47.1696]},"properties":{"cc":"RO","country":"Romania","public_private":"","city":"","cap_beds":350,"postcode":"","emergency":"","ref_date":"","lon":27.584814,"house_number":"","url":"","site_name":"","pub_date":"27\/03\/2020","street":"","tel":"","id":"153","facility_type":"","list_specs":"","lat":47.169644,"email":"","hospital_name":"Spitalul Clinic de Pneumoftiziologie Iasi"},"id":"10267"},{"type":"Feature","geometry":{"type":"Point","coordinates":[23.5909,47.6614]},"properties":{"cc":"RO","country":"Romania","public_private":"","city":"","cap_beds":135,"postcode":"","emergency":"","ref_date":"","lon":23.5908618,"house_number":"","url":"www.sbidvp.ro","site_name":"","pub_date":"27\/03\/2020","street":"","tel":"","id":"166","facility_type":"","list_specs":"","lat":47.6614145,"email":"","hospital_name":"Spitalul de Boli Infectioase Dermato - Venerologie si Psihiatrie Baia Mare Consiliul Judetean Maramures"},"id":"10268"},{"type":"Feature","geometry":{"type":"Point","coordinates":[24.1157,44.3471]},"properties":{"cc":"RO","country":"Romania","public_private":"","city":"","cap_beds":119,"postcode":"","emergency":"","ref_date":"","lon":24.115725,"house_number":"","url":"http:\/\/www.spitalulbals.ro\/","site_name":"","pub_date":"27\/03\/2020","street":"","tel":"","id":"186","facility_type":"","list_specs":"","lat":44.347065,"email":"","hospital_name":"Spitalul Orasenesc Bals Consiliul Local Bals"},"id":"10269"},{"type":"Feature","geometry":{"type":"Point","coordinates":[23.8109,44.299]},"properties":{"cc":"RO","country":"Romania","public_private":"","city":"","cap_beds":495,"postcode":"","emergency":"","ref_date":"","lon":23.81089,"house_number":"","url":"www.filantropia.ro","site_name":"","pub_date":"27\/03\/2020","street":"","tel":"","id":"103","facility_type":"","list_specs":"","lat":44.29896,"email":"","hospital_name":"Spitalul Clinic Municipal Filantropia Craiova Consiliul Local Craiova"},"id":"10270"},{"type":"Feature","geometry":{"type":"Point","coordinates":[26.1533,44.4651]},"properties":{"cc":"RO","country":"Romania","public_private":"","city":"","cap_beds":1098,"postcode":"","emergency":"","ref_date":"","lon":26.153297,"house_number":"","url":"www.icfundeni.ro\/","site_name":"","pub_date":"27\/03\/2020","street":"","tel":"","id":"345","facility_type":"","list_specs":"","lat":44.465132,"email":"","hospital_name":"Institutul Clinic Fundeni"},"id":"10271"},{"type":"Feature","geometry":{"type":"Point","coordinates":[22.396,44.7214]},"properties":{"cc":"RO","country":"Romania","public_private":"","city":"","cap_beds":120,"postcode":"","emergency":"","ref_date":"","lon":22.396027,"house_number":"","url":"in constructie","site_name":"","pub_date":"27\/03\/2020","street":"","tel":"","id":"170","facility_type":"","list_specs":"","lat":44.721445,"email":"","hospital_name":"Spitalul Municipal Orsova Consiliul Local Orsova"},"id":"10272"},{"type":"Feature","geometry":{"type":"Point","coordinates":[24.0948,46.4746]},"properties":{"cc":"RO","country":"Romania","public_private":"","city":"","cap_beds":216,"postcode":"","emergency":"","ref_date":"","lon":24.094841,"house_number":"","url":"spital-ludus.ro","site_name":"","pub_date":"27\/03\/2020","street":"","tel":"","id":"176","facility_type":"","list_specs":"","lat":46.474591,"email":"","hospital_name":"Spitalul Orasenesc Dr. Valer Russu Ludus Consiliul Local Ludus"},"id":"10273"},{"type":"Feature","geometry":{"type":"Point","coordinates":[25.9382,44.5761]},"properties":{"cc":"RO","country":"Romania","public_private":"","city":"","cap_beds":60,"postcode":"","emergency":"","ref_date":"","lon":25.938168,"house_number":"","url":"","site_name":"","pub_date":"27\/03\/2020","street":"","tel":"","id":"161","facility_type":"","list_specs":"","lat":44.576147,"email":"","hospital_name":"Spitalul de Obstretica Ginecologie Buftea"},"id":"10274"},{"type":"Feature","geometry":{"type":"Point","coordinates":[26.2911,44.3913]},"properties":{"cc":"RO","country":"Romania","public_private":"","city":"","cap_beds":274,"postcode":"","emergency":"","ref_date":"","lon":26.291088,"house_number":"","url":"www.eftimiediamandescu.ro","site_name":"","pub_date":"27\/03\/2020","street":"","tel":"","id":"160","facility_type":"","list_specs":"","lat":44.391288,"email":"","hospital_name":"Spitalul de Psihiatrie E. Diamandescu Balaceanca Consiliul Judetean Ilfov"},"id":"10275"},{"type":"Feature","geometry":{"type":"Point","coordinates":[21.6892,45.0374]},"properties":{"cc":"RO","country":"Romania","public_private":"","city":"","cap_beds":280,"postcode":"","emergency":"","ref_date":"","lon":21.689243,"house_number":"","url":"spitaluloravita.webgarden.ro","site_name":"","pub_date":"27\/03\/2020","street":"","tel":"","id":"71","facility_type":"","list_specs":"","lat":45.037384,"email":"","hospital_name":"Spitalul Orasenesc Oravita Consiliul Local Oravita"},"id":"10276"},{"type":"Feature","geometry":{"type":"Point","coordinates":[23.0454,46.3657]},"properties":{"cc":"RO","country":"Romania","public_private":"","city":"","cap_beds":87,"postcode":"","emergency":"","ref_date":"","lon":23.04539,"house_number":"","url":"www.spitaluldebolicronicecimpeni.ro","site_name":"","pub_date":"27\/03\/2020","street":"","tel":"","id":"9","facility_type":"","list_specs":"","lat":46.365747,"email":"","hospital_name":"Spitalul de Boli Cronice Campeni Consiliul Local Campeni"},"id":"10277"},{"type":"Feature","geometry":{"type":"Point","coordinates":[23.8818,47.1417]},"properties":{"cc":"RO","country":"Romania","public_private":"","city":"","cap_beds":348,"postcode":"","emergency":"","ref_date":"","lon":23.881766,"house_number":"","url":"www.spitaldej.ro","site_name":"","pub_date":"27\/03\/2020","street":"","tel":"","id":"82","facility_type":"","list_specs":"","lat":47.141699,"email":"","hospital_name":"Spitalul Municipal Dej Consiliul Local Dej"},"id":"10278"},{"type":"Feature","geometry":{"type":"Point","coordinates":[25.732,45.1293]},"properties":{"cc":"RO","country":"Romania","public_private":"","city":"","cap_beds":510,"postcode":"","emergency":"","ref_date":"","lon":25.73204,"house_number":"","url":"www.spitalulvoila.ro","site_name":"","pub_date":"27\/03\/2020","street":"","tel":"","id":"198","facility_type":"","list_specs":"","lat":45.129258,"email":"","hospital_name":"Spitalul de Psihiatrie Voila Consiliul Local Campina"},"id":"10279"},{"type":"Feature","geometry":{"type":"Point","coordinates":[22.8802,47.1619]},"properties":{"cc":"RO","country":"Romania","public_private":"","city":"","cap_beds":50,"postcode":"","emergency":"","ref_date":"","lon":22.880221,"house_number":"","url":"crasna.ro\/spital","site_name":"","pub_date":"27\/03\/2020","street":"","tel":"","id":"211","facility_type":"","list_specs":"","lat":47.1619424,"email":"","hospital_name":"Spitalul de Boli Cronice Crasna Consiliul Local Crasna"},"id":"10280"},{"type":"Feature","geometry":{"type":"Point","coordinates":[27.9704,45.2688]},"properties":{"cc":"RO","country":"Romania","public_private":"","city":"","cap_beds":152,"postcode":"","emergency":"","ref_date":"","lon":27.97044,"house_number":"","url":"www.spitalultbcbr.ro","site_name":"","pub_date":"27\/03\/2020","street":"","tel":"","id":"62","facility_type":"","list_specs":"","lat":45.268816,"email":"","hospital_name":"Spitalul de Pneumoftiziologie Braila Consiliul Judetean Braila"},"id":"10281"},{"type":"Feature","geometry":{"type":"Point","coordinates":[26.1574,44.4632]},"properties":{"cc":"RO","country":"Romania","public_private":"","city":"","cap_beds":643,"postcode":"","emergency":"","ref_date":"","lon":26.157417,"house_number":"","url":"www.iob.ro","site_name":"","pub_date":"27\/03\/2020","street":"","tel":"","id":"340","facility_type":"","list_specs":"","lat":44.463191,"email":"","hospital_name":"Institutul Oncologic prof. dr. Al. Trestioreanu"},"id":"10282"},{"type":"Feature","geometry":{"type":"Point","coordinates":[25.7564,44.4458]},"properties":{"cc":"RO","country":"Romania","public_private":"","city":"","cap_beds":168,"postcode":"","emergency":"","ref_date":"","lon":25.756416,"house_number":"","url":"www.spitalulbolintin.ro","site_name":"","pub_date":"27\/03\/2020","street":"","tel":"","id":"121","facility_type":"","list_specs":"","lat":44.445791,"email":"","hospital_name":"Spitalul Orasenesc Bolintin-Vale Consiliul Local Bolintin-Vale"},"id":"10283"},{"type":"Feature","geometry":{"type":"Point","coordinates":[23.9896,45.1356]},"properties":{"cc":"RO","country":"Romania","public_private":"","city":"","cap_beds":160,"postcode":"","emergency":"","ref_date":"","lon":23.989554,"house_number":"","url":"http:\/\/www.spitalulhorezu.ro\/","site_name":"","pub_date":"27\/03\/2020","street":"","tel":"","id":"252","facility_type":"","list_specs":"","lat":45.135555,"email":"","hospital_name":"Spitalul Orasenesc Horezu Consiliul Local Horezu"},"id":"10284"},{"type":"Feature","geometry":{"type":"Point","coordinates":[27.5816,47.1692]},"properties":{"cc":"RO","country":"Romania","public_private":"","city":"","cap_beds":1153,"postcode":"","emergency":"","ref_date":"","lon":27.581558,"house_number":"","url":"www.spitalspiridon.ro","site_name":"","pub_date":"27\/03\/2020","street":"","tel":"","id":"320","facility_type":"","list_specs":"","lat":47.169232,"email":"","hospital_name":"Spitalul Clinic Judetean de Urgenta Sf. Spiridon Iasi"},"id":"10285"},{"type":"Feature","geometry":{"type":"Point","coordinates":[26.7453,45.2385]},"properties":{"cc":"RO","country":"Romania","public_private":"","city":"","cap_beds":830,"postcode":"","emergency":"","ref_date":"","lon":26.745272,"house_number":"","url":"www.hsapoca.ro","site_name":"","pub_date":"27\/03\/2020","street":"","tel":"","id":"305","facility_type":"","list_specs":"","lat":45.238454,"email":"","hospital_name":"Spitalul de Psihiatrie si pentru Masuri de Siguranta Sapoca"},"id":"10286"},{"type":"Feature","geometry":{"type":"Point","coordinates":[26.1232,44.4625]},"properties":{"cc":"RO","country":"Romania","public_private":"","city":"","cap_beds":544,"postcode":"","emergency":"","ref_date":"","lon":26.123171,"house_number":"","url":"www.iomc.ro","site_name":"","pub_date":"27\/03\/2020","street":"","tel":"","id":"342","facility_type":"","list_specs":"","lat":44.462486,"email":"","hospital_name":"Institutul pentru Ocrotirea Mamei si Copilului prof. Dr. A. Rusescu"},"id":"10287"},{"type":"Feature","geometry":{"type":"Point","coordinates":[22.4656,47.6808]},"properties":{"cc":"RO","country":"Romania","public_private":"","city":"","cap_beds":230,"postcode":"","emergency":"","ref_date":"","lon":22.46556,"house_number":"","url":"www.spitalcarei.ro","site_name":"","pub_date":"27\/03\/2020","street":"","tel":"","id":"205","facility_type":"","list_specs":"","lat":47.680754,"email":"","hospital_name":"Spitalul Municipal Carei Consiliul Local Carei"},"id":"10288"},{"type":"Feature","geometry":{"type":"Point","coordinates":[24.3567,46.163]},"properties":{"cc":"RO","country":"Romania","public_private":"","city":"","cap_beds":365,"postcode":"","emergency":"","ref_date":"","lon":24.356738,"house_number":"","url":"http:\/\/spitalulmedias.ro","site_name":"","pub_date":"27\/03\/2020","street":"","tel":"","id":"216","facility_type":"","list_specs":"","lat":46.163006,"email":"","hospital_name":"Spitalul Municipal Medias Consiliul Local Medias"},"id":"10289"},{"type":"Feature","geometry":{"type":"Point","coordinates":[24.2458,45.3422]},"properties":{"cc":"RO","country":"Romania","public_private":"","city":"","cap_beds":67,"postcode":"","emergency":"","ref_date":"","lon":24.245823,"house_number":"","url":"spitalulbrezoi.ro","site_name":"","pub_date":"27\/03\/2020","street":"","tel":"","id":"251","facility_type":"","list_specs":"","lat":45.342237,"email":"","hospital_name":"Spitalul Orasenesc Brezoi Consiliul Local Brezoi"},"id":"10290"},{"type":"Feature","geometry":{"type":"Point","coordinates":[23.5135,44.9625]},"properties":{"cc":"RO","country":"Romania","public_private":"","city":"","cap_beds":343,"postcode":"","emergency":"","ref_date":"","lon":23.5134908,"house_number":"","url":"www.spitalcarbunesti.ro","site_name":"","pub_date":"27\/03\/2020","street":"","tel":"","id":"127","facility_type":"","list_specs":"","lat":44.9625323,"email":"","hospital_name":"Spitalul Orasenesc Targu Carbunesti Consiliul Local Targu Carbunesti"},"id":"10291"},{"type":"Feature","geometry":{"type":"Point","coordinates":[25.4351,45.0723]},"properties":{"cc":"RO","country":"Romania","public_private":"","city":"","cap_beds":270,"postcode":"","emergency":"","ref_date":"","lon":25.435066,"house_number":"","url":"www.spitalpucioasa.ro","site_name":"","pub_date":"27\/03\/2020","street":"","tel":"","id":"102","facility_type":"","list_specs":"","lat":45.072308,"email":"","hospital_name":"Spitalul Orasenesc Pucioasa Consiliul Local Pucioasa"},"id":"10292"},{"type":"Feature","geometry":{"type":"Point","coordinates":[24.6233,44.7801]},"properties":{"cc":"RO","country":"Romania","public_private":"","city":"","cap_beds":206,"postcode":"","emergency":"","ref_date":"","lon":24.62328,"house_number":"","url":"","site_name":"","pub_date":"27\/03\/2020","street":"","tel":"","id":"21","facility_type":"","list_specs":"","lat":44.780129,"email":"","hospital_name":"Spitalul de Psihiatrie Sf. Maria Vedea"},"id":"10293"},{"type":"Feature","geometry":{"type":"Point","coordinates":[27.3601,44.5554]},"properties":{"cc":"RO","country":"Romania","public_private":"","city":"","cap_beds":527,"postcode":"","emergency":"","ref_date":"","lon":27.36014,"house_number":"","url":"www.spitalslobozia.ro","site_name":"","pub_date":"27\/03\/2020","street":"","tel":"","id":"145","facility_type":"","list_specs":"","lat":44.55536,"email":"","hospital_name":"Spitalul Judetean de Urgenta Slobozia Consiliul Judetean Ialomita"},"id":"10294"},{"type":"Feature","geometry":{"type":"Point","coordinates":[21.2592,45.7687]},"properties":{"cc":"RO","country":"Romania","public_private":"","city":"","cap_beds":295,"postcode":"","emergency":"","ref_date":"","lon":21.259199,"house_number":"","url":"www.spitalul-vbabes-tm.ro","site_name":"","pub_date":"27\/03\/2020","street":"","tel":"","id":"237","facility_type":"","list_specs":"","lat":45.768661,"email":"","hospital_name":"Spitalul Clinic de Boli Infectioase V. Babeș Timisoara Consiliul Local Timisoara"},"id":"10295"},{"type":"Feature","geometry":{"type":"Point","coordinates":[24.3679,44.4322]},"properties":{"cc":"RO","country":"Romania","public_private":"","city":"","cap_beds":1153,"postcode":"","emergency":"","ref_date":"","lon":24.367933,"house_number":"","url":"www.spjslatina.ro","site_name":"","pub_date":"27\/03\/2020","street":"","tel":"","id":"184","facility_type":"","list_specs":"","lat":44.432156,"email":"","hospital_name":"Spitalul Judetean de Urgenta Slatina Consiliul Judetean Olt"},"id":"10296"},{"type":"Feature","geometry":{"type":"Point","coordinates":[25.0386,45.2649]},"properties":{"cc":"RO","country":"Romania","public_private":"","city":"","cap_beds":441,"postcode":"","emergency":"","ref_date":"","lon":25.038598,"house_number":"","url":"www.smcm.ro","site_name":"","pub_date":"27\/03\/2020","street":"","tel":"","id":"17","facility_type":"","list_specs":"","lat":45.264942,"email":"","hospital_name":"Spitalul Municipal Campulung Consiliul Local Campulung"},"id":"10297"},{"type":"Feature","geometry":{"type":"Point","coordinates":[26.1541,44.4651]},"properties":{"cc":"RO","country":"Romania","public_private":"","city":"","cap_beds":325,"postcode":"","emergency":"","ref_date":"","lon":26.154145,"house_number":"","url":"www.cardioiliescu.ro","site_name":"","pub_date":"27\/03\/2020","street":"","tel":"","id":"341","facility_type":"","list_specs":"","lat":44.46514,"email":"","hospital_name":"Institutul de Urgenta pentru Boli Cardiovasculare prof. dr. C.C. Iliescu"},"id":"10298"},{"type":"Feature","geometry":{"type":"Point","coordinates":[27.9121,45.8698]},"properties":{"cc":"RO","country":"Romania","public_private":"","city":"","cap_beds":60,"postcode":"","emergency":"","ref_date":"","lon":27.912129,"house_number":"","url":"www.spitaltgbujor.ro","site_name":"","pub_date":"27\/03\/2020","street":"","tel":"","id":"115","facility_type":"","list_specs":"","lat":45.869797,"email":"","hospital_name":"Spitalul Orasenesc Targu Bujor Consiliul Local Targu Bujor"},"id":"10299"},{"type":"Feature","geometry":{"type":"Point","coordinates":[24.1867,47.1833]},"properties":{"cc":"RO","country":"Romania","public_private":"","city":"","cap_beds":226,"postcode":"","emergency":"","ref_date":"","lon":24.1866838,"house_number":"","url":"spitalbeclean.ro","site_name":"","pub_date":"27\/03\/2020","street":"","tel":"","id":"43","facility_type":"","list_specs":"","lat":47.1832834,"email":"","hospital_name":"Spitalul Orasenesc Beclean Consiliul Local Beclean"},"id":"10300"},{"type":"Feature","geometry":{"type":"Point","coordinates":[26.2098,45.8454]},"properties":{"cc":"RO","country":"Romania","public_private":"","city":"","cap_beds":891,"postcode":"","emergency":"","ref_date":"","lon":26.209785,"house_number":"","url":"www.cardiologie-covasna.ro","site_name":"","pub_date":"27\/03\/2020","street":"","tel":"","id":"314","facility_type":"","list_specs":"","lat":45.845386,"email":"","hospital_name":"Spitalul de Cardiologie Covasna Dr. B. Geza"},"id":"10301"},{"type":"Feature","geometry":{"type":"Point","coordinates":[21.2001,45.5652]},"properties":{"cc":"RO","country":"Romania","public_private":"","city":"","cap_beds":430,"postcode":"","emergency":"","ref_date":"","lon":21.200126,"house_number":"","url":"www.spitaljebel.ro","site_name":"","pub_date":"27\/03\/2020","street":"","tel":"","id":"330","facility_type":"","list_specs":"","lat":45.565168,"email":"","hospital_name":"Spitalul de Psihiatrie si pentru Masuri de Siguranta Jebel"},"id":"10302"},{"type":"Feature","geometry":{"type":"Point","coordinates":[22.3678,45.5256]},"properties":{"cc":"RO","country":"Romania","public_private":"","city":"","cap_beds":108,"postcode":"","emergency":"","ref_date":"","lon":22.367823,"house_number":"","url":"spiorcs@gmail.com","site_name":"","pub_date":"27\/03\/2020","street":"","tel":"","id":"70","facility_type":"","list_specs":"","lat":45.525582,"email":"","hospital_name":"Spitalul Orasenesc Otelu Rosu Consiliul Local Otelu Rosu"},"id":"10303"},{"type":"Feature","geometry":{"type":"Point","coordinates":[26.1079,44.3898]},"properties":{"cc":"RO","country":"Romania","public_private":"","city":"","cap_beds":114,"postcode":"","emergency":"","ref_date":"","lon":26.107904,"house_number":"","url":"WWW.RECUPERARECOPII.RO","site_name":"","pub_date":"27\/03\/2020","street":"","tel":"","id":"355","facility_type":"","list_specs":"","lat":44.389839,"email":"","hospital_name":"Centrul Medical Clinic de Recuperare Neuropsihomotorie Copii Dr. N. Robănescu"},"id":"10304"},{"type":"Feature","geometry":{"type":"Point","coordinates":[24.3629,45.1186]},"properties":{"cc":"RO","country":"Romania","public_private":"","city":"","cap_beds":1353,"postcode":"","emergency":"","ref_date":"","lon":24.362891,"house_number":"","url":"","site_name":"","pub_date":"27\/03\/2020","street":"","tel":"","id":"249","facility_type":"","list_specs":"","lat":45.118599,"email":"","hospital_name":"Spitalul Judetean de Urgenta Ramnicu Valcea"},"id":"10305"},{"type":"Feature","geometry":{"type":"Point","coordinates":[27.5681,47.1804]},"properties":{"cc":"RO","country":"Romania","public_private":"","city":"","cap_beds":206,"postcode":"","emergency":"","ref_date":"","lon":27.56812,"house_number":"","url":"www.spitalulparhoniasi.ro","site_name":"","pub_date":"27\/03\/2020","street":"","tel":"","id":"154","facility_type":"","list_specs":"","lat":47.180416,"email":"","hospital_name":"Spitalul Clinic Dr. C.I. Parhon Iasi Consiliul Local Iasi"},"id":"10306"},{"type":"Feature","geometry":{"type":"Point","coordinates":[24.5112,43.7729]},"properties":{"cc":"RO","country":"Romania","public_private":"","city":"","cap_beds":123,"postcode":"","emergency":"","ref_date":"","lon":24.511239,"house_number":"","url":"www.spitalcorabia.ro","site_name":"","pub_date":"27\/03\/2020","street":"","tel":"","id":"187","facility_type":"","list_specs":"","lat":43.772851,"email":"","hospital_name":"Spitalul Orasenesc Corabia Consiliul Local Corabia"},"id":"10307"},{"type":"Feature","geometry":{"type":"Point","coordinates":[25.5738,45.643]},"properties":{"cc":"RO","country":"Romania","public_private":"","city":"","cap_beds":160,"postcode":"","emergency":"","ref_date":"","lon":25.5738145,"house_number":"","url":"pneumologie.ro","site_name":"","pub_date":"27\/03\/2020","street":"","tel":"","id":"59","facility_type":"","list_specs":"","lat":45.6429901,"email":"","hospital_name":"Spitalul de Pneumoftiziologie Brasov Consiliul Judetean Brasov"},"id":"10308"},{"type":"Feature","geometry":{"type":"Point","coordinates":[27.6061,47.1611]},"properties":{"cc":"RO","country":"Romania","public_private":"","city":"","cap_beds":321,"postcode":"","emergency":"","ref_date":"","lon":27.606068,"house_number":"","url":"www.neuroiasi.ro","site_name":"","pub_date":"27\/03\/2020","street":"","tel":"","id":"148","facility_type":"","list_specs":"","lat":47.161058,"email":"","hospital_name":"Spitalul Clinic de Urgenta Iasi N. Oblu"},"id":"10309"},{"type":"Feature","geometry":{"type":"Point","coordinates":[22.1711,45.8448]},"properties":{"cc":"RO","country":"Romania","public_private":"","city":"","cap_beds":115,"postcode":"","emergency":"","ref_date":"","lon":22.171118,"house_number":"","url":"","site_name":"","pub_date":"27\/03\/2020","street":"","tel":"","id":"240","facility_type":"","list_specs":"","lat":45.844833,"email":"","hospital_name":"Spitalul Orasenesc Faget"},"id":"10310"},{"type":"Feature","geometry":{"type":"Point","coordinates":[25.0492,44.8045]},"properties":{"cc":"RO","country":"Romania","public_private":"","city":"","cap_beds":40,"postcode":"","emergency":"","ref_date":"","lon":25.049171,"house_number":"","url":"www.spitaluldebolicronicecalinesti.com","site_name":"","pub_date":"27\/03\/2020","street":"","tel":"","id":"374","facility_type":"","list_specs":"","lat":44.804494,"email":"","hospital_name":"Spitalul de Boli Cronice Calinesti"},"id":"10311"},{"type":"Feature","geometry":{"type":"Point","coordinates":[24.9879,44.1083]},"properties":{"cc":"RO","country":"Romania","public_private":"","city":"","cap_beds":298,"postcode":"","emergency":"","ref_date":"","lon":24.987888,"house_number":"","url":"www.spitalulcaritasrosiori.ro","site_name":"","pub_date":"27\/03\/2020","street":"","tel":"","id":"230","facility_type":"","list_specs":"","lat":44.108296,"email":"","hospital_name":"Spitalul Municipal Caritas Rosiori de Vede Consiliul Local Rosiori de Vede"},"id":"10312"},{"type":"Feature","geometry":{"type":"Point","coordinates":[24.1432,45.7952]},"properties":{"cc":"RO","country":"Romania","public_private":"","city":"","cap_beds":170,"postcode":"","emergency":"","ref_date":"","lon":24.143229,"house_number":"","url":"www.spital-tbc.ro","site_name":"","pub_date":"27\/03\/2020","street":"","tel":"","id":"219","facility_type":"","list_specs":"","lat":45.795215,"email":"","hospital_name":"Spitalul de Pneumoftiziologie Sibiu Consiliul Judetean Sibiu"},"id":"10313"},{"type":"Feature","geometry":{"type":"Point","coordinates":[25.6745,44.3447]},"properties":{"cc":"RO","country":"Romania","public_private":"","city":"","cap_beds":524,"postcode":"","emergency":"","ref_date":"","lon":25.674534,"house_number":"","url":"http:\/\/www.spitalul-jud-giurgiu.ro","site_name":"","pub_date":"27\/03\/2020","street":"","tel":"","id":"120","facility_type":"","list_specs":"","lat":44.344722,"email":"","hospital_name":"Spitalul Judetean de Urgenta Giurgiu Consiliul Judetean Giurgiu"},"id":"10314"},{"type":"Feature","geometry":{"type":"Point","coordinates":[25.3648,43.6508]},"properties":{"cc":"RO","country":"Romania","public_private":"","city":"","cap_beds":124,"postcode":"","emergency":"","ref_date":"","lon":25.364814,"house_number":"","url":"www.spitalulorasenesczimnicea.ro","site_name":"","pub_date":"27\/03\/2020","street":"","tel":"","id":"232","facility_type":"","list_specs":"","lat":43.650827,"email":"","hospital_name":"Spitalul Orasenesc Zimnicea Consiliul Local Zimnicea"},"id":"10315"},{"type":"Feature","geometry":{"type":"Point","coordinates":[25.7613,46.9607]},"properties":{"cc":"RO","country":"Romania","public_private":"","city":"","cap_beds":328,"postcode":"","emergency":"","ref_date":"","lon":25.761309,"house_number":"","url":"www.psihiatrietulghes.ro","site_name":"","pub_date":"27\/03\/2020","street":"","tel":"","id":"134","facility_type":"","list_specs":"","lat":46.960716,"email":"","hospital_name":"Spitalul de Psihiatrie Tulghes Consiliul Judetean Harghita"},"id":"10316"},{"type":"Feature","geometry":{"type":"Point","coordinates":[27.6079,47.1593]},"properties":{"cc":"RO","country":"Romania","public_private":"","city":"","cap_beds":625,"postcode":"","emergency":"","ref_date":"","lon":27.607913,"house_number":"","url":"www.sfmaria-iasi.ro","site_name":"","pub_date":"27\/03\/2020","street":"","tel":"","id":"149","facility_type":"","list_specs":"","lat":47.159344,"email":"","hospital_name":"Spitalul Clinic de Urgenta pentru Copii SF MARIA Iasi Consiliul Judetean Iasi"},"id":"10317"},{"type":"Feature","geometry":{"type":"Point","coordinates":[23.5547,47.6549]},"properties":{"cc":"RO","country":"Romania","public_private":"","city":"","cap_beds":920,"postcode":"","emergency":"","ref_date":"","lon":23.554671,"house_number":"","url":"","site_name":"","pub_date":"27\/03\/2020","street":"","tel":"","id":"162","facility_type":"","list_specs":"","lat":47.654927,"email":"","hospital_name":"Spitalul Judetean de Urgenta C. Opriș Baia Mare"},"id":"10318"},{"type":"Feature","geometry":{"type":"Point","coordinates":[28.6379,44.1711]},"properties":{"cc":"RO","country":"Romania","public_private":"","city":"","cap_beds":235,"postcode":"","emergency":"","ref_date":"","lon":28.637892,"house_number":"","url":"www.infectioaseconstanta.ro","site_name":"","pub_date":"27\/03\/2020","street":"","tel":"","id":"91","facility_type":"","list_specs":"","lat":44.171124,"email":"","hospital_name":"Spitalul Clinic de Boli Infectioase Constanta Consiliul Local Constanta"},"id":"10319"},{"type":"Feature","geometry":{"type":"Point","coordinates":[23.218,45.3552]},"properties":{"cc":"RO","country":"Romania","public_private":"","city":"","cap_beds":195,"postcode":"","emergency":"","ref_date":"","lon":23.2179614,"house_number":"","url":"www.spital-lupeni.ro","site_name":"","pub_date":"27\/03\/2020","street":"","tel":"","id":"138","facility_type":"","list_specs":"","lat":45.3552346,"email":"","hospital_name":"Spitalul Municipal Lupeni Consiliul Local Lupeni"},"id":"10320"},{"type":"Feature","geometry":{"type":"Point","coordinates":[27.3309,44.198]},"properties":{"cc":"RO","country":"Romania","public_private":"","city":"","cap_beds":102,"postcode":"","emergency":"","ref_date":"","lon":27.330894,"house_number":"","url":"tbc-calarasi.ro","site_name":"","pub_date":"27\/03\/2020","street":"","tel":"","id":"76","facility_type":"","list_specs":"","lat":44.197959,"email":"","hospital_name":"Spitalul de Pneumoftiziologie Calarasi Consiliul Judetean Calarasi"},"id":"10321"},{"type":"Feature","geometry":{"type":"Point","coordinates":[27.6722,46.2371]},"properties":{"cc":"RO","country":"Romania","public_private":"","city":"","cap_beds":811,"postcode":"","emergency":"","ref_date":"","lon":27.672238,"house_number":"","url":"www.spital-barlad.ro","site_name":"","pub_date":"27\/03\/2020","street":"","tel":"","id":"247","facility_type":"","list_specs":"","lat":46.23709,"email":"","hospital_name":"Spitalul Municipal de Urgenta E. Beldiman Barlad Consiliul Local Barlad"},"id":"10322"},{"type":"Feature","geometry":{"type":"Point","coordinates":[22.4588,46.5352]},"properties":{"cc":"RO","country":"Romania","public_private":"","city":"","cap_beds":52,"postcode":"","emergency":"","ref_date":"","lon":22.458769,"house_number":"","url":"hpsihiatriestei.ro","site_name":"","pub_date":"27\/03\/2020","street":"","tel":"","id":"373","facility_type":"","list_specs":"","lat":46.535241,"email":"","hospital_name":"Spitalul Orasenesc Stei"},"id":"10323"},{"type":"Feature","geometry":{"type":"Point","coordinates":[28.0245,45.4311]},"properties":{"cc":"RO","country":"Romania","public_private":"","city":"","cap_beds":300,"postcode":"","emergency":"","ref_date":"","lon":28.024524,"house_number":"","url":"www.spcopgalati.ro","site_name":"","pub_date":"27\/03\/2020","street":"","tel":"","id":"113","facility_type":"","list_specs":"","lat":45.431061,"email":"","hospital_name":"Spitalul Clinic de Urgenta pentru Copii Sf. Ioan Galati Consiliul Local Galati"},"id":"10324"},{"type":"Feature","geometry":{"type":"Point","coordinates":[20.6337,46.1158]},"properties":{"cc":"RO","country":"Romania","public_private":"","city":"","cap_beds":135,"postcode":"","emergency":"","ref_date":"","lon":20.633698,"house_number":"","url":"www.spitalorasanescsannicolaumare.ro","site_name":"","pub_date":"27\/03\/2020","street":"","tel":"","id":"241","facility_type":"","list_specs":"","lat":46.115848,"email":"","hospital_name":"Spitalul Orasenesc Sannicolau Mare Consiliul Local Sannicolau Mare"},"id":"10325"},{"type":"Feature","geometry":{"type":"Point","coordinates":[28.0457,45.4562]},"properties":{"cc":"RO","country":"Romania","public_private":"","city":"","cap_beds":305,"postcode":"","emergency":"","ref_date":"","lon":28.045725,"house_number":"","url":"w.w.w. spitalpneumoftiziologiegalati.ro","site_name":"","pub_date":"27\/03\/2020","street":"","tel":"","id":"116","facility_type":"","list_specs":"","lat":45.456165,"email":"","hospital_name":"Spitalul de Pneumoftiziologie Galati Consiliul Judetean Galati"},"id":"10326"},{"type":"Feature","geometry":{"type":"Point","coordinates":[28.0444,44.3414]},"properties":{"cc":"RO","country":"Romania","public_private":"","city":"","cap_beds":60,"postcode":"","emergency":"","ref_date":"","lon":28.0444,"house_number":"","url":"","site_name":"","pub_date":"27\/03\/2020","street":"","tel":"","id":"94","facility_type":"","list_specs":"","lat":44.341441,"email":"","hospital_name":"Spitalul Orasenesc Cernavoda"},"id":"10327"},{"type":"Feature","geometry":{"type":"Point","coordinates":[26.6365,47.7531]},"properties":{"cc":"RO","country":"Romania","public_private":"","city":"","cap_beds":220,"postcode":"","emergency":"","ref_date":"","lon":26.636465,"house_number":"","url":"www.spitalbt-sfgheorghe.ro","site_name":"","pub_date":"27\/03\/2020","street":"","tel":"","id":"47","facility_type":"","list_specs":"","lat":47.753106,"email":"","hospital_name":"Spitalul de Recuperare Sf. Gheorghe Botosani Consiliul Local Botosani"},"id":"10328"},{"type":"Feature","geometry":{"type":"Point","coordinates":[26.0208,44.9313]},"properties":{"cc":"RO","country":"Romania","public_private":"","city":"","cap_beds":267,"postcode":"","emergency":"","ref_date":"","lon":26.020839,"house_number":"","url":"","site_name":"","pub_date":"27\/03\/2020","street":"","tel":"","id":"190","facility_type":"","list_specs":"","lat":44.931342,"email":"","hospital_name":"Spitalul Municipal Ploiesti"},"id":"10329"},{"type":"Feature","geometry":{"type":"Point","coordinates":[23.877,47.9273]},"properties":{"cc":"RO","country":"Romania","public_private":"","city":"","cap_beds":708,"postcode":"","emergency":"","ref_date":"","lon":23.8770063,"house_number":"","url":"","site_name":"","pub_date":"27\/03\/2020","street":"","tel":"","id":"163","facility_type":"","list_specs":"","lat":47.9273182,"email":"","hospital_name":"Spitalul Municipal Sighetu Marmatiei"},"id":"10330"},{"type":"Feature","geometry":{"type":"Point","coordinates":[22.4655,46.5474]},"properties":{"cc":"RO","country":"Romania","public_private":"","city":"","cap_beds":235,"postcode":"","emergency":"","ref_date":"","lon":22.465528,"house_number":"","url":"hpsihiatriestei.ro","site_name":"","pub_date":"27\/03\/2020","street":"","tel":"","id":"303","facility_type":"","list_specs":"","lat":46.547413,"email":"","hospital_name":"Spitalul de Psihiatrie si pentru Masuri de Siguranta Stei"},"id":"10331"},{"type":"Feature","geometry":{"type":"Point","coordinates":[26.1404,44.4265]},"properties":{"cc":"RO","country":"Romania","public_private":"","city":"","cap_beds":490,"postcode":"","emergency":"","ref_date":"","lon":26.140423,"house_number":"","url":"http:\/\/www.spitalulbabes.ro","site_name":"","pub_date":"27\/03\/2020","street":"","tel":"","id":"267","facility_type":"","list_specs":"","lat":44.426455,"email":"","hospital_name":"Spitalul Clinic de Boli Infectioase Victor Babes Primaria Municipiului Bucuresti"},"id":"10332"},{"type":"Feature","geometry":{"type":"Point","coordinates":[22.8376,44.9923]},"properties":{"cc":"RO","country":"Romania","public_private":"","city":"","cap_beds":80,"postcode":"","emergency":"","ref_date":"","lon":22.83764,"house_number":"","url":"","site_name":"","pub_date":"27\/03\/2020","street":"","tel":"","id":"171","facility_type":"","list_specs":"","lat":44.9923,"email":"","hospital_name":"Spitalul Orasenesc Baia de Arama"},"id":"10333"},{"type":"Feature","geometry":{"type":"Point","coordinates":[25.9263,47.8378]},"properties":{"cc":"RO","country":"Romania","public_private":"","city":"","cap_beds":460,"postcode":"","emergency":"","ref_date":"","lon":25.926329,"house_number":"","url":"www.spitalul-radauti.ro\n","site_name":"","pub_date":"27\/03\/2020","street":"","tel":"","id":"223","facility_type":"","list_specs":"","lat":47.837772,"email":"","hospital_name":"Spitalul Municipal Radauti Consiliul Local Radauti"},"id":"10334"},{"type":"Feature","geometry":{"type":"Point","coordinates":[27.1931,45.7045]},"properties":{"cc":"RO","country":"Romania","public_private":"","city":"","cap_beds":728,"postcode":"","emergency":"","ref_date":"","lon":27.193142,"house_number":"","url":"www.spitalvn.ro","site_name":"","pub_date":"27\/03\/2020","street":"","tel":"","id":"331","facility_type":"","list_specs":"","lat":45.704478,"email":"","hospital_name":"Spitalul Judetean de Urgenta Sf. Pantelimon Focsani"},"id":"10335"},{"type":"Feature","geometry":{"type":"Point","coordinates":[26.4039,47.9458]},"properties":{"cc":"RO","country":"Romania","public_private":"","city":"","cap_beds":368,"postcode":"","emergency":"","ref_date":"","lon":26.403859,"house_number":"","url":"www.spitaldorohoi.ro","site_name":"","pub_date":"27\/03\/2020","street":"","tel":"","id":"46","facility_type":"","list_specs":"","lat":47.945826,"email":"","hospital_name":"Spitalul Municipal Dorohoi Consiliul Local Dorohoi"},"id":"10336"},{"type":"Feature","geometry":{"type":"Point","coordinates":[27.9411,45.2526]},"properties":{"cc":"RO","country":"Romania","public_private":"","city":"","cap_beds":1215,"postcode":"","emergency":"","ref_date":"","lon":27.941129,"house_number":"","url":"www.spitalbraila.ro","site_name":"","pub_date":"27\/03\/2020","street":"","tel":"","id":"60","facility_type":"","list_specs":"","lat":45.252576,"email":"","hospital_name":"Spitalul de Urgenta Judetean Braila Consiliul Judetean Braila"},"id":"10337"},{"type":"Feature","geometry":{"type":"Point","coordinates":[25.4512,44.9223]},"properties":{"cc":"RO","country":"Romania","public_private":"","city":"","cap_beds":1767,"postcode":"","emergency":"","ref_date":"","lon":25.451213,"house_number":"","url":"","site_name":"","pub_date":"27\/03\/2020","street":"","tel":"","id":"99","facility_type":"","list_specs":"","lat":44.922333,"email":"","hospital_name":"Spitalul Judetean de Urgenta Targoviste"},"id":"10338"},{"type":"Feature","geometry":{"type":"Point","coordinates":[26.6338,44.0801]},"properties":{"cc":"RO","country":"Romania","public_private":"","city":"","cap_beds":210,"postcode":"","emergency":"","ref_date":"","lon":26.633791,"house_number":"","url":"","site_name":"","pub_date":"27\/03\/2020","street":"","tel":"","id":"74","facility_type":"","list_specs":"","lat":44.080133,"email":"","hospital_name":"Spitalul Municipal Oltenita Consiliul Local Oltenita"},"id":"10339"},{"type":"Feature","geometry":{"type":"Point","coordinates":[21.9175,47.075]},"properties":{"cc":"RO","country":"Romania","public_private":"","city":"","cap_beds":1061,"postcode":"","emergency":"","ref_date":"","lon":21.917467,"house_number":"","url":"www.scmo.ro","site_name":"","pub_date":"27\/03\/2020","street":"","tel":"","id":"40","facility_type":"","list_specs":"","lat":47.074966,"email":"","hospital_name":"Spitalul Clinic Municipal Dr. G. Curteanu Oradea Consiliul Local Oradea"},"id":"10340"},{"type":"Feature","geometry":{"type":"Point","coordinates":[25.4445,45.6956]},"properties":{"cc":"RO","country":"Romania","public_private":"","city":"","cap_beds":85,"postcode":"","emergency":"","ref_date":"","lon":25.444508,"house_number":"","url":"","site_name":"","pub_date":"27\/03\/2020","street":"","tel":"","id":"54","facility_type":"","list_specs":"","lat":45.695629,"email":"","hospital_name":"Spitalul Municipal Codlea"},"id":"10341"},{"type":"Feature","geometry":{"type":"Point","coordinates":[23.3701,44.6812]},"properties":{"cc":"RO","country":"Romania","public_private":"","city":"","cap_beds":183,"postcode":"","emergency":"","ref_date":"","lon":23.370055,"house_number":"","url":"www.spitalturceni.ro","site_name":"","pub_date":"27\/03\/2020","street":"","tel":"","id":"128","facility_type":"","list_specs":"","lat":44.681226,"email":"","hospital_name":"Spitalul Orasenesc Turceni Consiliul Local Turceni"},"id":"10342"},{"type":"Feature","geometry":{"type":"Point","coordinates":[28.1332,45.2343]},"properties":{"cc":"RO","country":"Romania","public_private":"","city":"","cap_beds":75,"postcode":"","emergency":"","ref_date":"","lon":28.13324,"house_number":"","url":"www.spitalulmacin.ro","site_name":"","pub_date":"27\/03\/2020","street":"","tel":"","id":"244","facility_type":"","list_specs":"","lat":45.234283,"email":"","hospital_name":"Spitalul Orasenesc Macin Consiliul Local Macin"},"id":"10343"},{"type":"Feature","geometry":{"type":"Point","coordinates":[25.994,44.9631]},"properties":{"cc":"RO","country":"Romania","public_private":"","city":"","cap_beds":130,"postcode":"","emergency":"","ref_date":"","lon":25.993996,"house_number":"","url":"spitalulorasenescbaicoi.ro","site_name":"","pub_date":"27\/03\/2020","street":"","tel":"","id":"193","facility_type":"","list_specs":"","lat":44.963098,"email":"","hospital_name":"Spitalul Orasenesc Baicoi Consiliul Local Baicoi"},"id":"10344"},{"type":"Feature","geometry":{"type":"Point","coordinates":[26.1421,44.4331]},"properties":{"cc":"RO","country":"Romania","public_private":"","city":"","cap_beds":157,"postcode":"","emergency":"","ref_date":"","lon":26.142064,"house_number":"","url":"","site_name":"","pub_date":"27\/03\/2020","street":"","tel":"","id":"266","facility_type":"","list_specs":"","lat":44.43309,"email":"","hospital_name":"Spitalul Clinic de Copii V. Gomoiu Primaria Municipiului Bucuresti"},"id":"10345"},{"type":"Feature","geometry":{"type":"Point","coordinates":[28.0323,45.4216]},"properties":{"cc":"RO","country":"Romania","public_private":"","city":"","cap_beds":105,"postcode":"","emergency":"","ref_date":"","lon":28.03232,"house_number":"","url":"spitalog.galati@gmail.com","site_name":"","pub_date":"27\/03\/2020","street":"","tel":"","id":"118","facility_type":"","list_specs":"","lat":45.4216,"email":"","hospital_name":"Spitalul de Obstetrica-Ginecologie 'Bunavestire' Galati Consiliul Local Galati"},"id":"10346"},{"type":"Feature","geometry":{"type":"Point","coordinates":[27.9658,45.2611]},"properties":{"cc":"RO","country":"Romania","public_private":"","city":"","cap_beds":410,"postcode":"","emergency":"","ref_date":"","lon":27.965795,"house_number":"","url":"www.spitalpsihiatriebraila.ro","site_name":"","pub_date":"27\/03\/2020","street":"","tel":"","id":"63","facility_type":"","list_specs":"","lat":45.261083,"email":"","hospital_name":"Spitalul de Psihiatrie Sf. Pantelimon Braila Consiliul Local Braila"},"id":"10347"},{"type":"Feature","geometry":{"type":"Point","coordinates":[26.2384,46.9585]},"properties":{"cc":"RO","country":"Romania","public_private":"","city":"","cap_beds":311,"postcode":"","emergency":"","ref_date":"","lon":26.238377,"house_number":"","url":"www.spitalulbisericani.ro","site_name":"","pub_date":"27\/03\/2020","street":"","tel":"","id":"183","facility_type":"","list_specs":"","lat":46.958486,"email":"","hospital_name":"Spitalul de Pneumoftiziologie Bisericani Consiliul Local Alexandru cel Bun"},"id":"10348"},{"type":"Feature","geometry":{"type":"Point","coordinates":[24.9244,44.8659]},"properties":{"cc":"RO","country":"Romania","public_private":"","city":"","cap_beds":101,"postcode":"","emergency":"","ref_date":"","lon":24.924363,"house_number":"","url":"www.spitalulstefanesti.ro","site_name":"","pub_date":"27\/03\/2020","street":"","tel":"","id":"27","facility_type":"","list_specs":"","lat":44.865862,"email":"","hospital_name":"Spitalul de Geriatrie si Boli Cronice C.B. Stolnici Stefanesti Consiliul Judetean Arges"},"id":"10349"},{"type":"Feature","geometry":{"type":"Point","coordinates":[21.9831,46.9905]},"properties":{"cc":"RO","country":"Romania","public_private":"","city":"","cap_beds":260,"postcode":"","emergency":"","ref_date":"","lon":21.983138,"house_number":"","url":"www.spitalfelix.ro","site_name":"","pub_date":"27\/03\/2020","street":"","tel":"","id":"302","facility_type":"","list_specs":"","lat":46.990459,"email":"","hospital_name":"Spitalul Clinic de Recuperare Medicala Baile Felix"},"id":"10350"},{"type":"Feature","geometry":{"type":"Point","coordinates":[25.5976,45.6566]},"properties":{"cc":"RO","country":"Romania","public_private":"","city":"","cap_beds":107,"postcode":"","emergency":"","ref_date":"","lon":25.597581,"house_number":"","url":"www.sbibrasov.ro","site_name":"","pub_date":"27\/03\/2020","street":"","tel":"","id":"57","facility_type":"","list_specs":"","lat":45.656588,"email":"","hospital_name":"Spitalul de Boli Infectioase Brasov Consiliul Judetean Brasov"},"id":"10351"},{"type":"Feature","geometry":{"type":"Point","coordinates":[28.0397,45.4599]},"properties":{"cc":"RO","country":"Romania","public_private":"","city":"","cap_beds":235,"postcode":"","emergency":"","ref_date":"","lon":28.039663,"house_number":"","url":"elisabeta_doamna@yahoo.com","site_name":"","pub_date":"27\/03\/2020","street":"","tel":"","id":"119","facility_type":"","list_specs":"","lat":45.45989,"email":"","hospital_name":"Spitalul de Psihiatrie Elisabeta Doamna Galati Consiliul Local Galati"},"id":"10352"},{"type":"Feature","geometry":{"type":"Point","coordinates":[24.8748,44.6643]},"properties":{"cc":"RO","country":"Romania","public_private":"","city":"","cap_beds":140,"postcode":"","emergency":"","ref_date":"","lon":24.874812,"house_number":"","url":"http:\/\/www.spitalregelecarol.ro","site_name":"","pub_date":"27\/03\/2020","street":"","tel":"","id":"20","facility_type":"","list_specs":"","lat":44.664292,"email":"","hospital_name":"Spitalul Orasenesc Regele Carol I Costesti Consiliul Judetean Arges"},"id":"10353"},{"type":"Feature","geometry":{"type":"Point","coordinates":[23.165,45.9116]},"properties":{"cc":"RO","country":"Romania","public_private":"","city":"","cap_beds":230,"postcode":"","emergency":"","ref_date":"","lon":23.165043,"house_number":"","url":"www.sanatoriulgeoagiu.ro","site_name":"","pub_date":"27\/03\/2020","street":"","tel":"","id":"143","facility_type":"","list_specs":"","lat":45.911567,"email":"","hospital_name":"Sanatoriul de Pneumoftiziologie Geoagiu Consiliul Judetean Hunedoara"},"id":"10354"},{"type":"Feature","geometry":{"type":"Point","coordinates":[27.5843,47.1702]},"properties":{"cc":"RO","country":"Romania","public_private":"","city":"","cap_beds":300,"postcode":"","emergency":"","ref_date":"","lon":27.584267,"house_number":"","url":"www.gomi.ro","site_name":"","pub_date":"27\/03\/2020","street":"","tel":"","id":"151","facility_type":"","list_specs":"","lat":47.170224,"email":"","hospital_name":"Spitalul Clinic de Boli Infectioase 'Sf. Parascheva' Iasi Consiliul Judetean Iasi"},"id":"10355"},{"type":"Feature","geometry":{"type":"Point","coordinates":[26.1239,44.3873]},"properties":{"cc":"RO","country":"Romania","public_private":"","city":"","cap_beds":300,"postcode":"","emergency":"","ref_date":"","lon":26.123863,"house_number":"","url":"innbn-bucuresti.ro","site_name":"","pub_date":"27\/03\/2020","street":"","tel":"","id":"336","facility_type":"","list_specs":"","lat":44.387272,"email":"","hospital_name":"Institutul National de Neurologie si Boli Neurovasculare V. Voiculescu"},"id":"10356"},{"type":"Feature","geometry":{"type":"Point","coordinates":[23.2004,45.8491]},"properties":{"cc":"RO","country":"Romania","public_private":"","city":"","cap_beds":155,"postcode":"","emergency":"","ref_date":"","lon":23.200378,"house_number":"","url":"","site_name":"","pub_date":"27\/03\/2020","street":"","tel":"","id":"139","facility_type":"","list_specs":"","lat":45.84913,"email":"","hospital_name":"Spitalul Municipal Orastie"},"id":"10357"},{"type":"Feature","geometry":{"type":"Point","coordinates":[26.8779,47.4659]},"properties":{"cc":"RO","country":"Romania","public_private":"","city":"","cap_beds":150,"postcode":"","emergency":"","ref_date":"","lon":26.877859,"house_number":"","url":"http:\/\/www.dspiasi.ro\/index.php?loc=microsites&amp;act=pdeleni","site_name":"","pub_date":"27\/03\/2020","street":"","tel":"","id":"158","facility_type":"","list_specs":"","lat":47.465904,"email":"","hospital_name":"Preventoriul TBC pentru Copii Deleni Consiliul Local Deleni"},"id":"10358"},{"type":"Feature","geometry":{"type":"Point","coordinates":[25.8086,46.3484]},"properties":{"cc":"RO","country":"Romania","public_private":"","city":"","cap_beds":748,"postcode":"","emergency":"","ref_date":"","lon":25.808612,"house_number":"","url":"","site_name":"","pub_date":"27\/03\/2020","street":"","tel":"","id":"130","facility_type":"","list_specs":"","lat":46.348361,"email":"","hospital_name":"Spitalul Judetean de Urgenta Miercurea-Ciuc"},"id":"10359"},{"type":"Feature","geometry":{"type":"Point","coordinates":[26.0268,44.9319]},"properties":{"cc":"RO","country":"Romania","public_private":"","city":"","cap_beds":135,"postcode":"","emergency":"","ref_date":"","lon":26.026783,"house_number":"","url":"www.spitalpediatrie.ro","site_name":"","pub_date":"27\/03\/2020","street":"","tel":"","id":"196","facility_type":"","list_specs":"","lat":44.931874,"email":"","hospital_name":"Spitalul de Pediatrie Ploiesti Consiliul Judetean Prahova"},"id":"10360"},{"type":"Feature","geometry":{"type":"Point","coordinates":[26.8343,44.4957]},"properties":{"cc":"RO","country":"Romania","public_private":"","city":"","cap_beds":170,"postcode":"","emergency":"","ref_date":"","lon":26.834273,"house_number":"","url":"www.sp-sapunari.ro","site_name":"","pub_date":"27\/03\/2020","street":"","tel":"","id":"77","facility_type":"","list_specs":"","lat":44.495664,"email":"","hospital_name":"Spitalul de Psihiatrie Sapunari Consiliul Judetean Calarasi"},"id":"10361"},{"type":"Feature","geometry":{"type":"Point","coordinates":[22.35,46.6694]},"properties":{"cc":"RO","country":"Romania","public_private":"","city":"","cap_beds":225,"postcode":"","emergency":"","ref_date":"","lon":22.350032,"house_number":"","url":"http:\/\/www.spitalulbeius.ro\/","site_name":"","pub_date":"27\/03\/2020","street":"","tel":"","id":"35","facility_type":"","list_specs":"","lat":46.669362,"email":"","hospital_name":"Spitalul Municipal Episcop N. Popovici Beius Consiliul Local Beius"},"id":"10362"},{"type":"Feature","geometry":{"type":"Point","coordinates":[21.2568,45.768]},"properties":{"cc":"RO","country":"Romania","public_private":"","city":"","cap_beds":197,"postcode":"","emergency":"","ref_date":"","lon":21.256828,"house_number":"","url":"www.cardiologie.ro","site_name":"","pub_date":"27\/03\/2020","street":"","tel":"","id":"326","facility_type":"","list_specs":"","lat":45.768002,"email":"","hospital_name":"Institutul de Boli Cardiovasculare Timisoara"},"id":"10363"},{"type":"Feature","geometry":{"type":"Point","coordinates":[27.5978,47.1607]},"properties":{"cc":"RO","country":"Romania","public_private":"","city":"","cap_beds":128,"postcode":"","emergency":"","ref_date":"","lon":27.597785,"house_number":"","url":"www.spelenadoamna.ro","site_name":"","pub_date":"27\/03\/2020","street":"","tel":"","id":"152","facility_type":"","list_specs":"","lat":47.160715,"email":"","hospital_name":"Spitalul Clinic de Obstetrica-Ginecologie Iasi ELENA DOAMNA Consiliul Judetean Iasi"},"id":"10364"},{"type":"Feature","geometry":{"type":"Point","coordinates":[22.7906,46.1258]},"properties":{"cc":"RO","country":"Romania","public_private":"","city":"","cap_beds":145,"postcode":"","emergency":"","ref_date":"","lon":22.790644,"house_number":"","url":"web.clicknet.ro\/spitalbrad\/","site_name":"","pub_date":"27\/03\/2020","street":"","tel":"","id":"140","facility_type":"","list_specs":"","lat":46.125753,"email":"","hospital_name":"Spitalul Municipal Brad Consiliul Local Brad"},"id":"10365"},{"type":"Feature","geometry":{"type":"Point","coordinates":[21.3076,46.1832]},"properties":{"cc":"RO","country":"Romania","public_private":"","city":"","cap_beds":1322,"postcode":"","emergency":"","ref_date":"","lon":21.307576,"house_number":"","url":"","site_name":"","pub_date":"27\/03\/2020","street":"","tel":"","id":"10","facility_type":"","list_specs":"","lat":46.183203,"email":"","hospital_name":"Spitalul Clinic Judetean de Urgenta Arad"},"id":"10366"},{"type":"Feature","geometry":{"type":"Point","coordinates":[23.7387,46.3014]},"properties":{"cc":"RO","country":"Romania","public_private":"","city":"","cap_beds":225,"postcode":"","emergency":"","ref_date":"","lon":23.738708,"house_number":"","url":"http:\/\/www.spitalaiud.ro\/","site_name":"","pub_date":"27\/03\/2020","street":"","tel":"","id":"2","facility_type":"","list_specs":"","lat":46.301406,"email":"","hospital_name":"Spitalul Municipal Aiud Consiliul Local Aiud"},"id":"10367"},{"type":"Feature","geometry":{"type":"Point","coordinates":[25.6764,45.1794]},"properties":{"cc":"RO","country":"Romania","public_private":"","city":"","cap_beds":75,"postcode":"","emergency":"","ref_date":"","lon":25.676449,"house_number":"","url":"www.spital-breaza.ro","site_name":"","pub_date":"27\/03\/2020","street":"","tel":"","id":"201","facility_type":"","list_specs":"","lat":45.179447,"email":"","hospital_name":"Spitalul de Boli Pulmonare Breaza Consiliul Local Breaza"},"id":"10368"},{"type":"Feature","geometry":{"type":"Point","coordinates":[23.7925,44.3051]},"properties":{"cc":"RO","country":"Romania","public_private":"","city":"","cap_beds":1556,"postcode":"","emergency":"","ref_date":"","lon":23.792524,"house_number":"","url":"http:\/\/ww.scjuc.ro","site_name":"","pub_date":"27\/03\/2020","street":"","tel":"","id":"315","facility_type":"","list_specs":"","lat":44.305117,"email":"","hospital_name":"Spitalul Clinic Judetean de Urgenta Craiova"},"id":"10369"},{"type":"Feature","geometry":{"type":"Point","coordinates":[23.35,44.0292]},"properties":{"cc":"RO","country":"Romania","public_private":"","city":"","cap_beds":128,"postcode":"","emergency":"","ref_date":"","lon":23.34996,"house_number":"","url":"www.spitalbailesti.ro","site_name":"","pub_date":"27\/03\/2020","street":"","tel":"","id":"106","facility_type":"","list_specs":"","lat":44.029189,"email":"","hospital_name":"Spitalul Municipal Dr. Irinel Popescu Bailesti Consiliul Local Bailesti"},"id":"10370"},{"type":"Feature","geometry":{"type":"Point","coordinates":[24.9648,44.0989]},"properties":{"cc":"RO","country":"Romania","public_private":"","city":"","cap_beds":181,"postcode":"","emergency":"","ref_date":"","lon":24.964843,"house_number":"","url":"http:\/\/www.spitalulpneumorosiori.ro","site_name":"","pub_date":"27\/03\/2020","street":"","tel":"","id":"233","facility_type":"","list_specs":"","lat":44.098897,"email":"","hospital_name":"Spitalul de Pneumoftiziologie Rosiori de Vede"},"id":"10371"},{"type":"Feature","geometry":{"type":"Point","coordinates":[24.7618,45.3099]},"properties":{"cc":"RO","country":"Romania","public_private":"","city":"","cap_beds":200,"postcode":"","emergency":"","ref_date":"","lon":24.76181,"house_number":"","url":"","site_name":"","pub_date":"27\/03\/2020","street":"","tel":"","id":"22","facility_type":"","list_specs":"","lat":45.309907,"email":"","hospital_name":"Spitalul de Recuperare Bradet"},"id":"10372"},{"type":"Feature","geometry":{"type":"Point","coordinates":[25.8989,47.5534]},"properties":{"cc":"RO","country":"Romania","public_private":"","city":"","cap_beds":127,"postcode":"","emergency":"","ref_date":"","lon":25.898895,"house_number":"","url":"www.spitalgurahumorului.ro","site_name":"","pub_date":"27\/03\/2020","street":"","tel":"","id":"225","facility_type":"","list_specs":"","lat":47.55336,"email":"","hospital_name":"Spitalul Orasenesc Gura Humorului Consiliul Local Gura Humorului"},"id":"10373"},{"type":"Feature","geometry":{"type":"Point","coordinates":[26.8301,48.0039]},"properties":{"cc":"RO","country":"Romania","public_private":"","city":"","cap_beds":80,"postcode":"","emergency":"","ref_date":"","lon":26.830062,"house_number":"","url":"www.sanatoriulpodriga.ro","site_name":"","pub_date":"27\/03\/2020","street":"","tel":"","id":"49","facility_type":"","list_specs":"","lat":48.003893,"email":"","hospital_name":"Sanatoriul de Neuropsihiatrie Podriga Consiliul Judetean Botosani"},"id":"10374"},{"type":"Feature","geometry":{"type":"Point","coordinates":[26.2403,47.6392]},"properties":{"cc":"RO","country":"Romania","public_private":"","city":"","cap_beds":1200,"postcode":"","emergency":"","ref_date":"","lon":26.240271,"house_number":"","url":"www.spitaluljudeteansuceava.ro","site_name":"","pub_date":"27\/03\/2020","street":"","tel":"","id":"220","facility_type":"","list_specs":"","lat":47.639243,"email":"","hospital_name":"Spitalul Judetean de Urgenta Sf. Ioan cel Nou Suceava Consiliul Judetean Suceava"},"id":"10375"},{"type":"Feature","geometry":{"type":"Point","coordinates":[24.4246,47.708]},"properties":{"cc":"RO","country":"Romania","public_private":"","city":"","cap_beds":212,"postcode":"","emergency":"","ref_date":"","lon":24.424555,"house_number":"","url":"www.spitalviseu.ro","site_name":"","pub_date":"27\/03\/2020","street":"","tel":"","id":"164","facility_type":"","list_specs":"","lat":47.708,"email":"","hospital_name":"Spitalul Orasenesc Viseu de Sus Consiliul Local Viseu de Sus"},"id":"10376"},{"type":"Feature","geometry":{"type":"Point","coordinates":[24.698,45.1861]},"properties":{"cc":"RO","country":"Romania","public_private":"","city":"","cap_beds":212,"postcode":"","emergency":"","ref_date":"","lon":24.698017,"house_number":"","url":"www.spviasului.ro","site_name":"","pub_date":"27\/03\/2020","street":"","tel":"","id":"26","facility_type":"","list_specs":"","lat":45.186075,"email":"","hospital_name":"Spitalul de Pneumoftiziologie Sf. Andrei Valea Iasului Consiliul Judetean Arges"},"id":"10377"},{"type":"Feature","geometry":{"type":"Point","coordinates":[26.4485,46.4187]},"properties":{"cc":"RO","country":"Romania","public_private":"","city":"","cap_beds":120,"postcode":"","emergency":"","ref_date":"","lon":26.448523,"house_number":"","url":"","site_name":"","pub_date":"27\/03\/2020","street":"","tel":"","id":"31","facility_type":"","list_specs":"","lat":46.418652,"email":"","hospital_name":"Spitalul Orasenesc Ioan Lascar Comanesti"},"id":"10378"},{"type":"Feature","geometry":{"type":"Point","coordinates":[21.6231,44.7263]},"properties":{"cc":"RO","country":"Romania","public_private":"","city":"","cap_beds":140,"postcode":"","emergency":"","ref_date":"","lon":21.623068,"house_number":"","url":"www.spitalmoldovanoua.ro","site_name":"","pub_date":"27\/03\/2020","street":"","tel":"","id":"72","facility_type":"","list_specs":"","lat":44.726293,"email":"","hospital_name":"Spitalul Orasenesc Moldova Noua Consiliul Local Moldova Noua"},"id":"10379"},{"type":"Feature","geometry":{"type":"Point","coordinates":[23.7186,46.3056]},"properties":{"cc":"RO","country":"Romania","public_private":"","city":"","cap_beds":116,"postcode":"","emergency":"","ref_date":"","lon":23.718646,"house_number":"","url":"www.sanatoriultbcaiud.ro","site_name":"","pub_date":"27\/03\/2020","street":"","tel":"","id":"8","facility_type":"","list_specs":"","lat":46.305553,"email":"","hospital_name":"Spitalul de Pneumoftiziologie Aiud Consiliul Judetean Alba"},"id":"10380"},{"type":"Feature","geometry":{"type":"Point","coordinates":[23.6845,44.2887]},"properties":{"cc":"RO","country":"Romania","public_private":"","city":"","cap_beds":157,"postcode":"","emergency":"","ref_date":"","lon":23.684464,"house_number":"","url":"","site_name":"","pub_date":"27\/03\/2020","street":"","tel":"","id":"110","facility_type":"","list_specs":"","lat":44.288715,"email":"","hospital_name":"Spitalul de Pneumoftiziologie Leamna"},"id":"10381"},{"type":"Feature","geometry":{"type":"Point","coordinates":[26.129,44.3842]},"properties":{"cc":"RO","country":"Romania","public_private":"","city":"","cap_beds":311,"postcode":"","emergency":"","ref_date":"","lon":26.12904,"house_number":"","url":"spitalulsf.luca.ro","site_name":"","pub_date":"27\/03\/2020","street":"","tel":"","id":"272","facility_type":"","list_specs":"","lat":44.384223,"email":"","hospital_name":"Spitalul de Boli Cronice și Geriatrie Sf. Luca"},"id":"10382"},{"type":"Feature","geometry":{"type":"Point","coordinates":[26.8003,45.1512]},"properties":{"cc":"RO","country":"Romania","public_private":"","city":"","cap_beds":910,"postcode":"","emergency":"","ref_date":"","lon":26.800332,"house_number":"","url":"","site_name":"","pub_date":"27\/03\/2020","street":"","tel":"","id":"64","facility_type":"","list_specs":"","lat":45.151174,"email":"","hospital_name":"Spitalul Judetean de Urgenta Buzau Consiliul Judetean Buzau"},"id":"10383"},{"type":"Feature","geometry":{"type":"Point","coordinates":[26.0892,44.4046]},"properties":{"cc":"RO","country":"Romania","public_private":"","city":"","cap_beds":548,"postcode":"","emergency":"","ref_date":"","lon":26.08916,"house_number":"","url":"www.marius-nasta.ro","site_name":"","pub_date":"27\/03\/2020","street":"","tel":"","id":"343","facility_type":"","list_specs":"","lat":44.40463,"email":"","hospital_name":"Institutul de Pneumoftiziologie Marius Nasta"},"id":"10384"},{"type":"Feature","geometry":{"type":"Point","coordinates":[28.6422,44.1864]},"properties":{"cc":"RO","country":"Romania","public_private":"","city":"","cap_beds":1300,"postcode":"","emergency":"","ref_date":"","lon":28.642248,"house_number":"","url":"","site_name":"","pub_date":"27\/03\/2020","street":"","tel":"","id":"89","facility_type":"","list_specs":"","lat":44.186359,"email":"","hospital_name":"Spitalul Clinic Judetean de Urgenta Constanta"},"id":"10385"},{"type":"Feature","geometry":{"type":"Point","coordinates":[23.5951,46.7746]},"properties":{"cc":"RO","country":"Romania","public_private":"","city":"","cap_beds":410,"postcode":"","emergency":"","ref_date":"","lon":23.595058,"house_number":"","url":"www.irgh.ro","site_name":"","pub_date":"27\/03\/2020","street":"","tel":"","id":"310","facility_type":"","list_specs":"","lat":46.774552,"email":"","hospital_name":"Institutul Regional de Gastroenterologie-Hepatologie Prof. dr. Octavian Fodor Cluj"},"id":"10386"},{"type":"Feature","geometry":{"type":"Point","coordinates":[28.6071,44.2312]},"properties":{"cc":"RO","country":"Romania","public_private":"","city":"","cap_beds":185,"postcode":"","emergency":"","ref_date":"","lon":28.607084,"house_number":"","url":"www.tbc.infomedic.ro","site_name":"","pub_date":"27\/03\/2020","street":"","tel":"","id":"90","facility_type":"","list_specs":"","lat":44.231241,"email":"","hospital_name":"Spitalul Clinic de Pneumoftiziologie Constanta Consiliul Judetean Constanta"},"id":"10387"},{"type":"Feature","geometry":{"type":"Point","coordinates":[23.5714,46.7654]},"properties":{"cc":"RO","country":"Romania","public_private":"","city":"","cap_beds":405,"postcode":"","emergency":"","ref_date":"","lon":23.57138,"house_number":"","url":"www.recuperarecluj.ro","site_name":"","pub_date":"27\/03\/2020","street":"","tel":"","id":"80","facility_type":"","list_specs":"","lat":46.76537,"email":"","hospital_name":"Spitalul Clinic de Recuperare Cluj-Napoca Consiliul Judetean Cluj"},"id":"10388"},{"type":"Feature","geometry":{"type":"Point","coordinates":[26.1053,44.4533]},"properties":{"cc":"RO","country":"Romania","public_private":"","city":"","cap_beds":123,"postcode":"","emergency":"","ref_date":"","lon":26.105297,"house_number":"","url":"pneumosfstefan.ro","site_name":"","pub_date":"27\/03\/2020","street":"","tel":"","id":"271","facility_type":"","list_specs":"","lat":44.453255,"email":"","hospital_name":"Spitalul de Pneumoftiziologie Sf. Stefan"},"id":"10389"},{"type":"Feature","geometry":{"type":"Point","coordinates":[23.7427,44.0997]},"properties":{"cc":"RO","country":"Romania","public_private":"","city":"","cap_beds":112,"postcode":"","emergency":"","ref_date":"","lon":23.74271,"house_number":"","url":"www.spitalsegarcea.ro","site_name":"","pub_date":"27\/03\/2020","street":"","tel":"","id":"108","facility_type":"","list_specs":"","lat":44.099717,"email":"","hospital_name":"Spitalul Orasenesc Segarcea Consiliul Local Segarcea"},"id":"10390"},{"type":"Feature","geometry":{"type":"Point","coordinates":[23.8247,44.3148]},"properties":{"cc":"RO","country":"Romania","public_private":"","city":"","cap_beds":435,"postcode":"","emergency":"","ref_date":"","lon":23.824722,"house_number":"","url":"www.vbabes-cv.ro","site_name":"","pub_date":"27\/03\/2020","street":"","tel":"","id":"104","facility_type":"","list_specs":"","lat":44.314802,"email":"","hospital_name":"Spitalul Clinic de Boli Infectioase si Pneumoftiziologie V. Babeș Craiova Consiliul Local Craiova"},"id":"10391"},{"type":"Feature","geometry":{"type":"Point","coordinates":[25.3551,46.9231]},"properties":{"cc":"RO","country":"Romania","public_private":"","city":"","cap_beds":163,"postcode":"","emergency":"","ref_date":"","lon":25.355072,"house_number":"","url":"www.spitaltoplita.ro","site_name":"","pub_date":"27\/03\/2020","street":"","tel":"","id":"133","facility_type":"","list_specs":"","lat":46.923069,"email":"","hospital_name":"Spitalul Municipal Toplita Consiliul Local Toplita"},"id":"10392"},{"type":"Feature","geometry":{"type":"Point","coordinates":[25.5553,45.3332]},"properties":{"cc":"RO","country":"Romania","public_private":"","city":"","cap_beds":94,"postcode":"","emergency":"","ref_date":"","lon":25.555251,"house_number":"","url":"spitalsinaia@yahoo.com","site_name":"","pub_date":"27\/03\/2020","street":"","tel":"","id":"195","facility_type":"","list_specs":"","lat":45.333248,"email":"","hospital_name":"Spitalul Orasenesc Sinaia Consiliul Local Sinaia"},"id":"10393"},{"type":"Feature","geometry":{"type":"Point","coordinates":[26.1788,44.4381]},"properties":{"cc":"RO","country":"Romania","public_private":"","city":"","cap_beds":263,"postcode":"","emergency":"","ref_date":"","lon":26.178811,"house_number":"","url":"","site_name":"","pub_date":"27\/03\/2020","street":"","tel":"","id":"264","facility_type":"","list_specs":"","lat":44.43812,"email":"","hospital_name":"Spitalul Clinic Nicolae Malaxa Bucuresti"},"id":"10394"},{"type":"Feature","geometry":{"type":"Point","coordinates":[25.5603,47.5279]},"properties":{"cc":"RO","country":"Romania","public_private":"","city":"","cap_beds":70,"postcode":"","emergency":"","ref_date":"","lon":25.560315,"house_number":"","url":"www.spcm.ro","site_name":"","pub_date":"27\/03\/2020","street":"","tel":"","id":"227","facility_type":"","list_specs":"","lat":47.527866,"email":"","hospital_name":"Spitalul de Psihiatrie Campulung Moldovenesc Consiliul Local Campulung Moldovenesc"},"id":"10395"},{"type":"Feature","geometry":{"type":"Point","coordinates":[26.0929,46.9088]},"properties":{"cc":"RO","country":"Romania","public_private":"","city":"","cap_beds":50,"postcode":"","emergency":"","ref_date":"","lon":26.092873,"house_number":"","url":"","site_name":"","pub_date":"27\/03\/2020","street":"","tel":"","id":"378","facility_type":"","list_specs":"","lat":46.908764,"email":"","hospital_name":"Spitalul Orasenesc Bicaz"},"id":"10396"},{"type":"Feature","geometry":{"type":"Point","coordinates":[26.009,44.9628]},"properties":{"cc":"RO","country":"Romania","public_private":"","city":"","cap_beds":1160,"postcode":"","emergency":"","ref_date":"","lon":26.009048,"house_number":"","url":"","site_name":"","pub_date":"27\/03\/2020","street":"","tel":"","id":"189","facility_type":"","list_specs":"","lat":44.962779,"email":"","hospital_name":"Spitalul Judetean de Urgenta Ploiesti"},"id":"10397"},{"type":"Feature","geometry":{"type":"Point","coordinates":[25.5521,45.4339]},"properties":{"cc":"RO","country":"Romania","public_private":"","city":"","cap_beds":95,"postcode":"","emergency":"","ref_date":"","lon":25.552053,"house_number":"","url":"","site_name":"","pub_date":"27\/03\/2020","street":"","tel":"","id":"200","facility_type":"","list_specs":"","lat":45.433876,"email":"","hospital_name":"Spitalul de Ortopedie si Traumatologie Azuga"},"id":"10398"},{"type":"Feature","geometry":{"type":"Point","coordinates":[25.5441,47.5324]},"properties":{"cc":"RO","country":"Romania","public_private":"","city":"","cap_beds":246,"postcode":"","emergency":"","ref_date":"","lon":25.544103,"house_number":"","url":"http: \/\/ smcm.suceava.astral.ro","site_name":"","pub_date":"27\/03\/2020","street":"","tel":"","id":"221","facility_type":"","list_specs":"","lat":47.532393,"email":"","hospital_name":"Spitalul Municipal Campulung Moldovenesc Consiliul Local Campulung Moldovenesc"},"id":"10399"},{"type":"Feature","geometry":{"type":"Point","coordinates":[26.2973,47.4632]},"properties":{"cc":"RO","country":"Romania","public_private":"","city":"","cap_beds":393,"postcode":"","emergency":"","ref_date":"","lon":26.297311,"house_number":"","url":"","site_name":"","pub_date":"27\/03\/2020","street":"","tel":"","id":"222","facility_type":"","list_specs":"","lat":47.463151,"email":"","hospital_name":"Spitalul Municipal Falticeni"},"id":"10400"},{"type":"Feature","geometry":{"type":"Point","coordinates":[22.8042,47.2272]},"properties":{"cc":"RO","country":"Romania","public_private":"","city":"","cap_beds":215,"postcode":"","emergency":"","ref_date":"","lon":22.804152,"house_number":"","url":"spitalsimleu.ro","site_name":"","pub_date":"27\/03\/2020","street":"","tel":"","id":"210","facility_type":"","list_specs":"","lat":47.227241,"email":"","hospital_name":"Spitalul Orasenesc Dr. I. Pușcaș Simleul Silvaniei Consiliul Local Simleul Silvaniei"},"id":"10401"},{"type":"Feature","geometry":{"type":"Point","coordinates":[21.2403,45.7384]},"properties":{"cc":"RO","country":"Romania","public_private":"","city":"","cap_beds":1174,"postcode":"","emergency":"","ref_date":"","lon":21.240333,"house_number":"","url":"www.hosptm.ro","site_name":"","pub_date":"27\/03\/2020","street":"","tel":"","id":"327","facility_type":"","list_specs":"","lat":45.738368,"email":"","hospital_name":"Spitalul Clinic Judetean de Urgenta Timisoara P. Brinzeu"},"id":"10402"},{"type":"Feature","geometry":{"type":"Point","coordinates":[23.4279,47.8715]},"properties":{"cc":"RO","country":"Romania","public_private":"","city":"","cap_beds":244,"postcode":"","emergency":"","ref_date":"","lon":23.427883,"house_number":"","url":"www.spitalnegrestioas.ro","site_name":"","pub_date":"27\/03\/2020","street":"","tel":"","id":"206","facility_type":"","list_specs":"","lat":47.871511,"email":"","hospital_name":"Spitalul Orasenesc Negresti-Oas Consiliul Judetean Satu Mare"},"id":"10403"},{"type":"Feature","geometry":{"type":"Point","coordinates":[26.0821,44.4533]},"properties":{"cc":"RO","country":"Romania","public_private":"","city":"","cap_beds":264,"postcode":"","emergency":"","ref_date":"","lon":26.082058,"house_number":"","url":"spitalulfilantropia.ro","site_name":"","pub_date":"27\/03\/2020","street":"","tel":"","id":"356","facility_type":"","list_specs":"","lat":44.453251,"email":"","hospital_name":"Spitalul Clinic de Obstetrica si Ginecologie Filantropia"},"id":"10404"},{"type":"Feature","geometry":{"type":"Point","coordinates":[27.9547,44.6843]},"properties":{"cc":"RO","country":"Romania","public_private":"","city":"","cap_beds":64,"postcode":"","emergency":"","ref_date":"","lon":27.954712,"house_number":"","url":"","site_name":"","pub_date":"27\/03\/2020","street":"","tel":"","id":"95","facility_type":"","list_specs":"","lat":44.684277,"email":"","hospital_name":"Spitalul Orasenesc Harsova"},"id":"10405"},{"type":"Feature","geometry":{"type":"Point","coordinates":[22.8856,47.7916]},"properties":{"cc":"RO","country":"Romania","public_private":"","city":"","cap_beds":188,"postcode":"","emergency":"","ref_date":"","lon":22.885635,"house_number":"","url":"","site_name":"","pub_date":"27\/03\/2020","street":"","tel":"","id":"207","facility_type":"","list_specs":"","lat":47.791629,"email":"","hospital_name":"Spitalul de Pneumoftiziologie Satu Mare"},"id":"10406"},{"type":"Feature","geometry":{"type":"Point","coordinates":[26.2408,44.9907]},"properties":{"cc":"RO","country":"Romania","public_private":"","city":"","cap_beds":67,"postcode":"","emergency":"","ref_date":"","lon":26.240823,"house_number":"","url":"","site_name":"","pub_date":"27\/03\/2020","street":"","tel":"","id":"380","facility_type":"","list_specs":"","lat":44.990723,"email":"","hospital_name":"Spitalul Orasenesc Urlati"},"id":"10407"},{"type":"Feature","geometry":{"type":"Point","coordinates":[26.908,45.9115]},"properties":{"cc":"RO","country":"Romania","public_private":"","city":"","cap_beds":56,"postcode":"","emergency":"","ref_date":"","lon":26.908001,"house_number":"","url":"runos.spvidra@gmail.com","site_name":"","pub_date":"27\/03\/2020","street":"","tel":"","id":"333","facility_type":"","list_specs":"","lat":45.911489,"email":"","hospital_name":"Spitalul Comunal N. Saveanu Vidra"},"id":"10408"},{"type":"Feature","geometry":{"type":"Point","coordinates":[25.6021,46.7233]},"properties":{"cc":"RO","country":"Romania","public_private":"","city":"","cap_beds":200,"postcode":"","emergency":"","ref_date":"","lon":25.602093,"house_number":"","url":"www.spitalgh.ro","site_name":"","pub_date":"27\/03\/2020","street":"","tel":"","id":"132","facility_type":"","list_specs":"","lat":46.723252,"email":"","hospital_name":"Spitalul Municipal Gheorghieni Consiliul Local Gheorghieni"},"id":"10409"},{"type":"Feature","geometry":{"type":"Point","coordinates":[24.2385,45.0218]},"properties":{"cc":"RO","country":"Romania","public_private":"","city":"","cap_beds":148,"postcode":"","emergency":"","ref_date":"","lon":24.23849,"house_number":"","url":"www.anastaspital.ro","site_name":"","pub_date":"27\/03\/2020","street":"","tel":"","id":"253","facility_type":"","list_specs":"","lat":45.021832,"email":"","hospital_name":"Spitalul de Pneumoftiziologie C. Anastasiu Mihaesti Consiliul Judetean Valcea"},"id":"10410"},{"type":"Feature","geometry":{"type":"Point","coordinates":[23.0155,46.8624]},"properties":{"cc":"RO","country":"Romania","public_private":"","city":"","cap_beds":165,"postcode":"","emergency":"","ref_date":"","lon":23.0155114,"house_number":"","url":"www.spitalulhuedin.ro","site_name":"","pub_date":"27\/03\/2020","street":"","tel":"","id":"86","facility_type":"","list_specs":"","lat":46.8624083,"email":"","hospital_name":"Spitalul Orasenesc Huedin Consiliul Local Huedin"},"id":"10411"},{"type":"Feature","geometry":{"type":"Point","coordinates":[26.0679,47.9511]},"properties":{"cc":"RO","country":"Romania","public_private":"","city":"","cap_beds":210,"postcode":"","emergency":"","ref_date":"","lon":26.0678619,"house_number":"","url":"www.psihiatriesiret.ro","site_name":"","pub_date":"27\/03\/2020","street":"","tel":"","id":"228","facility_type":"","list_specs":"","lat":47.9511056,"email":"","hospital_name":"Spitalul de Psihiatrie Cronici Siret Consiliul Local Siret"},"id":"10412"},{"type":"Feature","geometry":{"type":"Point","coordinates":[25.3584,47.3479]},"properties":{"cc":"RO","country":"Romania","public_private":"","city":"","cap_beds":183,"postcode":"","emergency":"","ref_date":"","lon":25.358355,"house_number":"","url":"spitalvatradornei.ro","site_name":"","pub_date":"27\/03\/2020","street":"","tel":"","id":"224","facility_type":"","list_specs":"","lat":47.347943,"email":"","hospital_name":"Spitalul Municipal Vatra Dornei Consiliul Local Vatra Dornei"},"id":"10413"},{"type":"Feature","geometry":{"type":"Point","coordinates":[26.1091,44.3898]},"properties":{"cc":"RO","country":"Romania","public_private":"","city":"","cap_beds":473,"postcode":"","emergency":"","ref_date":"","lon":26.109095,"house_number":"","url":"www.mscurie.ro","site_name":"","pub_date":"27\/03\/2020","street":"","tel":"","id":"352","facility_type":"","list_specs":"","lat":44.389774,"email":"","hospital_name":"Spitalul Clinic de Urgenta pentru Copii M.S. Curie"},"id":"10414"},{"type":"Feature","geometry":{"type":"Point","coordinates":[26.1732,44.4418]},"properties":{"cc":"RO","country":"Romania","public_private":"","city":"","cap_beds":525,"postcode":"","emergency":"","ref_date":"","lon":26.173167,"house_number":"","url":"www.urgentapantelimon.zedwebsolutions.ro","site_name":"","pub_date":"27\/03\/2020","street":"","tel":"","id":"347","facility_type":"","list_specs":"","lat":44.441808,"email":"","hospital_name":"Spitalul Clinic de Urgenta Sf. Pantelimon"},"id":"10415"},{"type":"Feature","geometry":{"type":"Point","coordinates":[26.8998,47.4304]},"properties":{"cc":"RO","country":"Romania","public_private":"","city":"","cap_beds":118,"postcode":"","emergency":"","ref_date":"","lon":26.899767,"house_number":"","url":"www.spitaluloraseneschirlau.info","site_name":"","pub_date":"27\/03\/2020","street":"","tel":"","id":"157","facility_type":"","list_specs":"","lat":47.430351,"email":"","hospital_name":"Spitalul Orasenesc Harlau Consiliul Local Harlau"},"id":"10416"},{"type":"Feature","geometry":{"type":"Point","coordinates":[21.8886,45.6906]},"properties":{"cc":"RO","country":"Romania","public_private":"","city":"","cap_beds":363,"postcode":"","emergency":"","ref_date":"","lon":21.888553,"house_number":"","url":"www.smlugoj.ro","site_name":"","pub_date":"27\/03\/2020","street":"","tel":"","id":"238","facility_type":"","list_specs":"","lat":45.690563,"email":"","hospital_name":"Spitalul Municipal Lugoj Consiliul Local Lugoj"},"id":"10417"},{"type":"Feature","geometry":{"type":"Point","coordinates":[24.5664,46.5459]},"properties":{"cc":"RO","country":"Romania","public_private":"","city":"","cap_beds":1182,"postcode":"","emergency":"","ref_date":"","lon":24.566358,"house_number":"","url":"www.spitaljudeteanmures.ro","site_name":"","pub_date":"27\/03\/2020","street":"","tel":"","id":"172","facility_type":"","list_specs":"","lat":46.545919,"email":"","hospital_name":"Spitalul Clinic Judetean Mures Consiliul Judetean Mures"},"id":"10418"},{"type":"Feature","geometry":{"type":"Point","coordinates":[27.1054,45.5498]},"properties":{"cc":"RO","country":"Romania","public_private":"","city":"","cap_beds":135,"postcode":"","emergency":"","ref_date":"","lon":27.105385,"house_number":"","url":"www.spdumbraveni.ro","site_name":"","pub_date":"27\/03\/2020","street":"","tel":"","id":"332","facility_type":"","list_specs":"","lat":45.549832,"email":"","hospital_name":"Spitalul de Psihiatrie Cronici Dumbraveni"},"id":"10419"},{"type":"Feature","geometry":{"type":"Point","coordinates":[27.1829,46.0975]},"properties":{"cc":"RO","country":"Romania","public_private":"","city":"","cap_beds":173,"postcode":"","emergency":"","ref_date":"","lon":27.182922,"house_number":"","url":"","site_name":"","pub_date":"27\/03\/2020","street":"","tel":"","id":"255","facility_type":"","list_specs":"","lat":46.097519,"email":"","hospital_name":"Spitalul Municipal Adjud"},"id":"10420"},{"type":"Feature","geometry":{"type":"Point","coordinates":[25.3003,46.3073]},"properties":{"cc":"RO","country":"Romania","public_private":"","city":"","cap_beds":553,"postcode":"","emergency":"","ref_date":"","lon":25.300344,"house_number":"","url":"www.hospital-odorhei.ro","site_name":"","pub_date":"27\/03\/2020","street":"","tel":"","id":"131","facility_type":"","list_specs":"","lat":46.307273,"email":"","hospital_name":"Spitalul Municipal Odorheiu Secuiesc Consiliul Local Odorheiu Secuiesc"},"id":"10421"},{"type":"Feature","geometry":{"type":"Point","coordinates":[25.0712,46.5937]},"properties":{"cc":"RO","country":"Romania","public_private":"","city":"","cap_beds":33,"postcode":"","emergency":"","ref_date":"","lon":25.071241,"house_number":"","url":"","site_name":"","pub_date":"27\/03\/2020","street":"","tel":"","id":"178","facility_type":"","list_specs":"","lat":46.593699,"email":"","hospital_name":"Spitalul Sovata - Niraj"},"id":"10422"},{"type":"Feature","geometry":{"type":"Point","coordinates":[28.0206,46.2053]},"properties":{"cc":"RO","country":"Romania","public_private":"","city":"","postcode":"","emergency":"","ref_date":"","lon":28.020587,"house_number":"","url":"www.spitalulmurgeni.ro","site_name":"","pub_date":"27\/03\/2020","street":"","tel":"","id":"248","facility_type":"","list_specs":"","lat":46.205349,"email":"","hospital_name":"Spitalul de Psihiatrie Murgeni Consiliul Local Murgeni"},"id":"10423"}]}