{"type":"FeatureCollection","features":[{"type":"Feature","geometry":{"type":"Point","coordinates":[18.0668,59.3326]},"properties":{"country":"Sweden","city":"Stockholm","emergency":"","ref_date":"01\/01\/18","lon":18.066829681396484,"house_number":"","pub_date":"02\/04\/2020","street":"","tel":"","id":"1","facility_type":"","list_specs":"","lat":59.33256912231445,"email":"","hospital_name":"BB Stockholm","cc":"SE","public_private":"","postcode":"","url":"","site_name":"","geo_qual":"-1"},"id":"17667"},{"type":"Feature","geometry":{"type":"Point","coordinates":[17.9745,59.2661]},"properties":{"country":"Sweden","city":"Stockholm","emergency":"","ref_date":"01\/01\/18","lon":17.97445,"house_number":"","pub_date":"02\/04\/2020","street":"","tel":"","id":"2","facility_type":"","list_specs":"","lat":59.26611,"email":"","hospital_name":"Byle Gård","cc":"SE","public_private":"","postcode":"","url":"","site_name":"","geo_qual":"-1"},"id":"17668"},{"type":"Feature","geometry":{"type":"Point","coordinates":[17.9773,59.3626]},"properties":{"country":"Sweden","city":"Stockholm","emergency":"","ref_date":"01\/01\/18","lon":17.97729,"house_number":"","pub_date":"02\/04\/2020","street":"","tel":"","id":"3","facility_type":"","list_specs":"","lat":59.36257,"email":"","hospital_name":"Capio Maria AB","cc":"SE","public_private":"","postcode":"","url":"","site_name":"","geo_qual":"-1"},"id":"17669"},{"type":"Feature","geometry":{"type":"Point","coordinates":[18.2882,59.2883]},"properties":{"country":"Sweden","city":"Stockholm","emergency":"","ref_date":"01\/01\/18","lon":18.288230895996094,"house_number":"","pub_date":"02\/04\/2020","street":"","tel":"","id":"4","facility_type":"","list_specs":"","lat":59.288330078125,"email":"","hospital_name":"Capio Rehab Saltsjöbaden","cc":"SE","public_private":"","postcode":"","url":"","site_name":"","geo_qual":"-1"},"id":"17670"},{"type":"Feature","geometry":{"type":"Point","coordinates":[18.0396,59.3925]},"properties":{"country":"Sweden","city":"Stockholm","emergency":"","ref_date":"01\/01\/18","lon":18.03958,"house_number":"","pub_date":"02\/04\/2020","street":"","tel":"","id":"5","facility_type":"","list_specs":"","lat":59.39245,"email":"","hospital_name":"Danderyds sjukhus AB","cc":"SE","public_private":"","postcode":"","url":"","site_name":"","geo_qual":"-1"},"id":"17671"},{"type":"Feature","geometry":{"type":"Point","coordinates":[18.0601,59.3094]},"properties":{"country":"Sweden","city":"Stockholm","emergency":"","ref_date":"01\/01\/18","lon":18.06007,"house_number":"","pub_date":"02\/04\/2020","street":"","tel":"","id":"6","facility_type":"","list_specs":"","lat":59.30938,"email":"","hospital_name":"Ersta sjukhus","cc":"SE","public_private":"","postcode":"","url":"","site_name":"","geo_qual":"-1"},"id":"17672"},{"type":"Feature","geometry":{"type":"Point","coordinates":[18.0668,59.3326]},"properties":{"country":"Sweden","city":"Stockholm","emergency":"","ref_date":"01\/01\/18","lon":18.066829681396484,"house_number":"","pub_date":"02\/04\/2020","street":"","tel":"","id":"7","facility_type":"","list_specs":"","lat":59.33256912231445,"email":"","hospital_name":"Karolinska Universitetssjukhuset","cc":"SE","public_private":"","postcode":"","url":"","site_name":"","geo_qual":"-1"},"id":"17673"},{"type":"Feature","geometry":{"type":"Point","coordinates":[18.0668,59.3326]},"properties":{"country":"Sweden","city":"Stockholm","emergency":"","ref_date":"01\/01\/18","lon":18.066829681396484,"house_number":"","pub_date":"02\/04\/2020","street":"","tel":"","id":"8","facility_type":"","list_specs":"","lat":59.33256912231445,"email":"","hospital_name":"Mandometerkliniken Stockholm","cc":"SE","public_private":"","postcode":"","url":"","site_name":"","geo_qual":"-1"},"id":"17674"},{"type":"Feature","geometry":{"type":"Point","coordinates":[18.0713,59.3192]},"properties":{"country":"Sweden","city":"Stockholm","emergency":"","ref_date":"01\/01\/18","lon":18.07132,"house_number":"","pub_date":"02\/04\/2020","street":"","tel":"","id":"9","facility_type":"","list_specs":"","lat":59.3192,"email":"","hospital_name":"Maria Regina","cc":"SE","public_private":"","postcode":"","url":"","site_name":"","geo_qual":"-1"},"id":"17675"},{"type":"Feature","geometry":{"type":"Point","coordinates":[18.0668,59.3326]},"properties":{"country":"Sweden","city":"Stockholm","emergency":"","ref_date":"01\/01\/18","lon":18.066829681396484,"house_number":"","pub_date":"02\/04\/2020","street":"","tel":"","id":"10","facility_type":"","list_specs":"","lat":59.33256912231445,"email":"","hospital_name":"Ortopediska huset","cc":"SE","public_private":"","postcode":"","url":"","site_name":"","geo_qual":"-1"},"id":"17676"},{"type":"Feature","geometry":{"type":"Point","coordinates":[18.0668,59.3326]},"properties":{"country":"Sweden","city":"Stockholm","emergency":"","ref_date":"01\/01\/18","lon":18.066829681396484,"house_number":"","pub_date":"02\/04\/2020","street":"","tel":"","id":"11","facility_type":"","list_specs":"","lat":59.33256912231445,"email":"","hospital_name":"Rehab station Stockholm AB","cc":"SE","public_private":"","postcode":"","url":"","site_name":"","geo_qual":"-1"},"id":"17677"},{"type":"Feature","geometry":{"type":"Point","coordinates":[18.0668,59.3326]},"properties":{"country":"Sweden","city":"Stockholm","emergency":"","ref_date":"01\/01\/18","lon":18.066829681396484,"house_number":"","pub_date":"02\/04\/2020","street":"","tel":"","id":"12","facility_type":"","list_specs":"","lat":59.33256912231445,"email":"","hospital_name":"Rehabcenter Sfären","cc":"SE","public_private":"","postcode":"","url":"","site_name":"","geo_qual":"-1"},"id":"17678"},{"type":"Feature","geometry":{"type":"Point","coordinates":[18.0668,59.3326]},"properties":{"country":"Sweden","city":"Stockholm","emergency":"","ref_date":"01\/01\/18","lon":18.066829681396484,"house_number":"","pub_date":"02\/04\/2020","street":"","tel":"","id":"13","facility_type":"","list_specs":"","lat":59.33256912231445,"email":"","hospital_name":"S:t Eriks ögonsjukhus AB","cc":"SE","public_private":"","postcode":"","url":"","site_name":"","geo_qual":"-1"},"id":"17679"},{"type":"Feature","geometry":{"type":"Point","coordinates":[18.0206,59.3341]},"properties":{"country":"Sweden","city":"Stockholm","emergency":"","ref_date":"01\/01\/18","lon":18.020615,"house_number":"","pub_date":"02\/04\/2020","street":"","tel":"","id":"14","facility_type":"","list_specs":"","lat":59.334065,"email":"","hospital_name":"S:t Görans sjukhus AB","cc":"SE","public_private":"","postcode":"","url":"","site_name":"","geo_qual":"-1"},"id":"17680"},{"type":"Feature","geometry":{"type":"Point","coordinates":[18.0668,59.3326]},"properties":{"country":"Sweden","city":"Stockholm","emergency":"","ref_date":"01\/01\/18","lon":18.066829681396484,"house_number":"","pub_date":"02\/04\/2020","street":"","tel":"","id":"15","facility_type":"","list_specs":"","lat":59.33256912231445,"email":"","hospital_name":"Sophiahemmet","cc":"SE","public_private":"","postcode":"","url":"","site_name":"","geo_qual":"-1"},"id":"17681"},{"type":"Feature","geometry":{"type":"Point","coordinates":[17.8998,59.3586]},"properties":{"country":"Sweden","city":"Stockholm","emergency":"","ref_date":"01\/01\/18","lon":17.899821,"house_number":"","pub_date":"02\/04\/2020","street":"","tel":"","id":"16","facility_type":"","list_specs":"","lat":59.358606,"email":"","hospital_name":"Stockholms sjukhem Geriatrik Bromma","cc":"SE","public_private":"","postcode":"","url":"","site_name":"","geo_qual":"-1"},"id":"17682"},{"type":"Feature","geometry":{"type":"Point","coordinates":[18.0668,59.3326]},"properties":{"country":"Sweden","city":"Stockholm","emergency":"","ref_date":"01\/01\/18","lon":18.066829681396484,"house_number":"","pub_date":"02\/04\/2020","street":"","tel":"","id":"17","facility_type":"","list_specs":"","lat":59.33256912231445,"email":"","hospital_name":"Stångberga Legevisitten","cc":"SE","public_private":"","postcode":"","url":"","site_name":"","geo_qual":"-1"},"id":"17683"},{"type":"Feature","geometry":{"type":"Point","coordinates":[18.0668,59.3326]},"properties":{"country":"Sweden","city":"Stockholm","emergency":"","ref_date":"01\/01\/18","lon":18.066829681396484,"house_number":"","pub_date":"02\/04\/2020","street":"","tel":"","id":"18","facility_type":"","list_specs":"","lat":59.33256912231445,"email":"","hospital_name":"Södersjukhuset AB","cc":"SE","public_private":"","postcode":"","url":"","site_name":"","geo_qual":"-1"},"id":"17684"},{"type":"Feature","geometry":{"type":"Point","coordinates":[18.0668,59.3326]},"properties":{"country":"Sweden","city":"Stockholm","emergency":"","ref_date":"01\/01\/18","lon":18.066829681396484,"house_number":"","pub_date":"02\/04\/2020","street":"","tel":"","id":"19","facility_type":"","list_specs":"","lat":59.33256912231445,"email":"","hospital_name":"Dalens sjukhus","cc":"SE","public_private":"","postcode":"","url":"","site_name":"","geo_qual":"-1"},"id":"17685"},{"type":"Feature","geometry":{"type":"Point","coordinates":[18.0668,59.3326]},"properties":{"country":"Sweden","city":"Stockholm","emergency":"","ref_date":"01\/01\/18","lon":18.066829681396484,"house_number":"","pub_date":"02\/04\/2020","street":"","tel":"","id":"20","facility_type":"","list_specs":"","lat":59.33256912231445,"email":"","hospital_name":"Handens sjukhus","cc":"SE","public_private":"","postcode":"","url":"","site_name":"","geo_qual":"-1"},"id":"17686"},{"type":"Feature","geometry":{"type":"Point","coordinates":[17.908,59.543]},"properties":{"country":"Sweden","city":"Stockholm","emergency":"","ref_date":"01\/01\/18","lon":17.90801,"house_number":"","pub_date":"02\/04\/2020","street":"","tel":"","id":"21","facility_type":"","list_specs":"","lat":59.54301,"email":"","hospital_name":"Löwenströmska","cc":"SE","public_private":"","postcode":"","url":"","site_name":"","geo_qual":"-1"},"id":"17687"},{"type":"Feature","geometry":{"type":"Point","coordinates":[18.069,59.3229]},"properties":{"country":"Sweden","city":"Stockholm","emergency":"","ref_date":"01\/01\/18","lon":18.069,"house_number":"","pub_date":"02\/04\/2020","street":"","tel":"","id":"22","facility_type":"","list_specs":"","lat":59.32293,"email":"","hospital_name":"Mälargården","cc":"SE","public_private":"","postcode":"","url":"","site_name":"","geo_qual":"-1"},"id":"17688"},{"type":"Feature","geometry":{"type":"Point","coordinates":[18.0601,59.3094]},"properties":{"country":"Sweden","city":"Stockholm","emergency":"","ref_date":"01\/01\/18","lon":18.06007,"house_number":"","pub_date":"02\/04\/2020","street":"","tel":"","id":"23","facility_type":"","list_specs":"","lat":59.30938,"email":"","hospital_name":"Nacka sjukhus","cc":"SE","public_private":"","postcode":"","url":"","site_name":"","geo_qual":"-1"},"id":"17689"},{"type":"Feature","geometry":{"type":"Point","coordinates":[18.0668,59.3326]},"properties":{"country":"Sweden","city":"Stockholm","emergency":"","ref_date":"01\/01\/18","lon":18.066829681396484,"house_number":"","pub_date":"02\/04\/2020","street":"","tel":"","id":"24","facility_type":"","list_specs":"","lat":59.33256912231445,"email":"","hospital_name":"Norrtälje sjukhus (TioHundra AB)","cc":"SE","public_private":"","postcode":"","url":"","site_name":"","geo_qual":"-1"},"id":"17690"},{"type":"Feature","geometry":{"type":"Point","coordinates":[18.0668,59.3326]},"properties":{"country":"Sweden","city":"Stockholm","emergency":"","ref_date":"01\/01\/18","lon":18.066829681396484,"house_number":"","pub_date":"02\/04\/2020","street":"","tel":"","id":"25","facility_type":"","list_specs":"","lat":59.33256912231445,"email":"","hospital_name":"Nynäshamns sjukhus","cc":"SE","public_private":"","postcode":"","url":"","site_name":"","geo_qual":"-1"},"id":"17691"},{"type":"Feature","geometry":{"type":"Point","coordinates":[18.0668,59.3326]},"properties":{"country":"Sweden","city":"Stockholm","emergency":"","ref_date":"01\/01\/18","lon":18.066829681396484,"house_number":"","pub_date":"02\/04\/2020","street":"","tel":"","id":"26","facility_type":"","list_specs":"","lat":59.33256912231445,"email":"","hospital_name":"Stiftelsen Hublegården","cc":"SE","public_private":"","postcode":"","url":"","site_name":"","geo_qual":"-1"},"id":"17692"},{"type":"Feature","geometry":{"type":"Point","coordinates":[18.0668,59.3326]},"properties":{"country":"Sweden","city":"Stockholm","emergency":"","ref_date":"01\/01\/18","lon":18.066829681396484,"house_number":"","pub_date":"02\/04\/2020","street":"","tel":"","id":"27","facility_type":"","list_specs":"","lat":59.33256912231445,"email":"","hospital_name":"Stockholms läns sjukvårdsområde, (SLSO)","cc":"SE","public_private":"","postcode":"","url":"","site_name":"","geo_qual":"-1"},"id":"17693"},{"type":"Feature","geometry":{"type":"Point","coordinates":[18.126,59.2575]},"properties":{"country":"Sweden","city":"Stockholm","emergency":"","ref_date":"01\/01\/18","lon":18.12603,"house_number":"","pub_date":"02\/04\/2020","street":"","tel":"","id":"28","facility_type":"","list_specs":"","lat":59.25747,"email":"","hospital_name":"Stora Sköndals sjukhem","cc":"SE","public_private":"","postcode":"","url":"","site_name":"","geo_qual":"-1"},"id":"17694"},{"type":"Feature","geometry":{"type":"Point","coordinates":[18.0668,59.3326]},"properties":{"country":"Sweden","city":"Stockholm","emergency":"","ref_date":"01\/01\/18","lon":18.066829681396484,"house_number":"","pub_date":"02\/04\/2020","street":"","tel":"","id":"29","facility_type":"","list_specs":"","lat":59.33256912231445,"email":"","hospital_name":"Södertälje sjukhus AB","cc":"SE","public_private":"","postcode":"","url":"","site_name":"","geo_qual":"-1"},"id":"17695"},{"type":"Feature","geometry":{"type":"Point","coordinates":[17.6437,59.8586]},"properties":{"country":"Sweden","city":"Uppsala","emergency":"","ref_date":"01\/01\/18","lon":17.64373016357422,"house_number":"","pub_date":"02\/04\/2020","street":"","tel":"","id":"30","facility_type":"","list_specs":"","lat":59.858619689941406,"email":"","hospital_name":"Akademiska sjukhuset","cc":"SE","public_private":"","postcode":"","url":"","site_name":"","geo_qual":"-1"},"id":"17696"},{"type":"Feature","geometry":{"type":"Point","coordinates":[17.0943,59.6389]},"properties":{"country":"Sweden","city":"Uppsala","emergency":"","ref_date":"01\/01\/18","lon":17.094276428222656,"house_number":"","pub_date":"02\/04\/2020","street":"","tel":"","id":"31","facility_type":"","list_specs":"","lat":59.63887023925781,"email":"","hospital_name":"Lasarettet i Enköping","cc":"SE","public_private":"","postcode":"","url":"","site_name":"","geo_qual":"-1"},"id":"17697"},{"type":"Feature","geometry":{"type":"Point","coordinates":[17.6437,59.8586]},"properties":{"country":"Sweden","city":"Uppsala","emergency":"","ref_date":"01\/01\/18","lon":17.64373016357422,"house_number":"","pub_date":"02\/04\/2020","street":"","tel":"","id":"32","facility_type":"","list_specs":"","lat":59.858619689941406,"email":"","hospital_name":"Närvårdsavd i Uppsala","cc":"SE","public_private":"","postcode":"","url":"","site_name":"","geo_qual":"-1"},"id":"17698"},{"type":"Feature","geometry":{"type":"Point","coordinates":[17.6437,59.8586]},"properties":{"country":"Sweden","city":"Uppsala","emergency":"","ref_date":"01\/01\/18","lon":17.64373016357422,"house_number":"","pub_date":"02\/04\/2020","street":"","tel":"","id":"33","facility_type":"","list_specs":"","lat":59.858619689941406,"email":"","hospital_name":"Elisabethsjukhuset (Aleris)","cc":"SE","public_private":"","postcode":"","url":"","site_name":"","geo_qual":"-1"},"id":"17699"},{"type":"Feature","geometry":{"type":"Point","coordinates":[16.2086,59.0148]},"properties":{"country":"Sweden","city":"Sörmland","emergency":"","ref_date":"01\/01\/18","lon":16.20857,"house_number":"","pub_date":"02\/04\/2020","street":"","tel":"","id":"34","facility_type":"","list_specs":"","lat":59.01478,"email":"","hospital_name":"Karsuddens sjukhus","cc":"SE","public_private":"","postcode":"","url":"","site_name":"","geo_qual":"-1"},"id":"17700"},{"type":"Feature","geometry":{"type":"Point","coordinates":[16.7354,62.8218]},"properties":{"country":"Sweden","city":"Sörmland","emergency":"","ref_date":"01\/01\/18","lon":16.73538589477539,"house_number":"","pub_date":"02\/04\/2020","street":"","tel":"","id":"35","facility_type":"","list_specs":"","lat":62.82179260253906,"email":"","hospital_name":"Kullbergska sjukhuset","cc":"SE","public_private":"","postcode":"","url":"","site_name":"","geo_qual":"-1"},"id":"17701"},{"type":"Feature","geometry":{"type":"Point","coordinates":[16.5362,59.3637]},"properties":{"country":"Sweden","city":"Sörmland","emergency":"","ref_date":"01\/01\/18","lon":16.5362,"house_number":"","pub_date":"02\/04\/2020","street":"","tel":"","id":"36","facility_type":"","list_specs":"","lat":59.36365,"email":"","hospital_name":"Mälarsjukhuset","cc":"SE","public_private":"","postcode":"","url":"","site_name":"","geo_qual":"-1"},"id":"17702"},{"type":"Feature","geometry":{"type":"Point","coordinates":[16.7354,62.8218]},"properties":{"country":"Sweden","city":"Sörmland","emergency":"","ref_date":"01\/01\/18","lon":16.73538589477539,"house_number":"","pub_date":"02\/04\/2020","street":"","tel":"","id":"37","facility_type":"","list_specs":"","lat":62.82179260253906,"email":"","hospital_name":"Nyköpings sjukhus","cc":"SE","public_private":"","postcode":"","url":"","site_name":"","geo_qual":"-1"},"id":"17703"},{"type":"Feature","geometry":{"type":"Point","coordinates":[15.7621,58.71]},"properties":{"country":"Sweden","city":"Östergötland","emergency":"","ref_date":"01\/01\/18","lon":15.76212,"house_number":"","pub_date":"02\/04\/2020","street":"","tel":"","id":"38","facility_type":"","list_specs":"","lat":58.70999,"email":"","hospital_name":"Finspångs lasarett","cc":"SE","public_private":"","postcode":"","url":"","site_name":"","geo_qual":"-1"},"id":"17704"},{"type":"Feature","geometry":{"type":"Point","coordinates":[15.0329,58.5425]},"properties":{"country":"Sweden","city":"Östergötland","emergency":"","ref_date":"01\/01\/18","lon":15.03294,"house_number":"","pub_date":"02\/04\/2020","street":"","tel":"","id":"39","facility_type":"","list_specs":"","lat":58.54246,"email":"","hospital_name":"Lasarettet i Motala","cc":"SE","public_private":"","postcode":"","url":"","site_name":"","geo_qual":"-1"},"id":"17705"},{"type":"Feature","geometry":{"type":"Point","coordinates":[15.6203,58.4009]},"properties":{"country":"Sweden","city":"Östergötland","emergency":"","ref_date":"01\/01\/18","lon":15.620314,"house_number":"","pub_date":"02\/04\/2020","street":"","tel":"","id":"40","facility_type":"","list_specs":"","lat":58.40087,"email":"","hospital_name":"Universitetssjukhuset i Linköping","cc":"SE","public_private":"","postcode":"","url":"","site_name":"","geo_qual":"-1"},"id":"17706"},{"type":"Feature","geometry":{"type":"Point","coordinates":[16.1787,58.563]},"properties":{"country":"Sweden","city":"Östergötland","emergency":"","ref_date":"01\/01\/18","lon":16.178709,"house_number":"","pub_date":"02\/04\/2020","street":"","tel":"","id":"41","facility_type":"","list_specs":"","lat":58.562972,"email":"","hospital_name":"Vrinnevisjukhuset","cc":"SE","public_private":"","postcode":"","url":"","site_name":"","geo_qual":"-1"},"id":"17707"},{"type":"Feature","geometry":{"type":"Point","coordinates":[14.1765,57.7798]},"properties":{"country":"Sweden","city":"Jönköping","emergency":"","ref_date":"01\/01\/18","lon":14.176480293273926,"house_number":"","pub_date":"02\/04\/2020","street":"","tel":"","id":"42","facility_type":"","list_specs":"","lat":57.77975845336914,"email":"","hospital_name":"Höglandssjukhuset","cc":"SE","public_private":"","postcode":"","url":"","site_name":"","geo_qual":"-1"},"id":"17708"},{"type":"Feature","geometry":{"type":"Point","coordinates":[14.1765,57.7798]},"properties":{"country":"Sweden","city":"Jönköping","emergency":"","ref_date":"01\/01\/18","lon":14.176480293273926,"house_number":"","pub_date":"02\/04\/2020","street":"","tel":"","id":"43","facility_type":"","list_specs":"","lat":57.77975845336914,"email":"","hospital_name":"Länssjukhuset Ryhov","cc":"SE","public_private":"","postcode":"","url":"","site_name":"","geo_qual":"-1"},"id":"17709"},{"type":"Feature","geometry":{"type":"Point","coordinates":[14.1765,57.7798]},"properties":{"country":"Sweden","city":"Jönköping","emergency":"","ref_date":"01\/01\/18","lon":14.176480293273926,"house_number":"","pub_date":"02\/04\/2020","street":"","tel":"","id":"44","facility_type":"","list_specs":"","lat":57.77975845336914,"email":"","hospital_name":"Värnamo sjukhus","cc":"SE","public_private":"","postcode":"","url":"","site_name":"","geo_qual":"-1"},"id":"17710"},{"type":"Feature","geometry":{"type":"Point","coordinates":[14.7994,56.88]},"properties":{"country":"Sweden","city":"Kronoberg","emergency":"","ref_date":"01\/01\/18","lon":14.799449920654297,"house_number":"","pub_date":"02\/04\/2020","street":"","tel":"","id":"45","facility_type":"","list_specs":"","lat":56.87995910644531,"email":"","hospital_name":"Centrallasarettet, Växjö","cc":"SE","public_private":"","postcode":"","url":"","site_name":"","geo_qual":"-1"},"id":"17711"},{"type":"Feature","geometry":{"type":"Point","coordinates":[13.932,56.8348]},"properties":{"country":"Sweden","city":"Kronoberg","emergency":"","ref_date":"01\/01\/18","lon":13.93196,"house_number":"","pub_date":"02\/04\/2020","street":"","tel":"","id":"46","facility_type":"","list_specs":"","lat":56.83476,"email":"","hospital_name":"Ljungby lasarett","cc":"SE","public_private":"","postcode":"","url":"","site_name":"","geo_qual":"-1"},"id":"17712"},{"type":"Feature","geometry":{"type":"Point","coordinates":[14.7994,56.88]},"properties":{"country":"Sweden","city":"Kronoberg","emergency":"","ref_date":"01\/01\/18","lon":14.799449920654297,"house_number":"","pub_date":"02\/04\/2020","street":"","tel":"","id":"47","facility_type":"","list_specs":"","lat":56.87995910644531,"email":"","hospital_name":"Rehabcentrum (rehabkliniken), Växjö","cc":"SE","public_private":"","postcode":"","url":"","site_name":"","geo_qual":"-1"},"id":"17713"},{"type":"Feature","geometry":{"type":"Point","coordinates":[16.3331,56.6593]},"properties":{"country":"Sweden","city":"Kalmar","emergency":"","ref_date":"01\/01\/18","lon":16.33305,"house_number":"","pub_date":"02\/04\/2020","street":"","tel":"","id":"48","facility_type":"","list_specs":"","lat":56.65932,"email":"","hospital_name":"Länssjukhuset i Kalmar","cc":"SE","public_private":"","postcode":"","url":"","site_name":"","geo_qual":"-1"},"id":"17714"},{"type":"Feature","geometry":{"type":"Point","coordinates":[16.1322,57.1079]},"properties":{"country":"Sweden","city":"Kalmar","emergency":"","ref_date":"01\/01\/18","lon":16.13221,"house_number":"","pub_date":"02\/04\/2020","street":"","tel":"","id":"49","facility_type":"","list_specs":"","lat":57.10788,"email":"","hospital_name":"Oskarshamns sjukhus","cc":"SE","public_private":"","postcode":"","url":"","site_name":"","geo_qual":"-1"},"id":"17715"},{"type":"Feature","geometry":{"type":"Point","coordinates":[16.401,57.8938]},"properties":{"country":"Sweden","city":"Kalmar","emergency":"","ref_date":"01\/01\/18","lon":16.40096,"house_number":"","pub_date":"02\/04\/2020","street":"","tel":"","id":"50","facility_type":"","list_specs":"","lat":57.89382,"email":"","hospital_name":"Västerviks sjukhus","cc":"SE","public_private":"","postcode":"","url":"","site_name":"","geo_qual":"-1"},"id":"17716"},{"type":"Feature","geometry":{"type":"Point","coordinates":[14.9619,57.9041]},"properties":{"country":"Sweden","city":"Blekinge","emergency":"","ref_date":"01\/01\/18","lon":14.961870193481445,"house_number":"","pub_date":"02\/04\/2020","street":"","tel":"","id":"51","facility_type":"","list_specs":"","lat":57.90414047241211,"email":"","hospital_name":"Blekingesjukhuset","cc":"SE","public_private":"","postcode":"","url":"","site_name":"","geo_qual":"-1"},"id":"17717"},{"type":"Feature","geometry":{"type":"Point","coordinates":[13.0012,55.5967]},"properties":{"country":"Sweden","city":"Skåne","emergency":"","ref_date":"01\/01\/18","lon":13.001219749450684,"house_number":"","pub_date":"02\/04\/2020","street":"","tel":"","id":"52","facility_type":"","list_specs":"","lat":55.5966911315918,"email":"","hospital_name":"Aleris Plastikkirurgi Malmö","cc":"SE","public_private":"","postcode":"","url":"","site_name":"","geo_qual":"-1"},"id":"17718"},{"type":"Feature","geometry":{"type":"Point","coordinates":[14.1687,56.0365]},"properties":{"country":"Sweden","city":"Skåne","emergency":"","ref_date":"01\/01\/18","lon":14.168658256530762,"house_number":"","pub_date":"02\/04\/2020","street":"","tel":"","id":"53","facility_type":"","list_specs":"","lat":56.036521911621094,"email":"","hospital_name":"Centralsjukhuset Kristianstad","cc":"SE","public_private":"","postcode":"","url":"","site_name":"","geo_qual":"-1"},"id":"17719"},{"type":"Feature","geometry":{"type":"Point","coordinates":[12.7046,56.0458]},"properties":{"country":"Sweden","city":"Skåne","emergency":"","ref_date":"01\/01\/18","lon":12.704605,"house_number":"","pub_date":"02\/04\/2020","street":"","tel":"","id":"54","facility_type":"","list_specs":"","lat":56.045775,"email":"","hospital_name":"Helsingborgs lasarett","cc":"SE","public_private":"","postcode":"","url":"","site_name":"","geo_qual":"-1"},"id":"17720"},{"type":"Feature","geometry":{"type":"Point","coordinates":[13.7789,56.1605]},"properties":{"country":"Sweden","city":"Skåne","emergency":"","ref_date":"01\/01\/18","lon":13.778898,"house_number":"","pub_date":"02\/04\/2020","street":"","tel":"","id":"55","facility_type":"","list_specs":"","lat":56.160474,"email":"","hospital_name":"Hässleholms sjukhus","cc":"SE","public_private":"","postcode":"","url":"","site_name":"","geo_qual":"-1"},"id":"17721"},{"type":"Feature","geometry":{"type":"Point","coordinates":[12.8389,55.8795]},"properties":{"country":"Sweden","city":"Skåne","emergency":"","ref_date":"01\/01\/18","lon":12.838919639587402,"house_number":"","pub_date":"02\/04\/2020","street":"","tel":"","id":"56","facility_type":"","list_specs":"","lat":55.8795166015625,"email":"","hospital_name":"Lasarettet i Landskrona","cc":"SE","public_private":"","postcode":"","url":"","site_name":"","geo_qual":"-1"},"id":"17722"},{"type":"Feature","geometry":{"type":"Point","coordinates":[13.8183,55.4344]},"properties":{"country":"Sweden","city":"Skåne","emergency":"","ref_date":"01\/01\/18","lon":13.81826,"house_number":"","pub_date":"02\/04\/2020","street":"","tel":"","id":"57","facility_type":"","list_specs":"","lat":55.43437,"email":"","hospital_name":"Lasarettet i Ystad","cc":"SE","public_private":"","postcode":"","url":"","site_name":"","geo_qual":"-1"},"id":"17723"},{"type":"Feature","geometry":{"type":"Point","coordinates":[13.1675,55.3777]},"properties":{"country":"Sweden","city":"Skåne","emergency":"","ref_date":"01\/01\/18","lon":13.167510032653809,"house_number":"","pub_date":"02\/04\/2020","street":"","tel":"","id":"58","facility_type":"","list_specs":"","lat":55.37770080566406,"email":"","hospital_name":"Lasarettet Trelleborg","cc":"SE","public_private":"","postcode":"","url":"","site_name":"","geo_qual":"-1"},"id":"17724"},{"type":"Feature","geometry":{"type":"Point","coordinates":[13.5478,55.9332]},"properties":{"country":"Sweden","city":"Skåne","emergency":"","ref_date":"01\/01\/18","lon":13.547783851623535,"house_number":"","pub_date":"02\/04\/2020","street":"","tel":"","id":"59","facility_type":"","list_specs":"","lat":55.93321228027344,"email":"","hospital_name":"Lydiagården Höör","cc":"SE","public_private":"","postcode":"","url":"","site_name":"","geo_qual":"-1"},"id":"17725"},{"type":"Feature","geometry":{"type":"Point","coordinates":[12.7304,56.0418]},"properties":{"country":"Sweden","city":"Skåne","emergency":"","ref_date":"01\/01\/18","lon":12.730361938476562,"house_number":"","pub_date":"02\/04\/2020","street":"","tel":"","id":"60","facility_type":"","list_specs":"","lat":56.04181671142578,"email":"","hospital_name":"Palliativ sjukhusvård Helsingborg","cc":"SE","public_private":"","postcode":"","url":"","site_name":"","geo_qual":"-1"},"id":"17726"},{"type":"Feature","geometry":{"type":"Point","coordinates":[14.1687,56.0365]},"properties":{"country":"Sweden","city":"Skåne","emergency":"","ref_date":"01\/01\/18","lon":14.168658256530762,"house_number":"","pub_date":"02\/04\/2020","street":"","tel":"","id":"61","facility_type":"","list_specs":"","lat":56.036521911621094,"email":"","hospital_name":"Palliativ sjukhusvård Kristianstad","cc":"SE","public_private":"","postcode":"","url":"","site_name":"","geo_qual":"-1"},"id":"17727"},{"type":"Feature","geometry":{"type":"Point","coordinates":[14.3423,55.5538]},"properties":{"country":"Sweden","city":"Skåne","emergency":"","ref_date":"01\/01\/18","lon":14.342297554016113,"house_number":"","pub_date":"02\/04\/2020","street":"","tel":"","id":"62","facility_type":"","list_specs":"","lat":55.55376052856445,"email":"","hospital_name":"Praktikertjänst Närsjukhus Simrishamn","cc":"SE","public_private":"","postcode":"","url":"","site_name":"","geo_qual":"-1"},"id":"17728"},{"type":"Feature","geometry":{"type":"Point","coordinates":[13.1986,55.7112]},"properties":{"country":"Sweden","city":"Skåne","emergency":"","ref_date":"01\/01\/18","lon":13.19861,"house_number":"","pub_date":"02\/04\/2020","street":"","tel":"","id":"63","facility_type":"","list_specs":"","lat":55.711204,"email":"","hospital_name":"Skånes universitetssjukhus, Lund","cc":"SE","public_private":"","postcode":"","url":"","site_name":"","geo_qual":"-1"},"id":"17729"},{"type":"Feature","geometry":{"type":"Point","coordinates":[13.0012,55.5967]},"properties":{"country":"Sweden","city":"Skåne","emergency":"","ref_date":"01\/01\/18","lon":13.001219749450684,"house_number":"","pub_date":"02\/04\/2020","street":"","tel":"","id":"64","facility_type":"","list_specs":"","lat":55.5966911315918,"email":"","hospital_name":"Skånes universitetssjukhus, Malmö","cc":"SE","public_private":"","postcode":"","url":"","site_name":"","geo_qual":"-1"},"id":"17730"},{"type":"Feature","geometry":{"type":"Point","coordinates":[12.7065,56.0604]},"properties":{"country":"Sweden","city":"Skåne","emergency":"","ref_date":"01\/01\/18","lon":12.70645,"house_number":"","pub_date":"02\/04\/2020","street":"","tel":"","id":"65","facility_type":"","list_specs":"","lat":56.06036,"email":"","hospital_name":"Ängelholms sjukhus","cc":"SE","public_private":"","postcode":"","url":"","site_name":"","geo_qual":"-1"},"id":"17731"},{"type":"Feature","geometry":{"type":"Point","coordinates":[12.8575,56.6723]},"properties":{"country":"Sweden","city":"Halland","emergency":"","ref_date":"01\/01\/18","lon":12.857500076293945,"house_number":"","pub_date":"02\/04\/2020","street":"","tel":"","id":"66","facility_type":"","list_specs":"","lat":56.67226028442383,"email":"","hospital_name":"Capio Movement Halmstad","cc":"SE","public_private":"","postcode":"","url":"","site_name":"","geo_qual":"-1"},"id":"17732"},{"type":"Feature","geometry":{"type":"Point","coordinates":[12.086,57.4945]},"properties":{"country":"Sweden","city":"Halland","emergency":"","ref_date":"01\/01\/18","lon":12.085968,"house_number":"","pub_date":"02\/04\/2020","street":"","tel":"","id":"67","facility_type":"","list_specs":"","lat":57.494538,"email":"","hospital_name":"Hallands sjukhus","cc":"SE","public_private":"","postcode":"","url":"","site_name":"","geo_qual":"-1"},"id":"17733"},{"type":"Feature","geometry":{"type":"Point","coordinates":[12.5005,56.9073]},"properties":{"country":"Sweden","city":"Halland","emergency":"","ref_date":"01\/01\/18","lon":12.500539,"house_number":"","pub_date":"02\/04\/2020","street":"","tel":"","id":"68","facility_type":"","list_specs":"","lat":56.907252,"email":"","hospital_name":"Palliativa allmänna vårdavd","cc":"SE","public_private":"","postcode":"","url":"","site_name":"","geo_qual":"-1"},"id":"17734"},{"type":"Feature","geometry":{"type":"Point","coordinates":[12.5223,57.9297]},"properties":{"country":"Sweden","city":"Västra Götaland","emergency":"","ref_date":"01\/01\/18","lon":12.52234,"house_number":"","pub_date":"02\/04\/2020","street":"","tel":"","id":"69","facility_type":"","list_specs":"","lat":57.92968,"email":"","hospital_name":"Alingsås lasarett","cc":"SE","public_private":"","postcode":"","url":"","site_name":"","geo_qual":"-1"},"id":"17735"},{"type":"Feature","geometry":{"type":"Point","coordinates":[11.9127,57.6505]},"properties":{"country":"Sweden","city":"Västra Götaland","emergency":"","ref_date":"01\/01\/18","lon":11.912671,"house_number":"","pub_date":"02\/04\/2020","street":"","tel":"","id":"70","facility_type":"","list_specs":"","lat":57.650495,"email":"","hospital_name":"Frölunda specialistsjukhus","cc":"SE","public_private":"","postcode":"","url":"","site_name":"","geo_qual":"-1"},"id":"17736"},{"type":"Feature","geometry":{"type":"Point","coordinates":[11.9697,57.8785]},"properties":{"country":"Sweden","city":"Västra Götaland","emergency":"","ref_date":"01\/01\/18","lon":11.969664,"house_number":"","pub_date":"02\/04\/2020","street":"","tel":"","id":"71","facility_type":"","list_specs":"","lat":57.878457,"email":"","hospital_name":"Kungälvs sjukhus","cc":"SE","public_private":"","postcode":"","url":"","site_name":"","geo_qual":"-1"},"id":"17737"},{"type":"Feature","geometry":{"type":"Point","coordinates":[11.9367,57.7211]},"properties":{"country":"Sweden","city":"Västra Götaland","emergency":"","ref_date":"01\/01\/18","lon":11.936681,"house_number":"","pub_date":"02\/04\/2020","street":"","tel":"","id":"72","facility_type":"","list_specs":"","lat":57.721113,"email":"","hospital_name":"Lundby sjukhus AB","cc":"SE","public_private":"","postcode":"","url":"","site_name":"","geo_qual":"-1"},"id":"17738"},{"type":"Feature","geometry":{"type":"Point","coordinates":[12.2669,58.3182]},"properties":{"country":"Sweden","city":"Västra Götaland","emergency":"","ref_date":"01\/01\/18","lon":12.266875,"house_number":"","pub_date":"02\/04\/2020","street":"","tel":"","id":"73","facility_type":"","list_specs":"","lat":58.318229,"email":"","hospital_name":"NU-sjukvården","cc":"SE","public_private":"","postcode":"","url":"","site_name":"","geo_qual":"-1"},"id":"17739"},{"type":"Feature","geometry":{"type":"Point","coordinates":[11.9618,57.6827]},"properties":{"country":"Sweden","city":"Västra Götaland","emergency":"","ref_date":"01\/01\/18","lon":11.961790084838867,"house_number":"","pub_date":"02\/04\/2020","street":"","tel":"","id":"74","facility_type":"","list_specs":"","lat":57.68267059326172,"email":"","hospital_name":"Sahlgrenska universitetssjukhuset","cc":"SE","public_private":"","postcode":"","url":"","site_name":"","geo_qual":"-1"},"id":"17740"},{"type":"Feature","geometry":{"type":"Point","coordinates":[14.5283,58.5348]},"properties":{"country":"Sweden","city":"Västra Götaland","emergency":"","ref_date":"01\/01\/18","lon":14.52833,"house_number":"","pub_date":"02\/04\/2020","street":"","tel":"","id":"75","facility_type":"","list_specs":"","lat":58.53477,"email":"","hospital_name":"Skaraborgs sjukhus","cc":"SE","public_private":"","postcode":"","url":"","site_name":"","geo_qual":"-1"},"id":"17741"},{"type":"Feature","geometry":{"type":"Point","coordinates":[11.9682,57.7007]},"properties":{"country":"Sweden","city":"Västra Götaland","emergency":"","ref_date":"01\/01\/18","lon":11.968219757080078,"house_number":"","pub_date":"02\/04\/2020","street":"","tel":"","id":"76","facility_type":"","list_specs":"","lat":57.70066833496094,"email":"","hospital_name":"Stadsmissionen Göteborg","cc":"SE","public_private":"","postcode":"","url":"","site_name":"","geo_qual":"-1"},"id":"17742"},{"type":"Feature","geometry":{"type":"Point","coordinates":[12.9612,57.7242]},"properties":{"country":"Sweden","city":"Västra Götaland","emergency":"","ref_date":"01\/01\/18","lon":12.961219,"house_number":"","pub_date":"02\/04\/2020","street":"","tel":"","id":"77","facility_type":"","list_specs":"","lat":57.724226,"email":"","hospital_name":"Södra Älvsborgs sjukhus","cc":"SE","public_private":"","postcode":"","url":"","site_name":"","geo_qual":"-1"},"id":"17743"},{"type":"Feature","geometry":{"type":"Point","coordinates":[11.9895,57.6925]},"properties":{"country":"Sweden","city":"Västra Götaland","emergency":"","ref_date":"01\/01\/18","lon":11.989493,"house_number":"","pub_date":"02\/04\/2020","street":"","tel":"","id":"78","facility_type":"","list_specs":"","lat":57.692534,"email":"","hospital_name":"Carlanderska sjukhemmet","cc":"SE","public_private":"","postcode":"","url":"","site_name":"","geo_qual":"-1"},"id":"17744"},{"type":"Feature","geometry":{"type":"Point","coordinates":[13.1525,58.4979]},"properties":{"country":"Sweden","city":"Västra Götaland","emergency":"","ref_date":"01\/01\/18","lon":13.152461,"house_number":"","pub_date":"02\/04\/2020","street":"","tel":"","id":"79","facility_type":"","list_specs":"","lat":58.497937,"email":"","hospital_name":"Hospice Gabriel","cc":"SE","public_private":"","postcode":"","url":"","site_name":"","geo_qual":"-1"},"id":"17745"},{"type":"Feature","geometry":{"type":"Point","coordinates":[13.7045,60.0309]},"properties":{"country":"Sweden","city":"Värmland","emergency":"","ref_date":"01\/01\/18","lon":13.70454,"house_number":"","pub_date":"02\/04\/2020","street":"","tel":"","id":"80","facility_type":"","list_specs":"","lat":60.03085,"email":"","hospital_name":"Arvika sjukhus","cc":"SE","public_private":"","postcode":"","url":"","site_name":"","geo_qual":"-1"},"id":"17746"},{"type":"Feature","geometry":{"type":"Point","coordinates":[13.478,59.3748]},"properties":{"country":"Sweden","city":"Värmland","emergency":"","ref_date":"01\/01\/18","lon":13.478027,"house_number":"","pub_date":"02\/04\/2020","street":"","tel":"","id":"81","facility_type":"","list_specs":"","lat":59.374776,"email":"","hospital_name":"Centralsjukhuset Karlstad","cc":"SE","public_private":"","postcode":"","url":"","site_name":"","geo_qual":"-1"},"id":"17747"},{"type":"Feature","geometry":{"type":"Point","coordinates":[14.1083,59.3146]},"properties":{"country":"Sweden","city":"Värmland","emergency":"","ref_date":"01\/01\/18","lon":14.108336448669434,"house_number":"","pub_date":"02\/04\/2020","street":"","tel":"","id":"82","facility_type":"","list_specs":"","lat":59.31459045410156,"email":"","hospital_name":"Sjukhuset i Kristinehamn","cc":"SE","public_private":"","postcode":"","url":"","site_name":"","geo_qual":"-1"},"id":"17748"},{"type":"Feature","geometry":{"type":"Point","coordinates":[12.9334,59.1359]},"properties":{"country":"Sweden","city":"Värmland","emergency":"","ref_date":"01\/01\/18","lon":12.933425,"house_number":"","pub_date":"02\/04\/2020","street":"","tel":"","id":"83","facility_type":"","list_specs":"","lat":59.135863,"email":"","hospital_name":"Sjukhuset i Säffle","cc":"SE","public_private":"","postcode":"","url":"","site_name":"","geo_qual":"-1"},"id":"17749"},{"type":"Feature","geometry":{"type":"Point","coordinates":[13.7045,60.0309]},"properties":{"country":"Sweden","city":"Värmland","emergency":"","ref_date":"01\/01\/18","lon":13.70454,"house_number":"","pub_date":"02\/04\/2020","street":"","tel":"","id":"84","facility_type":"","list_specs":"","lat":60.03085,"email":"","hospital_name":"Torsby sjukhus","cc":"SE","public_private":"","postcode":"","url":"","site_name":"","geo_qual":"-1"},"id":"17750"},{"type":"Feature","geometry":{"type":"Point","coordinates":[14.5079,59.3161]},"properties":{"country":"Sweden","city":"Örebro","emergency":"","ref_date":"01\/01\/18","lon":14.50786,"house_number":"","pub_date":"02\/04\/2020","street":"","tel":"","id":"85","facility_type":"","list_specs":"","lat":59.31608,"email":"","hospital_name":"Karlskoga lasarett","cc":"SE","public_private":"","postcode":"","url":"","site_name":"","geo_qual":"-1"},"id":"17751"},{"type":"Feature","geometry":{"type":"Point","coordinates":[15.2167,59.6021]},"properties":{"country":"Sweden","city":"Örebro","emergency":"","ref_date":"01\/01\/18","lon":15.216675,"house_number":"","pub_date":"02\/04\/2020","street":"","tel":"","id":"86","facility_type":"","list_specs":"","lat":59.602146,"email":"","hospital_name":"Lindesbergs lasarett","cc":"SE","public_private":"","postcode":"","url":"","site_name":"","geo_qual":"-1"},"id":"17752"},{"type":"Feature","geometry":{"type":"Point","coordinates":[15.2251,59.2755]},"properties":{"country":"Sweden","city":"Örebro","emergency":"","ref_date":"01\/01\/18","lon":15.225082,"house_number":"","pub_date":"02\/04\/2020","street":"","tel":"","id":"87","facility_type":"","list_specs":"","lat":59.275458,"email":"","hospital_name":"Universitetssjukhuset i Örebro","cc":"SE","public_private":"","postcode":"","url":"","site_name":"","geo_qual":"-1"},"id":"17753"},{"type":"Feature","geometry":{"type":"Point","coordinates":[15.8096,59.9969]},"properties":{"country":"Sweden","city":"Västmanland","emergency":"","ref_date":"01\/01\/18","lon":15.809639930725098,"house_number":"","pub_date":"02\/04\/2020","street":"","tel":"","id":"88","facility_type":"","list_specs":"","lat":59.99690246582031,"email":"","hospital_name":"Närsjukh. Primärv Fagersta","cc":"SE","public_private":"","postcode":"","url":"","site_name":"","geo_qual":"-1"},"id":"17754"},{"type":"Feature","geometry":{"type":"Point","coordinates":[15.9966,59.5106]},"properties":{"country":"Sweden","city":"Västmanland","emergency":"","ref_date":"01\/01\/18","lon":15.996578216552734,"house_number":"","pub_date":"02\/04\/2020","street":"","tel":"","id":"89","facility_type":"","list_specs":"","lat":59.51056671142578,"email":"","hospital_name":"Sjukhuset i Köping","cc":"SE","public_private":"","postcode":"","url":"","site_name":"","geo_qual":"-1"},"id":"17755"},{"type":"Feature","geometry":{"type":"Point","coordinates":[16.6019,59.9239]},"properties":{"country":"Sweden","city":"Västmanland","emergency":"","ref_date":"01\/01\/18","lon":16.601866,"house_number":"","pub_date":"02\/04\/2020","street":"","tel":"","id":"90","facility_type":"","list_specs":"","lat":59.923946,"email":"","hospital_name":"Sjukhuset i Sala","cc":"SE","public_private":"","postcode":"","url":"","site_name":"","geo_qual":"-1"},"id":"17756"},{"type":"Feature","geometry":{"type":"Point","coordinates":[16.5453,59.6096]},"properties":{"country":"Sweden","city":"Västmanland","emergency":"","ref_date":"01\/01\/18","lon":16.54534912109375,"house_number":"","pub_date":"02\/04\/2020","street":"","tel":"","id":"91","facility_type":"","list_specs":"","lat":59.609580993652344,"email":"","hospital_name":"Sjukhuset i Västerås","cc":"SE","public_private":"","postcode":"","url":"","site_name":"","geo_qual":"-1"},"id":"17757"},{"type":"Feature","geometry":{"type":"Point","coordinates":[16.2008,60.1412]},"properties":{"country":"Sweden","city":"Dalarna","emergency":"","ref_date":"01\/01\/18","lon":16.200819,"house_number":"","pub_date":"02\/04\/2020","street":"","tel":"","id":"92","facility_type":"","list_specs":"","lat":60.141154,"email":"","hospital_name":"Avesta lasarett","cc":"SE","public_private":"","postcode":"","url":"","site_name":"","geo_qual":"-1"},"id":"17758"},{"type":"Feature","geometry":{"type":"Point","coordinates":[15.4658,60.5039]},"properties":{"country":"Sweden","city":"Darlana","emergency":"","ref_date":"01\/01\/18","lon":15.465829,"house_number":"","pub_date":"02\/04\/2020","street":"","tel":"","id":"93","facility_type":"","list_specs":"","lat":60.503941,"email":"","hospital_name":"Borlänge sjukhus","cc":"SE","public_private":"","postcode":"","url":"","site_name":"","geo_qual":"-1"},"id":"17759"},{"type":"Feature","geometry":{"type":"Point","coordinates":[15.6471,60.6079]},"properties":{"country":"Sweden","city":"Dalarna","emergency":"","ref_date":"01\/01\/18","lon":15.64706,"house_number":"","pub_date":"02\/04\/2020","street":"","tel":"","id":"94","facility_type":"","list_specs":"","lat":60.60785,"email":"","hospital_name":"Falu lasarett","cc":"SE","public_private":"","postcode":"","url":"","site_name":"","geo_qual":"-1"},"id":"17760"},{"type":"Feature","geometry":{"type":"Point","coordinates":[15.1952,60.139]},"properties":{"country":"Sweden","city":"Dalarna","emergency":"","ref_date":"01\/01\/18","lon":15.195231437683105,"house_number":"","pub_date":"02\/04\/2020","street":"","tel":"","id":"95","facility_type":"","list_specs":"","lat":60.139015197753906,"email":"","hospital_name":"Ludvika lasarett","cc":"SE","public_private":"","postcode":"","url":"","site_name":"","geo_qual":"-1"},"id":"17761"},{"type":"Feature","geometry":{"type":"Point","coordinates":[14.5823,61.0114]},"properties":{"country":"Sweden","city":"Dalarna","emergency":"","ref_date":"01\/01\/18","lon":14.58232,"house_number":"","pub_date":"02\/04\/2020","street":"","tel":"","id":"96","facility_type":"","list_specs":"","lat":61.01144,"email":"","hospital_name":"Mora lasarett","cc":"SE","public_private":"","postcode":"","url":"","site_name":"","geo_qual":"-1"},"id":"17762"},{"type":"Feature","geometry":{"type":"Point","coordinates":[15.7159,60.3405]},"properties":{"country":"Sweden","city":"Dalarna","emergency":"","ref_date":"01\/01\/18","lon":15.715904,"house_number":"","pub_date":"02\/04\/2020","street":"","tel":"","id":"97","facility_type":"","list_specs":"","lat":60.34053,"email":"","hospital_name":"Säters sjukhus, psykiatri","cc":"SE","public_private":"","postcode":"","url":"","site_name":"","geo_qual":"-1"},"id":"17763"},{"type":"Feature","geometry":{"type":"Point","coordinates":[16.1284,61.8256]},"properties":{"country":"Sweden","city":"Gävleborg","emergency":"","ref_date":"01\/01\/18","lon":16.12839,"house_number":"","pub_date":"02\/04\/2020","street":"","tel":"","id":"98","facility_type":"","list_specs":"","lat":61.82557,"email":"","hospital_name":"Hudiksvalls sjukhus","cc":"SE","public_private":"","postcode":"","url":"","site_name":"","geo_qual":"-1"},"id":"17764"},{"type":"Feature","geometry":{"type":"Point","coordinates":[16.3689,61.3516]},"properties":{"country":"Sweden","city":"Gävleborg","emergency":"","ref_date":"01\/01\/18","lon":16.36891,"house_number":"","pub_date":"02\/04\/2020","street":"","tel":"","id":"99","facility_type":"","list_specs":"","lat":61.35162,"email":"","hospital_name":"Bollnäs sjukhus (Aleris)","cc":"SE","public_private":"","postcode":"","url":"","site_name":"","geo_qual":"-1"},"id":"17765"},{"type":"Feature","geometry":{"type":"Point","coordinates":[16.3689,61.3516]},"properties":{"country":"Sweden","city":"Gävleborg","emergency":"","ref_date":"01\/01\/18","lon":16.36891,"house_number":"","pub_date":"02\/04\/2020","street":"","tel":"","id":"100","facility_type":"","list_specs":"","lat":61.35162,"email":"","hospital_name":"Gävle sjukhus","cc":"SE","public_private":"","postcode":"","url":"","site_name":"","geo_qual":"-1"},"id":"17766"},{"type":"Feature","geometry":{"type":"Point","coordinates":[16.1092,61.8283]},"properties":{"country":"Sweden","city":"Gävleborg","emergency":"","ref_date":"01\/01\/18","lon":16.109194,"house_number":"","pub_date":"02\/04\/2020","street":"","tel":"","id":"101","facility_type":"","list_specs":"","lat":61.828258,"email":"","hospital_name":"Ljusdals närsjukhus","cc":"SE","public_private":"","postcode":"","url":"","site_name":"","geo_qual":"-1"},"id":"17767"},{"type":"Feature","geometry":{"type":"Point","coordinates":[16.7596,60.609]},"properties":{"country":"Sweden","city":"Gävleborg","emergency":"","ref_date":"01\/01\/18","lon":16.759624,"house_number":"","pub_date":"02\/04\/2020","street":"","tel":"","id":"102","facility_type":"","list_specs":"","lat":60.608992,"email":"","hospital_name":"Sandvikens närsjukhus","cc":"SE","public_private":"","postcode":"","url":"","site_name":"","geo_qual":"-1"},"id":"17768"},{"type":"Feature","geometry":{"type":"Point","coordinates":[17.4361,62.526]},"properties":{"country":"Sweden","city":"Västernorrland","emergency":"","ref_date":"01\/01\/18","lon":17.436140060424805,"house_number":"","pub_date":"02\/04\/2020","street":"","tel":"","id":"103","facility_type":"","list_specs":"","lat":62.526031494140625,"email":"","hospital_name":"Länssjukhuset Sundsvall-Härnösand","cc":"SE","public_private":"","postcode":"","url":"","site_name":"","geo_qual":"-1"},"id":"17769"},{"type":"Feature","geometry":{"type":"Point","coordinates":[17.2525,63.1036]},"properties":{"country":"Sweden","city":"Västernorrland","emergency":"","ref_date":"01\/01\/18","lon":17.252464294433594,"house_number":"","pub_date":"02\/04\/2020","street":"","tel":"","id":"104","facility_type":"","list_specs":"","lat":63.103633880615234,"email":"","hospital_name":"Mellannorrlands Hospice AB","cc":"SE","public_private":"","postcode":"","url":"","site_name":"","geo_qual":"-1"},"id":"17770"},{"type":"Feature","geometry":{"type":"Point","coordinates":[17.2727,63.168]},"properties":{"country":"Sweden","city":"Västernorrland","emergency":"","ref_date":"01\/01\/18","lon":17.272720336914062,"house_number":"","pub_date":"02\/04\/2020","street":"","tel":"","id":"105","facility_type":"","list_specs":"","lat":63.16801071166992,"email":"","hospital_name":"Sollefteå sjukhus","cc":"SE","public_private":"","postcode":"","url":"","site_name":"","geo_qual":"-1"},"id":"17771"},{"type":"Feature","geometry":{"type":"Point","coordinates":[18.7146,63.299]},"properties":{"country":"Sweden","city":"Västernorrland","emergency":"","ref_date":"01\/01\/18","lon":18.71459,"house_number":"","pub_date":"02\/04\/2020","street":"","tel":"","id":"106","facility_type":"","list_specs":"","lat":63.29898,"email":"","hospital_name":"Örnsköldsviks sjukhus","cc":"SE","public_private":"","postcode":"","url":"","site_name":"","geo_qual":"-1"},"id":"17772"},{"type":"Feature","geometry":{"type":"Point","coordinates":[14.3748,62.0351]},"properties":{"country":"Sweden","city":"Jämtland Härjedalen","emergency":"","ref_date":"01\/01\/18","lon":14.37477970123291,"house_number":"","pub_date":"02\/04\/2020","street":"","tel":"","id":"107","facility_type":"","list_specs":"","lat":62.035118103027344,"email":"","hospital_name":"Näva, Strömsund","cc":"SE","public_private":"","postcode":"","url":"","site_name":"","geo_qual":"-1"},"id":"17773"},{"type":"Feature","geometry":{"type":"Point","coordinates":[14.3748,62.0351]},"properties":{"country":"Sweden","city":"Jämtland Härjedalen","emergency":"","ref_date":"01\/01\/18","lon":14.37477970123291,"house_number":"","pub_date":"02\/04\/2020","street":"","tel":"","id":"108","facility_type":"","list_specs":"","lat":62.035118103027344,"email":"","hospital_name":"Östersunds sjukhus","cc":"SE","public_private":"","postcode":"","url":"","site_name":"","geo_qual":"-1"},"id":"17774"},{"type":"Feature","geometry":{"type":"Point","coordinates":[20.1767,63.8361]},"properties":{"country":"Sweden","city":"Västerbotten","emergency":"","ref_date":"01\/01\/18","lon":20.17669,"house_number":"","pub_date":"02\/04\/2020","street":"","tel":"","id":"109","facility_type":"","list_specs":"","lat":63.83611,"email":"","hospital_name":"Axlagården","cc":"SE","public_private":"","postcode":"","url":"","site_name":"","geo_qual":"-1"},"id":"17775"},{"type":"Feature","geometry":{"type":"Point","coordinates":[16.4181,64.2593]},"properties":{"country":"Sweden","city":"Västerbotten","emergency":"","ref_date":"01\/01\/18","lon":16.418072,"house_number":"","pub_date":"02\/04\/2020","street":"","tel":"","id":"110","facility_type":"","list_specs":"","lat":64.259299,"email":"","hospital_name":"Dorotea sjukstuga","cc":"SE","public_private":"","postcode":"","url":"","site_name":"","geo_qual":"-1"},"id":"17776"},{"type":"Feature","geometry":{"type":"Point","coordinates":[18.6792,64.5852]},"properties":{"country":"Sweden","city":"Västerbotten","emergency":"","ref_date":"01\/01\/18","lon":18.679249,"house_number":"","pub_date":"02\/04\/2020","street":"","tel":"","id":"111","facility_type":"","list_specs":"","lat":64.585205,"email":"","hospital_name":"Lycksele lasarett","cc":"SE","public_private":"","postcode":"","url":"","site_name":"","geo_qual":"-1"},"id":"17777"},{"type":"Feature","geometry":{"type":"Point","coordinates":[18.7556,65.1753]},"properties":{"country":"Sweden","city":"Västerbotten","emergency":"","ref_date":"01\/01\/18","lon":18.755641,"house_number":"","pub_date":"02\/04\/2020","street":"","tel":"","id":"112","facility_type":"","list_specs":"","lat":65.17532,"email":"","hospital_name":"Malå sjukstuga","cc":"SE","public_private":"","postcode":"","url":"","site_name":"","geo_qual":"-1"},"id":"17778"},{"type":"Feature","geometry":{"type":"Point","coordinates":[20.2979,63.8175]},"properties":{"country":"Sweden","city":"Västerbotten","emergency":"","ref_date":"01\/01\/18","lon":20.29792022705078,"house_number":"","pub_date":"02\/04\/2020","street":"","tel":"","id":"113","facility_type":"","list_specs":"","lat":63.81752014160156,"email":"","hospital_name":"Norrlands Universitetssjukhus","cc":"SE","public_private":"","postcode":"","url":"","site_name":"","geo_qual":"-1"},"id":"17779"},{"type":"Feature","geometry":{"type":"Point","coordinates":[20.9419,64.7573]},"properties":{"country":"Sweden","city":"Västerbotten","emergency":"","ref_date":"01\/01\/18","lon":20.94185,"house_number":"","pub_date":"02\/04\/2020","street":"","tel":"","id":"114","facility_type":"","list_specs":"","lat":64.75726,"email":"","hospital_name":"Skellefteå lasarett","cc":"SE","public_private":"","postcode":"","url":"","site_name":"","geo_qual":"-1"},"id":"17780"},{"type":"Feature","geometry":{"type":"Point","coordinates":[17.541,65.5373]},"properties":{"country":"Sweden","city":"Västerbotten","emergency":"","ref_date":"01\/01\/18","lon":17.541003,"house_number":"","pub_date":"02\/04\/2020","street":"","tel":"","id":"115","facility_type":"","list_specs":"","lat":65.537307,"email":"","hospital_name":"Sorsele sjukstuga","cc":"SE","public_private":"","postcode":"","url":"","site_name":"","geo_qual":"-1"},"id":"17781"},{"type":"Feature","geometry":{"type":"Point","coordinates":[17.1218,65.097]},"properties":{"country":"Sweden","city":"Västerbotten","emergency":"","ref_date":"01\/01\/18","lon":17.121805,"house_number":"","pub_date":"02\/04\/2020","street":"","tel":"","id":"116","facility_type":"","list_specs":"","lat":65.096957,"email":"","hospital_name":"Storuman sjukstuga","cc":"SE","public_private":"","postcode":"","url":"","site_name":"","geo_qual":"-1"},"id":"17782"},{"type":"Feature","geometry":{"type":"Point","coordinates":[15.3132,65.7157]},"properties":{"country":"Sweden","city":"Västerbotten","emergency":"","ref_date":"01\/01\/18","lon":15.313197,"house_number":"","pub_date":"02\/04\/2020","street":"","tel":"","id":"117","facility_type":"","list_specs":"","lat":65.715738,"email":"","hospital_name":"Tärnaby sjukstuga","cc":"SE","public_private":"","postcode":"","url":"","site_name":"","geo_qual":"-1"},"id":"17783"},{"type":"Feature","geometry":{"type":"Point","coordinates":[16.6616,64.6252]},"properties":{"country":"Sweden","city":"Västerbotten","emergency":"","ref_date":"01\/01\/18","lon":16.661627,"house_number":"","pub_date":"02\/04\/2020","street":"","tel":"","id":"118","facility_type":"","list_specs":"","lat":64.625216,"email":"","hospital_name":"Vilhelmina sjukstuga","cc":"SE","public_private":"","postcode":"","url":"","site_name":"","geo_qual":"-1"},"id":"17784"},{"type":"Feature","geometry":{"type":"Point","coordinates":[17.3596,64.161]},"properties":{"country":"Sweden","city":"Västerbotten","emergency":"","ref_date":"01\/01\/18","lon":17.359634,"house_number":"","pub_date":"02\/04\/2020","street":"","tel":"","id":"119","facility_type":"","list_specs":"","lat":64.160975,"email":"","hospital_name":"Åsele sjukstuga","cc":"SE","public_private":"","postcode":"","url":"","site_name":"","geo_qual":"-1"},"id":"17785"},{"type":"Feature","geometry":{"type":"Point","coordinates":[17.8919,66.05]},"properties":{"country":"Sweden","city":"Norrbotten","emergency":"","ref_date":"01\/01\/18","lon":17.891863,"house_number":"","pub_date":"02\/04\/2020","street":"","tel":"","id":"120","facility_type":"","list_specs":"","lat":66.04996,"email":"","hospital_name":"Arjeplog vårdcentral","cc":"SE","public_private":"","postcode":"","url":"","site_name":"","geo_qual":"-1"},"id":"17786"},{"type":"Feature","geometry":{"type":"Point","coordinates":[19.1681,65.5966]},"properties":{"country":"Sweden","city":"Norrbotten","emergency":"","ref_date":"01\/01\/18","lon":19.168086,"house_number":"","pub_date":"02\/04\/2020","street":"","tel":"","id":"121","facility_type":"","list_specs":"","lat":65.596649,"email":"","hospital_name":"Arvidsjaur vårdcentral","cc":"SE","public_private":"","postcode":"","url":"","site_name":"","geo_qual":"-1"},"id":"17787"},{"type":"Feature","geometry":{"type":"Point","coordinates":[20.6874,67.1313]},"properties":{"country":"Sweden","city":"Norrbotten","emergency":"","ref_date":"01\/01\/18","lon":20.687395,"house_number":"","pub_date":"02\/04\/2020","street":"","tel":"","id":"122","facility_type":"","list_specs":"","lat":67.13133,"email":"","hospital_name":"Gällivare sjukhus","cc":"SE","public_private":"","postcode":"","url":"","site_name":"","geo_qual":"-1"},"id":"17788"},{"type":"Feature","geometry":{"type":"Point","coordinates":[19.8434,66.6021]},"properties":{"country":"Sweden","city":"Norrbotten","emergency":"","ref_date":"01\/01\/18","lon":19.843368,"house_number":"","pub_date":"02\/04\/2020","street":"","tel":"","id":"123","facility_type":"","list_specs":"","lat":66.602087,"email":"","hospital_name":"Jokkmokk vårdcentral","cc":"SE","public_private":"","postcode":"","url":"","site_name":"","geo_qual":"-1"},"id":"17789"},{"type":"Feature","geometry":{"type":"Point","coordinates":[23.1564,65.8547]},"properties":{"country":"Sweden","city":"Norrbotten","emergency":"","ref_date":"01\/01\/18","lon":23.156408,"house_number":"","pub_date":"02\/04\/2020","street":"","tel":"","id":"124","facility_type":"","list_specs":"","lat":65.854716,"email":"","hospital_name":"Kalix sjukhus","cc":"SE","public_private":"","postcode":"","url":"","site_name":"","geo_qual":"-1"},"id":"17790"},{"type":"Feature","geometry":{"type":"Point","coordinates":[20.24,67.8498]},"properties":{"country":"Sweden","city":"Norrbotten","emergency":"","ref_date":"01\/01\/18","lon":20.239989,"house_number":"","pub_date":"02\/04\/2020","street":"","tel":"","id":"125","facility_type":"","list_specs":"","lat":67.849807,"email":"","hospital_name":"Kiruna sjukhus","cc":"SE","public_private":"","postcode":"","url":"","site_name":"","geo_qual":"-1"},"id":"17791"},{"type":"Feature","geometry":{"type":"Point","coordinates":[23.3433,67.2237]},"properties":{"country":"Sweden","city":"Norrbotten","emergency":"","ref_date":"01\/01\/18","lon":23.343286,"house_number":"","pub_date":"02\/04\/2020","street":"","tel":"","id":"126","facility_type":"","list_specs":"","lat":67.223678,"email":"","hospital_name":"Pajala  vårdcentral","cc":"SE","public_private":"","postcode":"","url":"","site_name":"","geo_qual":"-1"},"id":"17792"},{"type":"Feature","geometry":{"type":"Point","coordinates":[21.9311,65.6724]},"properties":{"country":"Sweden","city":"Norrbotten","emergency":"","ref_date":"01\/01\/18","lon":21.931057,"house_number":"","pub_date":"02\/04\/2020","street":"","tel":"","id":"127","facility_type":"","list_specs":"","lat":65.672435,"email":"","hospital_name":"Sunderby sjukhus","cc":"SE","public_private":"","postcode":"","url":"","site_name":"","geo_qual":"-1"},"id":"17793"},{"type":"Feature","geometry":{"type":"Point","coordinates":[22.8469,66.3385]},"properties":{"country":"Sweden","city":"Norrbotten","emergency":"","ref_date":"01\/01\/18","lon":22.846871,"house_number":"","pub_date":"02\/04\/2020","street":"","tel":"","id":"128","facility_type":"","list_specs":"","lat":66.338472,"email":"","hospital_name":"Överkalix  vårdcentral","cc":"SE","public_private":"","postcode":"","url":"","site_name":"","geo_qual":"-1"},"id":"17794"},{"type":"Feature","geometry":{"type":"Point","coordinates":[23.6531,66.3889]},"properties":{"country":"Sweden","city":"Norrbotten","emergency":"","ref_date":"01\/01\/18","lon":23.65306,"house_number":"","pub_date":"02\/04\/2020","street":"","tel":"","id":"129","facility_type":"","list_specs":"","lat":66.38895,"email":"","hospital_name":"Övertorneå  vårdcentral","cc":"SE","public_private":"","postcode":"","url":"","site_name":"","geo_qual":"-1"},"id":"17795"},{"type":"Feature","geometry":{"type":"Point","coordinates":[21.9256,65.671]},"properties":{"country":"Sweden","city":"Norrbotten","emergency":"","ref_date":"01\/01\/18","lon":21.92564,"house_number":"","pub_date":"02\/04\/2020","street":"","tel":"","id":"130","facility_type":"","list_specs":"","lat":65.67104,"email":"","hospital_name":"Piteå sjukhus","cc":"SE","public_private":"","postcode":"","url":"","site_name":"","geo_qual":"-1"},"id":"17796"},{"type":"Feature","geometry":{"type":"Point","coordinates":[18.2996,57.6479]},"properties":{"country":"Sweden","city":"Gotland","emergency":"","ref_date":"01\/01\/18","lon":18.29959,"house_number":"","pub_date":"02\/04\/2020","street":"","tel":"","id":"131","facility_type":"","list_specs":"","lat":57.64785,"email":"","hospital_name":"Visby lasarett","cc":"SE","public_private":"","postcode":"","url":"","site_name":"","geo_qual":"-1"},"id":"17797"},{"type":"Feature","geometry":{"type":"Point","coordinates":[16.7354,62.8218]},"properties":{"country":"Sweden","city":"Riket","emergency":"","ref_date":"01\/01\/18","lon":16.73538589477539,"house_number":"","pub_date":"02\/04\/2020","street":"","tel":"","id":"132","facility_type":"","list_specs":"","lat":62.82179260253906,"email":"","hospital_name":"Riket","cc":"SE","public_private":"","postcode":"","url":"","site_name":"","geo_qual":"-1"},"id":"17798"}]}