{"type":"FeatureCollection","features":[{"type":"Feature","geometry":{"type":"Point","coordinates":[18.0668,59.3326]},"properties":{"cc":"SE","country":"Sweden","public_private":"","city":"Stockholm","postcode":"","emergency":"","ref_date":"","lon":18.066829681396484,"house_number":"","url":"","site_name":"","pub_date":"2020_03_25","street":"","tel":"","id":"","facility_type":"","list_specs":"","lat":59.33256912231445,"email":"","hospital_name":"BB Stockholm"},"id":"10425"},{"type":"Feature","geometry":{"type":"Point","coordinates":[17.9745,59.2661]},"properties":{"cc":"SE","country":"Sweden","public_private":"","city":"Stockholm","postcode":"","emergency":"","ref_date":"","lon":17.97445,"house_number":"","url":"","site_name":"","pub_date":"2020_03_25","street":"","tel":"","id":"","facility_type":"","list_specs":"","lat":59.26611,"email":"","hospital_name":"Byle Gård"},"id":"10426"},{"type":"Feature","geometry":{"type":"Point","coordinates":[17.9773,59.3626]},"properties":{"cc":"SE","country":"Sweden","public_private":"","city":"Stockholm","postcode":"","emergency":"","ref_date":"","lon":17.97729,"house_number":"","url":"","site_name":"","pub_date":"2020_03_25","street":"","tel":"","id":"","facility_type":"","list_specs":"","lat":59.36257,"email":"","hospital_name":"Capio Maria AB"},"id":"10427"},{"type":"Feature","geometry":{"type":"Point","coordinates":[18.2882,59.2883]},"properties":{"cc":"SE","country":"Sweden","public_private":"","city":"Stockholm","postcode":"","emergency":"","ref_date":"","lon":18.288230895996094,"house_number":"","url":"","site_name":"","pub_date":"2020_03_25","street":"","tel":"","id":"","facility_type":"","list_specs":"","lat":59.288330078125,"email":"","hospital_name":"Capio Rehab Saltsjöbaden"},"id":"10428"},{"type":"Feature","geometry":{"type":"Point","coordinates":[18.0396,59.3925]},"properties":{"cc":"SE","country":"Sweden","public_private":"","city":"Stockholm","postcode":"","emergency":"","ref_date":"","lon":18.03958,"house_number":"","url":"","site_name":"","pub_date":"2020_03_25","street":"","tel":"","id":"","facility_type":"","list_specs":"","lat":59.39245,"email":"","hospital_name":"Danderyds sjukhus AB"},"id":"10429"},{"type":"Feature","geometry":{"type":"Point","coordinates":[18.0601,59.3094]},"properties":{"cc":"SE","country":"Sweden","public_private":"","city":"Stockholm","postcode":"","emergency":"","ref_date":"","lon":18.06007,"house_number":"","url":"","site_name":"","pub_date":"2020_03_25","street":"","tel":"","id":"","facility_type":"","list_specs":"","lat":59.30938,"email":"","hospital_name":"Ersta sjukhus"},"id":"10430"},{"type":"Feature","geometry":{"type":"Point","coordinates":[18.0668,59.3326]},"properties":{"cc":"SE","country":"Sweden","public_private":"","city":"Stockholm","postcode":"","emergency":"","ref_date":"","lon":18.066829681396484,"house_number":"","url":"","site_name":"","pub_date":"2020_03_25","street":"","tel":"","id":"","facility_type":"","list_specs":"","lat":59.33256912231445,"email":"","hospital_name":"Karolinska Universitetssjukhuset"},"id":"10431"},{"type":"Feature","geometry":{"type":"Point","coordinates":[18.0668,59.3326]},"properties":{"cc":"SE","country":"Sweden","public_private":"","city":"Stockholm","postcode":"","emergency":"","ref_date":"","lon":18.066829681396484,"house_number":"","url":"","site_name":"","pub_date":"2020_03_25","street":"","tel":"","id":"","facility_type":"","list_specs":"","lat":59.33256912231445,"email":"","hospital_name":"Mandometerkliniken Stockholm"},"id":"10432"},{"type":"Feature","geometry":{"type":"Point","coordinates":[18.0713,59.3192]},"properties":{"cc":"SE","country":"Sweden","public_private":"","city":"Stockholm","postcode":"","emergency":"","ref_date":"","lon":18.07132,"house_number":"","url":"","site_name":"","pub_date":"2020_03_25","street":"","tel":"","id":"","facility_type":"","list_specs":"","lat":59.3192,"email":"","hospital_name":"Maria Regina"},"id":"10433"},{"type":"Feature","geometry":{"type":"Point","coordinates":[18.0668,59.3326]},"properties":{"cc":"SE","country":"Sweden","public_private":"","city":"Stockholm","postcode":"","emergency":"","ref_date":"","lon":18.066829681396484,"house_number":"","url":"","site_name":"","pub_date":"2020_03_25","street":"","tel":"","id":"","facility_type":"","list_specs":"","lat":59.33256912231445,"email":"","hospital_name":"Ortopediska huset"},"id":"10434"},{"type":"Feature","geometry":{"type":"Point","coordinates":[18.0668,59.3326]},"properties":{"cc":"SE","country":"Sweden","public_private":"","city":"Stockholm","postcode":"","emergency":"","ref_date":"","lon":18.066829681396484,"house_number":"","url":"","site_name":"","pub_date":"2020_03_25","street":"","tel":"","id":"","facility_type":"","list_specs":"","lat":59.33256912231445,"email":"","hospital_name":"Rehab station Stockholm AB"},"id":"10435"},{"type":"Feature","geometry":{"type":"Point","coordinates":[18.0668,59.3326]},"properties":{"cc":"SE","country":"Sweden","public_private":"","city":"Stockholm","postcode":"","emergency":"","ref_date":"","lon":18.066829681396484,"house_number":"","url":"","site_name":"","pub_date":"2020_03_25","street":"","tel":"","id":"","facility_type":"","list_specs":"","lat":59.33256912231445,"email":"","hospital_name":"Rehabcenter Sfären"},"id":"10436"},{"type":"Feature","geometry":{"type":"Point","coordinates":[18.0668,59.3326]},"properties":{"cc":"SE","country":"Sweden","public_private":"","city":"Stockholm","postcode":"","emergency":"","ref_date":"","lon":18.066829681396484,"house_number":"","url":"","site_name":"","pub_date":"2020_03_25","street":"","tel":"","id":"","facility_type":"","list_specs":"","lat":59.33256912231445,"email":"","hospital_name":"S:t Eriks ögonsjukhus AB"},"id":"10437"},{"type":"Feature","geometry":{"type":"Point","coordinates":[18.0206,59.3341]},"properties":{"cc":"SE","country":"Sweden","public_private":"","city":"Stockholm","postcode":"","emergency":"","ref_date":"","lon":18.020615,"house_number":"","url":"","site_name":"","pub_date":"2020_03_25","street":"","tel":"","id":"","facility_type":"","list_specs":"","lat":59.334065,"email":"","hospital_name":"S:t Görans sjukhus AB"},"id":"10438"},{"type":"Feature","geometry":{"type":"Point","coordinates":[18.0668,59.3326]},"properties":{"cc":"SE","country":"Sweden","public_private":"","city":"Stockholm","postcode":"","emergency":"","ref_date":"","lon":18.066829681396484,"house_number":"","url":"","site_name":"","pub_date":"2020_03_25","street":"","tel":"","id":"","facility_type":"","list_specs":"","lat":59.33256912231445,"email":"","hospital_name":"Sophiahemmet"},"id":"10439"},{"type":"Feature","geometry":{"type":"Point","coordinates":[17.8998,59.3586]},"properties":{"cc":"SE","country":"Sweden","public_private":"","city":"Stockholm","postcode":"","emergency":"","ref_date":"","lon":17.899821,"house_number":"","url":"","site_name":"","pub_date":"2020_03_25","street":"","tel":"","id":"","facility_type":"","list_specs":"","lat":59.358606,"email":"","hospital_name":"Stockholms sjukhem Geriatrik Bromma"},"id":"10440"},{"type":"Feature","geometry":{"type":"Point","coordinates":[18.0668,59.3326]},"properties":{"cc":"SE","country":"Sweden","public_private":"","city":"Stockholm","postcode":"","emergency":"","ref_date":"","lon":18.066829681396484,"house_number":"","url":"","site_name":"","pub_date":"2020_03_25","street":"","tel":"","id":"","facility_type":"","list_specs":"","lat":59.33256912231445,"email":"","hospital_name":"Stångberga Legevisitten"},"id":"10441"},{"type":"Feature","geometry":{"type":"Point","coordinates":[18.0668,59.3326]},"properties":{"cc":"SE","country":"Sweden","public_private":"","city":"Stockholm","postcode":"","emergency":"","ref_date":"","lon":18.066829681396484,"house_number":"","url":"","site_name":"","pub_date":"2020_03_25","street":"","tel":"","id":"","facility_type":"","list_specs":"","lat":59.33256912231445,"email":"","hospital_name":"Södersjukhuset AB"},"id":"10442"},{"type":"Feature","geometry":{"type":"Point","coordinates":[18.0668,59.3326]},"properties":{"cc":"SE","country":"Sweden","public_private":"","city":"Stockholm","postcode":"","emergency":"","ref_date":"","lon":18.066829681396484,"house_number":"","url":"","site_name":"","pub_date":"2020_03_25","street":"","tel":"","id":"","facility_type":"","list_specs":"","lat":59.33256912231445,"email":"","hospital_name":"Dalens sjukhus"},"id":"10443"},{"type":"Feature","geometry":{"type":"Point","coordinates":[18.0668,59.3326]},"properties":{"cc":"SE","country":"Sweden","public_private":"","city":"Stockholm","postcode":"","emergency":"","ref_date":"","lon":18.066829681396484,"house_number":"","url":"","site_name":"","pub_date":"2020_03_25","street":"","tel":"","id":"","facility_type":"","list_specs":"","lat":59.33256912231445,"email":"","hospital_name":"Handens sjukhus"},"id":"10444"},{"type":"Feature","geometry":{"type":"Point","coordinates":[17.908,59.543]},"properties":{"cc":"SE","country":"Sweden","public_private":"","city":"Stockholm","postcode":"","emergency":"","ref_date":"","lon":17.90801,"house_number":"","url":"","site_name":"","pub_date":"2020_03_25","street":"","tel":"","id":"","facility_type":"","list_specs":"","lat":59.54301,"email":"","hospital_name":"Löwenströmska"},"id":"10445"},{"type":"Feature","geometry":{"type":"Point","coordinates":[18.069,59.3229]},"properties":{"cc":"SE","country":"Sweden","public_private":"","city":"Stockholm","postcode":"","emergency":"","ref_date":"","lon":18.069,"house_number":"","url":"","site_name":"","pub_date":"2020_03_25","street":"","tel":"","id":"","facility_type":"","list_specs":"","lat":59.32293,"email":"","hospital_name":"Mälargården"},"id":"10446"},{"type":"Feature","geometry":{"type":"Point","coordinates":[18.0601,59.3094]},"properties":{"cc":"SE","country":"Sweden","public_private":"","city":"Stockholm","postcode":"","emergency":"","ref_date":"","lon":18.06007,"house_number":"","url":"","site_name":"","pub_date":"2020_03_25","street":"","tel":"","id":"","facility_type":"","list_specs":"","lat":59.30938,"email":"","hospital_name":"Nacka sjukhus"},"id":"10447"},{"type":"Feature","geometry":{"type":"Point","coordinates":[18.0668,59.3326]},"properties":{"cc":"SE","country":"Sweden","public_private":"","city":"Stockholm","postcode":"","emergency":"","ref_date":"","lon":18.066829681396484,"house_number":"","url":"","site_name":"","pub_date":"2020_03_25","street":"","tel":"","id":"","facility_type":"","list_specs":"","lat":59.33256912231445,"email":"","hospital_name":"Norrtälje sjukhus (TioHundra AB)"},"id":"10448"},{"type":"Feature","geometry":{"type":"Point","coordinates":[18.0668,59.3326]},"properties":{"cc":"SE","country":"Sweden","public_private":"","city":"Stockholm","postcode":"","emergency":"","ref_date":"","lon":18.066829681396484,"house_number":"","url":"","site_name":"","pub_date":"2020_03_25","street":"","tel":"","id":"","facility_type":"","list_specs":"","lat":59.33256912231445,"email":"","hospital_name":"Nynäshamns sjukhus"},"id":"10449"},{"type":"Feature","geometry":{"type":"Point","coordinates":[18.0668,59.3326]},"properties":{"cc":"SE","country":"Sweden","public_private":"","city":"Stockholm","postcode":"","emergency":"","ref_date":"","lon":18.066829681396484,"house_number":"","url":"","site_name":"","pub_date":"2020_03_25","street":"","tel":"","id":"","facility_type":"","list_specs":"","lat":59.33256912231445,"email":"","hospital_name":"Stiftelsen Hublegården"},"id":"10450"},{"type":"Feature","geometry":{"type":"Point","coordinates":[18.0668,59.3326]},"properties":{"cc":"SE","country":"Sweden","public_private":"","city":"Stockholm","postcode":"","emergency":"","ref_date":"","lon":18.066829681396484,"house_number":"","url":"","site_name":"","pub_date":"2020_03_25","street":"","tel":"","id":"","facility_type":"","list_specs":"","lat":59.33256912231445,"email":"","hospital_name":"Stockholms läns sjukvårdsområde, (SLSO)"},"id":"10451"},{"type":"Feature","geometry":{"type":"Point","coordinates":[18.126,59.2575]},"properties":{"cc":"SE","country":"Sweden","public_private":"","city":"Stockholm","postcode":"","emergency":"","ref_date":"","lon":18.12603,"house_number":"","url":"","site_name":"","pub_date":"2020_03_25","street":"","tel":"","id":"","facility_type":"","list_specs":"","lat":59.25747,"email":"","hospital_name":"Stora Sköndals sjukhem"},"id":"10452"},{"type":"Feature","geometry":{"type":"Point","coordinates":[18.0668,59.3326]},"properties":{"cc":"SE","country":"Sweden","public_private":"","city":"Stockholm","postcode":"","emergency":"","ref_date":"","lon":18.066829681396484,"house_number":"","url":"","site_name":"","pub_date":"2020_03_25","street":"","tel":"","id":"","facility_type":"","list_specs":"","lat":59.33256912231445,"email":"","hospital_name":"Södertälje sjukhus AB"},"id":"10453"},{"type":"Feature","geometry":{"type":"Point","coordinates":[17.6437,59.8586]},"properties":{"cc":"SE","country":"Sweden","public_private":"","city":"Uppsala","postcode":"","emergency":"","ref_date":"","lon":17.64373016357422,"house_number":"","url":"","site_name":"","pub_date":"2020_03_25","street":"","tel":"","id":"","facility_type":"","list_specs":"","lat":59.858619689941406,"email":"","hospital_name":"Akademiska sjukhuset"},"id":"10454"},{"type":"Feature","geometry":{"type":"Point","coordinates":[17.0943,59.6389]},"properties":{"cc":"SE","country":"Sweden","public_private":"","city":"Uppsala","postcode":"","emergency":"","ref_date":"","lon":17.094276428222656,"house_number":"","url":"","site_name":"","pub_date":"2020_03_25","street":"","tel":"","id":"","facility_type":"","list_specs":"","lat":59.63887023925781,"email":"","hospital_name":"Lasarettet i Enköping"},"id":"10455"},{"type":"Feature","geometry":{"type":"Point","coordinates":[17.6437,59.8586]},"properties":{"cc":"SE","country":"Sweden","public_private":"","city":"Uppsala","postcode":"","emergency":"","ref_date":"","lon":17.64373016357422,"house_number":"","url":"","site_name":"","pub_date":"2020_03_25","street":"","tel":"","id":"","facility_type":"","list_specs":"","lat":59.858619689941406,"email":"","hospital_name":"Närvårdsavd i Uppsala"},"id":"10456"},{"type":"Feature","geometry":{"type":"Point","coordinates":[17.6437,59.8586]},"properties":{"cc":"SE","country":"Sweden","public_private":"","city":"Uppsala","postcode":"","emergency":"","ref_date":"","lon":17.64373016357422,"house_number":"","url":"","site_name":"","pub_date":"2020_03_25","street":"","tel":"","id":"","facility_type":"","list_specs":"","lat":59.858619689941406,"email":"","hospital_name":"Elisabethsjukhuset (Aleris)"},"id":"10457"},{"type":"Feature","geometry":{"type":"Point","coordinates":[16.2086,59.0148]},"properties":{"cc":"SE","country":"Sweden","public_private":"","city":"Sörmland","postcode":"","emergency":"","ref_date":"","lon":16.20857,"house_number":"","url":"","site_name":"","pub_date":"2020_03_25","street":"","tel":"","id":"","facility_type":"","list_specs":"","lat":59.01478,"email":"","hospital_name":"Karsuddens sjukhus"},"id":"10458"},{"type":"Feature","geometry":{"type":"Point","coordinates":[16.7354,62.8218]},"properties":{"cc":"SE","country":"Sweden","public_private":"","city":"Sörmland","postcode":"","emergency":"","ref_date":"","lon":16.73538589477539,"house_number":"","url":"","site_name":"","pub_date":"2020_03_25","street":"","tel":"","id":"","facility_type":"","list_specs":"","lat":62.82179260253906,"email":"","hospital_name":"Kullbergska sjukhuset"},"id":"10459"},{"type":"Feature","geometry":{"type":"Point","coordinates":[16.5362,59.3637]},"properties":{"cc":"SE","country":"Sweden","public_private":"","city":"Sörmland","postcode":"","emergency":"","ref_date":"","lon":16.5362,"house_number":"","url":"","site_name":"","pub_date":"2020_03_25","street":"","tel":"","id":"","facility_type":"","list_specs":"","lat":59.36365,"email":"","hospital_name":"Mälarsjukhuset"},"id":"10460"},{"type":"Feature","geometry":{"type":"Point","coordinates":[16.7354,62.8218]},"properties":{"cc":"SE","country":"Sweden","public_private":"","city":"Sörmland","postcode":"","emergency":"","ref_date":"","lon":16.73538589477539,"house_number":"","url":"","site_name":"","pub_date":"2020_03_25","street":"","tel":"","id":"","facility_type":"","list_specs":"","lat":62.82179260253906,"email":"","hospital_name":"Nyköpings sjukhus"},"id":"10461"},{"type":"Feature","geometry":{"type":"Point","coordinates":[15.7621,58.71]},"properties":{"cc":"SE","country":"Sweden","public_private":"","city":"Östergötland","postcode":"","emergency":"","ref_date":"","lon":15.76212,"house_number":"","url":"","site_name":"","pub_date":"2020_03_25","street":"","tel":"","id":"","facility_type":"","list_specs":"","lat":58.70999,"email":"","hospital_name":"Finspångs lasarett"},"id":"10462"},{"type":"Feature","geometry":{"type":"Point","coordinates":[15.0329,58.5425]},"properties":{"cc":"SE","country":"Sweden","public_private":"","city":"Östergötland","postcode":"","emergency":"","ref_date":"","lon":15.03294,"house_number":"","url":"","site_name":"","pub_date":"2020_03_25","street":"","tel":"","id":"","facility_type":"","list_specs":"","lat":58.54246,"email":"","hospital_name":"Lasarettet i Motala"},"id":"10463"},{"type":"Feature","geometry":{"type":"Point","coordinates":[15.6203,58.4009]},"properties":{"cc":"SE","country":"Sweden","public_private":"","city":"Östergötland","postcode":"","emergency":"","ref_date":"","lon":15.620314,"house_number":"","url":"","site_name":"","pub_date":"2020_03_25","street":"","tel":"","id":"","facility_type":"","list_specs":"","lat":58.40087,"email":"","hospital_name":"Universitetssjukhuset i Linköping"},"id":"10464"},{"type":"Feature","geometry":{"type":"Point","coordinates":[16.1787,58.563]},"properties":{"cc":"SE","country":"Sweden","public_private":"","city":"Östergötland","postcode":"","emergency":"","ref_date":"","lon":16.178709,"house_number":"","url":"","site_name":"","pub_date":"2020_03_25","street":"","tel":"","id":"","facility_type":"","list_specs":"","lat":58.562972,"email":"","hospital_name":"Vrinnevisjukhuset"},"id":"10465"},{"type":"Feature","geometry":{"type":"Point","coordinates":[14.1765,57.7798]},"properties":{"cc":"SE","country":"Sweden","public_private":"","city":"Jönköping","postcode":"","emergency":"","ref_date":"","lon":14.176480293273926,"house_number":"","url":"","site_name":"","pub_date":"2020_03_25","street":"","tel":"","id":"","facility_type":"","list_specs":"","lat":57.77975845336914,"email":"","hospital_name":"Höglandssjukhuset"},"id":"10466"},{"type":"Feature","geometry":{"type":"Point","coordinates":[14.1765,57.7798]},"properties":{"cc":"SE","country":"Sweden","public_private":"","city":"Jönköping","postcode":"","emergency":"","ref_date":"","lon":14.176480293273926,"house_number":"","url":"","site_name":"","pub_date":"2020_03_25","street":"","tel":"","id":"","facility_type":"","list_specs":"","lat":57.77975845336914,"email":"","hospital_name":"Länssjukhuset Ryhov"},"id":"10467"},{"type":"Feature","geometry":{"type":"Point","coordinates":[14.1765,57.7798]},"properties":{"cc":"SE","country":"Sweden","public_private":"","city":"Jönköping","postcode":"","emergency":"","ref_date":"","lon":14.176480293273926,"house_number":"","url":"","site_name":"","pub_date":"2020_03_25","street":"","tel":"","id":"","facility_type":"","list_specs":"","lat":57.77975845336914,"email":"","hospital_name":"Värnamo sjukhus"},"id":"10468"},{"type":"Feature","geometry":{"type":"Point","coordinates":[14.7994,56.88]},"properties":{"cc":"SE","country":"Sweden","public_private":"","city":"Kronoberg","postcode":"","emergency":"","ref_date":"","lon":14.799449920654297,"house_number":"","url":"","site_name":"","pub_date":"2020_03_25","street":"","tel":"","id":"","facility_type":"","list_specs":"","lat":56.87995910644531,"email":"","hospital_name":"Centrallasarettet, Växjö"},"id":"10469"},{"type":"Feature","geometry":{"type":"Point","coordinates":[13.932,56.8348]},"properties":{"cc":"SE","country":"Sweden","public_private":"","city":"Kronoberg","postcode":"","emergency":"","ref_date":"","lon":13.93196,"house_number":"","url":"","site_name":"","pub_date":"2020_03_25","street":"","tel":"","id":"","facility_type":"","list_specs":"","lat":56.83476,"email":"","hospital_name":"Ljungby lasarett"},"id":"10470"},{"type":"Feature","geometry":{"type":"Point","coordinates":[14.7994,56.88]},"properties":{"cc":"SE","country":"Sweden","public_private":"","city":"Kronoberg","postcode":"","emergency":"","ref_date":"","lon":14.799449920654297,"house_number":"","url":"","site_name":"","pub_date":"2020_03_25","street":"","tel":"","id":"","facility_type":"","list_specs":"","lat":56.87995910644531,"email":"","hospital_name":"Rehabcentrum (rehabkliniken), Växjö"},"id":"10471"},{"type":"Feature","geometry":{"type":"Point","coordinates":[16.3331,56.6593]},"properties":{"cc":"SE","country":"Sweden","public_private":"","city":"Kalmar","postcode":"","emergency":"","ref_date":"","lon":16.33305,"house_number":"","url":"","site_name":"","pub_date":"2020_03_25","street":"","tel":"","id":"","facility_type":"","list_specs":"","lat":56.65932,"email":"","hospital_name":"Länssjukhuset i Kalmar"},"id":"10472"},{"type":"Feature","geometry":{"type":"Point","coordinates":[16.1322,57.1079]},"properties":{"cc":"SE","country":"Sweden","public_private":"","city":"Kalmar","postcode":"","emergency":"","ref_date":"","lon":16.13221,"house_number":"","url":"","site_name":"","pub_date":"2020_03_25","street":"","tel":"","id":"","facility_type":"","list_specs":"","lat":57.10788,"email":"","hospital_name":"Oskarshamns sjukhus"},"id":"10473"},{"type":"Feature","geometry":{"type":"Point","coordinates":[16.401,57.8938]},"properties":{"cc":"SE","country":"Sweden","public_private":"","city":"Kalmar","postcode":"","emergency":"","ref_date":"","lon":16.40096,"house_number":"","url":"","site_name":"","pub_date":"2020_03_25","street":"","tel":"","id":"","facility_type":"","list_specs":"","lat":57.89382,"email":"","hospital_name":"Västerviks sjukhus"},"id":"10474"},{"type":"Feature","geometry":{"type":"Point","coordinates":[14.9619,57.9041]},"properties":{"cc":"SE","country":"Sweden","public_private":"","city":"Blekinge","postcode":"","emergency":"","ref_date":"","lon":14.961870193481445,"house_number":"","url":"","site_name":"","pub_date":"2020_03_25","street":"","tel":"","id":"","facility_type":"","list_specs":"","lat":57.90414047241211,"email":"","hospital_name":"Blekingesjukhuset"},"id":"10475"},{"type":"Feature","geometry":{"type":"Point","coordinates":[13.0012,55.5967]},"properties":{"cc":"SE","country":"Sweden","public_private":"","city":"Skåne","postcode":"","emergency":"","ref_date":"","lon":13.001219749450684,"house_number":"","url":"","site_name":"","pub_date":"2020_03_25","street":"","tel":"","id":"","facility_type":"","list_specs":"","lat":55.5966911315918,"email":"","hospital_name":"Aleris Plastikkirurgi Malmö"},"id":"10476"},{"type":"Feature","geometry":{"type":"Point","coordinates":[14.1687,56.0365]},"properties":{"cc":"SE","country":"Sweden","public_private":"","city":"Skåne","postcode":"","emergency":"","ref_date":"","lon":14.168658256530762,"house_number":"","url":"","site_name":"","pub_date":"2020_03_25","street":"","tel":"","id":"","facility_type":"","list_specs":"","lat":56.036521911621094,"email":"","hospital_name":"Centralsjukhuset Kristianstad"},"id":"10477"},{"type":"Feature","geometry":{"type":"Point","coordinates":[12.7046,56.0458]},"properties":{"cc":"SE","country":"Sweden","public_private":"","city":"Skåne","postcode":"","emergency":"","ref_date":"","lon":12.704605,"house_number":"","url":"","site_name":"","pub_date":"2020_03_25","street":"","tel":"","id":"","facility_type":"","list_specs":"","lat":56.045775,"email":"","hospital_name":"Helsingborgs lasarett"},"id":"10478"},{"type":"Feature","geometry":{"type":"Point","coordinates":[13.7789,56.1605]},"properties":{"cc":"SE","country":"Sweden","public_private":"","city":"Skåne","postcode":"","emergency":"","ref_date":"","lon":13.778898,"house_number":"","url":"","site_name":"","pub_date":"2020_03_25","street":"","tel":"","id":"","facility_type":"","list_specs":"","lat":56.160474,"email":"","hospital_name":"Hässleholms sjukhus"},"id":"10479"},{"type":"Feature","geometry":{"type":"Point","coordinates":[12.8389,55.8795]},"properties":{"cc":"SE","country":"Sweden","public_private":"","city":"Skåne","postcode":"","emergency":"","ref_date":"","lon":12.838919639587402,"house_number":"","url":"","site_name":"","pub_date":"2020_03_25","street":"","tel":"","id":"","facility_type":"","list_specs":"","lat":55.8795166015625,"email":"","hospital_name":"Lasarettet i Landskrona"},"id":"10480"},{"type":"Feature","geometry":{"type":"Point","coordinates":[13.8183,55.4344]},"properties":{"cc":"SE","country":"Sweden","public_private":"","city":"Skåne","postcode":"","emergency":"","ref_date":"","lon":13.81826,"house_number":"","url":"","site_name":"","pub_date":"2020_03_25","street":"","tel":"","id":"","facility_type":"","list_specs":"","lat":55.43437,"email":"","hospital_name":"Lasarettet i Ystad"},"id":"10481"},{"type":"Feature","geometry":{"type":"Point","coordinates":[13.1675,55.3777]},"properties":{"cc":"SE","country":"Sweden","public_private":"","city":"Skåne","postcode":"","emergency":"","ref_date":"","lon":13.167510032653809,"house_number":"","url":"","site_name":"","pub_date":"2020_03_25","street":"","tel":"","id":"","facility_type":"","list_specs":"","lat":55.37770080566406,"email":"","hospital_name":"Lasarettet Trelleborg"},"id":"10482"},{"type":"Feature","geometry":{"type":"Point","coordinates":[13.5478,55.9332]},"properties":{"cc":"SE","country":"Sweden","public_private":"","city":"Skåne","postcode":"","emergency":"","ref_date":"","lon":13.547783851623535,"house_number":"","url":"","site_name":"","pub_date":"2020_03_25","street":"","tel":"","id":"","facility_type":"","list_specs":"","lat":55.93321228027344,"email":"","hospital_name":"Lydiagården Höör"},"id":"10483"},{"type":"Feature","geometry":{"type":"Point","coordinates":[12.7304,56.0418]},"properties":{"cc":"SE","country":"Sweden","public_private":"","city":"Skåne","postcode":"","emergency":"","ref_date":"","lon":12.730361938476562,"house_number":"","url":"","site_name":"","pub_date":"2020_03_25","street":"","tel":"","id":"","facility_type":"","list_specs":"","lat":56.04181671142578,"email":"","hospital_name":"Palliativ sjukhusvård Helsingborg"},"id":"10484"},{"type":"Feature","geometry":{"type":"Point","coordinates":[14.1687,56.0365]},"properties":{"cc":"SE","country":"Sweden","public_private":"","city":"Skåne","postcode":"","emergency":"","ref_date":"","lon":14.168658256530762,"house_number":"","url":"","site_name":"","pub_date":"2020_03_25","street":"","tel":"","id":"","facility_type":"","list_specs":"","lat":56.036521911621094,"email":"","hospital_name":"Palliativ sjukhusvård Kristianstad"},"id":"10485"},{"type":"Feature","geometry":{"type":"Point","coordinates":[14.3423,55.5538]},"properties":{"cc":"SE","country":"Sweden","public_private":"","city":"Skåne","postcode":"","emergency":"","ref_date":"","lon":14.342297554016113,"house_number":"","url":"","site_name":"","pub_date":"2020_03_25","street":"","tel":"","id":"","facility_type":"","list_specs":"","lat":55.55376052856445,"email":"","hospital_name":"Praktikertjänst Närsjukhus Simrishamn"},"id":"10486"},{"type":"Feature","geometry":{"type":"Point","coordinates":[13.1986,55.7112]},"properties":{"cc":"SE","country":"Sweden","public_private":"","city":"Skåne","postcode":"","emergency":"","ref_date":"","lon":13.19861,"house_number":"","url":"","site_name":"","pub_date":"2020_03_25","street":"","tel":"","id":"","facility_type":"","list_specs":"","lat":55.711204,"email":"","hospital_name":"Skånes universitetssjukhus, Lund"},"id":"10487"},{"type":"Feature","geometry":{"type":"Point","coordinates":[13.0012,55.5967]},"properties":{"cc":"SE","country":"Sweden","public_private":"","city":"Skåne","postcode":"","emergency":"","ref_date":"","lon":13.001219749450684,"house_number":"","url":"","site_name":"","pub_date":"2020_03_25","street":"","tel":"","id":"","facility_type":"","list_specs":"","lat":55.5966911315918,"email":"","hospital_name":"Skånes universitetssjukhus, Malmö"},"id":"10488"},{"type":"Feature","geometry":{"type":"Point","coordinates":[12.7065,56.0604]},"properties":{"cc":"SE","country":"Sweden","public_private":"","city":"Skåne","postcode":"","emergency":"","ref_date":"","lon":12.70645,"house_number":"","url":"","site_name":"","pub_date":"2020_03_25","street":"","tel":"","id":"","facility_type":"","list_specs":"","lat":56.06036,"email":"","hospital_name":"Ängelholms sjukhus"},"id":"10489"},{"type":"Feature","geometry":{"type":"Point","coordinates":[12.8575,56.6723]},"properties":{"cc":"SE","country":"Sweden","public_private":"","city":"Halland","postcode":"","emergency":"","ref_date":"","lon":12.857500076293945,"house_number":"","url":"","site_name":"","pub_date":"2020_03_25","street":"","tel":"","id":"","facility_type":"","list_specs":"","lat":56.67226028442383,"email":"","hospital_name":"Capio Movement Halmstad"},"id":"10490"},{"type":"Feature","geometry":{"type":"Point","coordinates":[12.086,57.4945]},"properties":{"cc":"SE","country":"Sweden","public_private":"","city":"Halland","postcode":"","emergency":"","ref_date":"","lon":12.085968,"house_number":"","url":"","site_name":"","pub_date":"2020_03_25","street":"","tel":"","id":"","facility_type":"","list_specs":"","lat":57.494538,"email":"","hospital_name":"Hallands sjukhus"},"id":"10491"},{"type":"Feature","geometry":{"type":"Point","coordinates":[12.5005,56.9073]},"properties":{"cc":"SE","country":"Sweden","public_private":"","city":"Halland","postcode":"","emergency":"","ref_date":"","lon":12.500539,"house_number":"","url":"","site_name":"","pub_date":"2020_03_25","street":"","tel":"","id":"","facility_type":"","list_specs":"","lat":56.907252,"email":"","hospital_name":"Palliativa allmänna vårdavd"},"id":"10492"},{"type":"Feature","geometry":{"type":"Point","coordinates":[12.5223,57.9297]},"properties":{"cc":"SE","country":"Sweden","public_private":"","city":"Västra Götaland","postcode":"","emergency":"","ref_date":"","lon":12.52234,"house_number":"","url":"","site_name":"","pub_date":"2020_03_25","street":"","tel":"","id":"","facility_type":"","list_specs":"","lat":57.92968,"email":"","hospital_name":"Alingsås lasarett"},"id":"10493"},{"type":"Feature","geometry":{"type":"Point","coordinates":[11.9127,57.6505]},"properties":{"cc":"SE","country":"Sweden","public_private":"","city":"Västra Götaland","postcode":"","emergency":"","ref_date":"","lon":11.912671,"house_number":"","url":"","site_name":"","pub_date":"2020_03_25","street":"","tel":"","id":"","facility_type":"","list_specs":"","lat":57.650495,"email":"","hospital_name":"Frölunda specialistsjukhus"},"id":"10494"},{"type":"Feature","geometry":{"type":"Point","coordinates":[11.9697,57.8785]},"properties":{"cc":"SE","country":"Sweden","public_private":"","city":"Västra Götaland","postcode":"","emergency":"","ref_date":"","lon":11.969664,"house_number":"","url":"","site_name":"","pub_date":"2020_03_25","street":"","tel":"","id":"","facility_type":"","list_specs":"","lat":57.878457,"email":"","hospital_name":"Kungälvs sjukhus"},"id":"10495"},{"type":"Feature","geometry":{"type":"Point","coordinates":[11.9367,57.7211]},"properties":{"cc":"SE","country":"Sweden","public_private":"","city":"Västra Götaland","postcode":"","emergency":"","ref_date":"","lon":11.936681,"house_number":"","url":"","site_name":"","pub_date":"2020_03_25","street":"","tel":"","id":"","facility_type":"","list_specs":"","lat":57.721113,"email":"","hospital_name":"Lundby sjukhus AB"},"id":"10496"},{"type":"Feature","geometry":{"type":"Point","coordinates":[12.2669,58.3182]},"properties":{"cc":"SE","country":"Sweden","public_private":"","city":"Västra Götaland","postcode":"","emergency":"","ref_date":"","lon":12.266875,"house_number":"","url":"","site_name":"","pub_date":"2020_03_25","street":"","tel":"","id":"","facility_type":"","list_specs":"","lat":58.318229,"email":"","hospital_name":"NU-sjukvården"},"id":"10497"},{"type":"Feature","geometry":{"type":"Point","coordinates":[11.9618,57.6827]},"properties":{"cc":"SE","country":"Sweden","public_private":"","city":"Västra Götaland","postcode":"","emergency":"","ref_date":"","lon":11.961790084838867,"house_number":"","url":"","site_name":"","pub_date":"2020_03_25","street":"","tel":"","id":"","facility_type":"","list_specs":"","lat":57.68267059326172,"email":"","hospital_name":"Sahlgrenska universitetssjukhuset"},"id":"10498"},{"type":"Feature","geometry":{"type":"Point","coordinates":[14.5283,58.5348]},"properties":{"cc":"SE","country":"Sweden","public_private":"","city":"Västra Götaland","postcode":"","emergency":"","ref_date":"","lon":14.52833,"house_number":"","url":"","site_name":"","pub_date":"2020_03_25","street":"","tel":"","id":"","facility_type":"","list_specs":"","lat":58.53477,"email":"","hospital_name":"Skaraborgs sjukhus"},"id":"10499"},{"type":"Feature","geometry":{"type":"Point","coordinates":[11.9682,57.7007]},"properties":{"cc":"SE","country":"Sweden","public_private":"","city":"Västra Götaland","postcode":"","emergency":"","ref_date":"","lon":11.968219757080078,"house_number":"","url":"","site_name":"","pub_date":"2020_03_25","street":"","tel":"","id":"","facility_type":"","list_specs":"","lat":57.70066833496094,"email":"","hospital_name":"Stadsmissionen Göteborg"},"id":"10500"},{"type":"Feature","geometry":{"type":"Point","coordinates":[12.9612,57.7242]},"properties":{"cc":"SE","country":"Sweden","public_private":"","city":"Västra Götaland","postcode":"","emergency":"","ref_date":"","lon":12.961219,"house_number":"","url":"","site_name":"","pub_date":"2020_03_25","street":"","tel":"","id":"","facility_type":"","list_specs":"","lat":57.724226,"email":"","hospital_name":"Södra Älvsborgs sjukhus"},"id":"10501"},{"type":"Feature","geometry":{"type":"Point","coordinates":[11.9895,57.6925]},"properties":{"cc":"SE","country":"Sweden","public_private":"","city":"Västra Götaland","postcode":"","emergency":"","ref_date":"","lon":11.989493,"house_number":"","url":"","site_name":"","pub_date":"2020_03_25","street":"","tel":"","id":"","facility_type":"","list_specs":"","lat":57.692534,"email":"","hospital_name":"Carlanderska sjukhemmet"},"id":"10502"},{"type":"Feature","geometry":{"type":"Point","coordinates":[13.1525,58.4979]},"properties":{"cc":"SE","country":"Sweden","public_private":"","city":"Västra Götaland","postcode":"","emergency":"","ref_date":"","lon":13.152461,"house_number":"","url":"","site_name":"","pub_date":"2020_03_25","street":"","tel":"","id":"","facility_type":"","list_specs":"","lat":58.497937,"email":"","hospital_name":"Hospice Gabriel"},"id":"10503"},{"type":"Feature","geometry":{"type":"Point","coordinates":[13.7045,60.0309]},"properties":{"cc":"SE","country":"Sweden","public_private":"","city":"Värmland","postcode":"","emergency":"","ref_date":"","lon":13.70454,"house_number":"","url":"","site_name":"","pub_date":"2020_03_25","street":"","tel":"","id":"","facility_type":"","list_specs":"","lat":60.03085,"email":"","hospital_name":"Arvika sjukhus"},"id":"10504"},{"type":"Feature","geometry":{"type":"Point","coordinates":[13.478,59.3748]},"properties":{"cc":"SE","country":"Sweden","public_private":"","city":"Värmland","postcode":"","emergency":"","ref_date":"","lon":13.478027,"house_number":"","url":"","site_name":"","pub_date":"2020_03_25","street":"","tel":"","id":"","facility_type":"","list_specs":"","lat":59.374776,"email":"","hospital_name":"Centralsjukhuset Karlstad"},"id":"10505"},{"type":"Feature","geometry":{"type":"Point","coordinates":[14.1083,59.3146]},"properties":{"cc":"SE","country":"Sweden","public_private":"","city":"Värmland","postcode":"","emergency":"","ref_date":"","lon":14.108336448669434,"house_number":"","url":"","site_name":"","pub_date":"2020_03_25","street":"","tel":"","id":"","facility_type":"","list_specs":"","lat":59.31459045410156,"email":"","hospital_name":"Sjukhuset i Kristinehamn"},"id":"10506"},{"type":"Feature","geometry":{"type":"Point","coordinates":[12.9334,59.1359]},"properties":{"cc":"SE","country":"Sweden","public_private":"","city":"Värmland","postcode":"","emergency":"","ref_date":"","lon":12.933425,"house_number":"","url":"","site_name":"","pub_date":"2020_03_25","street":"","tel":"","id":"","facility_type":"","list_specs":"","lat":59.135863,"email":"","hospital_name":"Sjukhuset i Säffle"},"id":"10507"},{"type":"Feature","geometry":{"type":"Point","coordinates":[13.7045,60.0309]},"properties":{"cc":"SE","country":"Sweden","public_private":"","city":"Värmland","postcode":"","emergency":"","ref_date":"","lon":13.70454,"house_number":"","url":"","site_name":"","pub_date":"2020_03_25","street":"","tel":"","id":"","facility_type":"","list_specs":"","lat":60.03085,"email":"","hospital_name":"Torsby sjukhus"},"id":"10508"},{"type":"Feature","geometry":{"type":"Point","coordinates":[14.5079,59.3161]},"properties":{"cc":"SE","country":"Sweden","public_private":"","city":"Örebro","postcode":"","emergency":"","ref_date":"","lon":14.50786,"house_number":"","url":"","site_name":"","pub_date":"2020_03_25","street":"","tel":"","id":"","facility_type":"","list_specs":"","lat":59.31608,"email":"","hospital_name":"Karlskoga lasarett"},"id":"10509"},{"type":"Feature","geometry":{"type":"Point","coordinates":[15.2167,59.6021]},"properties":{"cc":"SE","country":"Sweden","public_private":"","city":"Örebro","postcode":"","emergency":"","ref_date":"","lon":15.216675,"house_number":"","url":"","site_name":"","pub_date":"2020_03_25","street":"","tel":"","id":"","facility_type":"","list_specs":"","lat":59.602146,"email":"","hospital_name":"Lindesbergs lasarett"},"id":"10510"},{"type":"Feature","geometry":{"type":"Point","coordinates":[15.2251,59.2755]},"properties":{"cc":"SE","country":"Sweden","public_private":"","city":"Örebro","postcode":"","emergency":"","ref_date":"","lon":15.225082,"house_number":"","url":"","site_name":"","pub_date":"2020_03_25","street":"","tel":"","id":"","facility_type":"","list_specs":"","lat":59.275458,"email":"","hospital_name":"Universitetssjukhuset i Örebro"},"id":"10511"},{"type":"Feature","geometry":{"type":"Point","coordinates":[15.8096,59.9969]},"properties":{"cc":"SE","country":"Sweden","public_private":"","city":"Västmanland","postcode":"","emergency":"","ref_date":"","lon":15.809639930725098,"house_number":"","url":"","site_name":"","pub_date":"2020_03_25","street":"","tel":"","id":"","facility_type":"","list_specs":"","lat":59.99690246582031,"email":"","hospital_name":"Närsjukh. Primärv Fagersta"},"id":"10512"},{"type":"Feature","geometry":{"type":"Point","coordinates":[15.9966,59.5106]},"properties":{"cc":"SE","country":"Sweden","public_private":"","city":"Västmanland","postcode":"","emergency":"","ref_date":"","lon":15.996578216552734,"house_number":"","url":"","site_name":"","pub_date":"2020_03_25","street":"","tel":"","id":"","facility_type":"","list_specs":"","lat":59.51056671142578,"email":"","hospital_name":"Sjukhuset i Köping"},"id":"10513"},{"type":"Feature","geometry":{"type":"Point","coordinates":[16.6019,59.9239]},"properties":{"cc":"SE","country":"Sweden","public_private":"","city":"Västmanland","postcode":"","emergency":"","ref_date":"","lon":16.601866,"house_number":"","url":"","site_name":"","pub_date":"2020_03_25","street":"","tel":"","id":"","facility_type":"","list_specs":"","lat":59.923946,"email":"","hospital_name":"Sjukhuset i Sala"},"id":"10514"},{"type":"Feature","geometry":{"type":"Point","coordinates":[16.5453,59.6096]},"properties":{"cc":"SE","country":"Sweden","public_private":"","city":"Västmanland","postcode":"","emergency":"","ref_date":"","lon":16.54534912109375,"house_number":"","url":"","site_name":"","pub_date":"2020_03_25","street":"","tel":"","id":"","facility_type":"","list_specs":"","lat":59.609580993652344,"email":"","hospital_name":"Sjukhuset i Västerås"},"id":"10515"},{"type":"Feature","geometry":{"type":"Point","coordinates":[16.2008,60.1412]},"properties":{"cc":"SE","country":"Sweden","public_private":"","city":"Dalarna","postcode":"","emergency":"","ref_date":"","lon":16.200819,"house_number":"","url":"","site_name":"","pub_date":"2020_03_25","street":"","tel":"","id":"","facility_type":"","list_specs":"","lat":60.141154,"email":"","hospital_name":"Avesta lasarett"},"id":"10516"},{"type":"Feature","geometry":{"type":"Point","coordinates":[15.4658,60.5039]},"properties":{"cc":"SE","country":"Sweden","public_private":"","city":"Darlana","postcode":"","emergency":"","ref_date":"","lon":15.465829,"house_number":"","url":"","site_name":"","pub_date":"2020_03_25","street":"","tel":"","id":"","facility_type":"","list_specs":"","lat":60.503941,"email":"","hospital_name":"Borlänge sjukhus"},"id":"10517"},{"type":"Feature","geometry":{"type":"Point","coordinates":[15.6471,60.6079]},"properties":{"cc":"SE","country":"Sweden","public_private":"","city":"Dalarna","postcode":"","emergency":"","ref_date":"","lon":15.64706,"house_number":"","url":"","site_name":"","pub_date":"2020_03_25","street":"","tel":"","id":"","facility_type":"","list_specs":"","lat":60.60785,"email":"","hospital_name":"Falu lasarett"},"id":"10518"},{"type":"Feature","geometry":{"type":"Point","coordinates":[15.1952,60.139]},"properties":{"cc":"SE","country":"Sweden","public_private":"","city":"Dalarna","postcode":"","emergency":"","ref_date":"","lon":15.195231437683105,"house_number":"","url":"","site_name":"","pub_date":"2020_03_25","street":"","tel":"","id":"","facility_type":"","list_specs":"","lat":60.139015197753906,"email":"","hospital_name":"Ludvika lasarett"},"id":"10519"},{"type":"Feature","geometry":{"type":"Point","coordinates":[14.5823,61.0114]},"properties":{"cc":"SE","country":"Sweden","public_private":"","city":"Dalarna","postcode":"","emergency":"","ref_date":"","lon":14.58232,"house_number":"","url":"","site_name":"","pub_date":"2020_03_25","street":"","tel":"","id":"","facility_type":"","list_specs":"","lat":61.01144,"email":"","hospital_name":"Mora lasarett"},"id":"10520"},{"type":"Feature","geometry":{"type":"Point","coordinates":[15.7159,60.3405]},"properties":{"cc":"SE","country":"Sweden","public_private":"","city":"Dalarna","postcode":"","emergency":"","ref_date":"","lon":15.715904,"house_number":"","url":"","site_name":"","pub_date":"2020_03_25","street":"","tel":"","id":"","facility_type":"","list_specs":"","lat":60.34053,"email":"","hospital_name":"Säters sjukhus, psykiatri"},"id":"10521"},{"type":"Feature","geometry":{"type":"Point","coordinates":[16.1284,61.8256]},"properties":{"cc":"SE","country":"Sweden","public_private":"","city":"Gävleborg","postcode":"","emergency":"","ref_date":"","lon":16.12839,"house_number":"","url":"","site_name":"","pub_date":"2020_03_25","street":"","tel":"","id":"","facility_type":"","list_specs":"","lat":61.82557,"email":"","hospital_name":"Hudiksvalls sjukhus"},"id":"10522"},{"type":"Feature","geometry":{"type":"Point","coordinates":[16.3689,61.3516]},"properties":{"cc":"SE","country":"Sweden","public_private":"","city":"Gävleborg","postcode":"","emergency":"","ref_date":"","lon":16.36891,"house_number":"","url":"","site_name":"","pub_date":"2020_03_25","street":"","tel":"","id":"","facility_type":"","list_specs":"","lat":61.35162,"email":"","hospital_name":"Bollnäs sjukhus (Aleris)"},"id":"10523"},{"type":"Feature","geometry":{"type":"Point","coordinates":[16.3689,61.3516]},"properties":{"cc":"SE","country":"Sweden","public_private":"","city":"Gävleborg","postcode":"","emergency":"","ref_date":"","lon":16.36891,"house_number":"","url":"","site_name":"","pub_date":"2020_03_25","street":"","tel":"","id":"","facility_type":"","list_specs":"","lat":61.35162,"email":"","hospital_name":"Gävle sjukhus"},"id":"10524"},{"type":"Feature","geometry":{"type":"Point","coordinates":[16.1092,61.8283]},"properties":{"cc":"SE","country":"Sweden","public_private":"","city":"Gävleborg","postcode":"","emergency":"","ref_date":"","lon":16.109194,"house_number":"","url":"","site_name":"","pub_date":"2020_03_25","street":"","tel":"","id":"","facility_type":"","list_specs":"","lat":61.828258,"email":"","hospital_name":"Ljusdals närsjukhus"},"id":"10525"},{"type":"Feature","geometry":{"type":"Point","coordinates":[16.7596,60.609]},"properties":{"cc":"SE","country":"Sweden","public_private":"","city":"Gävleborg","postcode":"","emergency":"","ref_date":"","lon":16.759624,"house_number":"","url":"","site_name":"","pub_date":"2020_03_25","street":"","tel":"","id":"","facility_type":"","list_specs":"","lat":60.608992,"email":"","hospital_name":"Sandvikens närsjukhus"},"id":"10526"},{"type":"Feature","geometry":{"type":"Point","coordinates":[17.4361,62.526]},"properties":{"cc":"SE","country":"Sweden","public_private":"","city":"Västernorrland","postcode":"","emergency":"","ref_date":"","lon":17.436140060424805,"house_number":"","url":"","site_name":"","pub_date":"2020_03_25","street":"","tel":"","id":"","facility_type":"","list_specs":"","lat":62.526031494140625,"email":"","hospital_name":"Länssjukhuset Sundsvall-Härnösand"},"id":"10527"},{"type":"Feature","geometry":{"type":"Point","coordinates":[17.2525,63.1036]},"properties":{"cc":"SE","country":"Sweden","public_private":"","city":"Västernorrland","postcode":"","emergency":"","ref_date":"","lon":17.252464294433594,"house_number":"","url":"","site_name":"","pub_date":"2020_03_25","street":"","tel":"","id":"","facility_type":"","list_specs":"","lat":63.103633880615234,"email":"","hospital_name":"Mellannorrlands Hospice AB"},"id":"10528"},{"type":"Feature","geometry":{"type":"Point","coordinates":[17.2727,63.168]},"properties":{"cc":"SE","country":"Sweden","public_private":"","city":"Västernorrland","postcode":"","emergency":"","ref_date":"","lon":17.272720336914062,"house_number":"","url":"","site_name":"","pub_date":"2020_03_25","street":"","tel":"","id":"","facility_type":"","list_specs":"","lat":63.16801071166992,"email":"","hospital_name":"Sollefteå sjukhus"},"id":"10529"},{"type":"Feature","geometry":{"type":"Point","coordinates":[18.7146,63.299]},"properties":{"cc":"SE","country":"Sweden","public_private":"","city":"Västernorrland","postcode":"","emergency":"","ref_date":"","lon":18.71459,"house_number":"","url":"","site_name":"","pub_date":"2020_03_25","street":"","tel":"","id":"","facility_type":"","list_specs":"","lat":63.29898,"email":"","hospital_name":"Örnsköldsviks sjukhus"},"id":"10530"},{"type":"Feature","geometry":{"type":"Point","coordinates":[14.3748,62.0351]},"properties":{"cc":"SE","country":"Sweden","public_private":"","city":"Jämtland Härjedalen","postcode":"","emergency":"","ref_date":"","lon":14.37477970123291,"house_number":"","url":"","site_name":"","pub_date":"2020_03_25","street":"","tel":"","id":"","facility_type":"","list_specs":"","lat":62.035118103027344,"email":"","hospital_name":"Näva, Strömsund"},"id":"10531"},{"type":"Feature","geometry":{"type":"Point","coordinates":[14.3748,62.0351]},"properties":{"cc":"SE","country":"Sweden","public_private":"","city":"Jämtland Härjedalen","postcode":"","emergency":"","ref_date":"","lon":14.37477970123291,"house_number":"","url":"","site_name":"","pub_date":"2020_03_25","street":"","tel":"","id":"","facility_type":"","list_specs":"","lat":62.035118103027344,"email":"","hospital_name":"Östersunds sjukhus"},"id":"10532"},{"type":"Feature","geometry":{"type":"Point","coordinates":[20.1767,63.8361]},"properties":{"cc":"SE","country":"Sweden","public_private":"","city":"Västerbotten","postcode":"","emergency":"","ref_date":"","lon":20.17669,"house_number":"","url":"","site_name":"","pub_date":"2020_03_25","street":"","tel":"","id":"","facility_type":"","list_specs":"","lat":63.83611,"email":"","hospital_name":"Axlagården"},"id":"10533"},{"type":"Feature","geometry":{"type":"Point","coordinates":[16.4181,64.2593]},"properties":{"cc":"SE","country":"Sweden","public_private":"","city":"Västerbotten","postcode":"","emergency":"","ref_date":"","lon":16.418072,"house_number":"","url":"","site_name":"","pub_date":"2020_03_25","street":"","tel":"","id":"","facility_type":"","list_specs":"","lat":64.259299,"email":"","hospital_name":"Dorotea sjukstuga"},"id":"10534"},{"type":"Feature","geometry":{"type":"Point","coordinates":[18.6792,64.5852]},"properties":{"cc":"SE","country":"Sweden","public_private":"","city":"Västerbotten","postcode":"","emergency":"","ref_date":"","lon":18.679249,"house_number":"","url":"","site_name":"","pub_date":"2020_03_25","street":"","tel":"","id":"","facility_type":"","list_specs":"","lat":64.585205,"email":"","hospital_name":"Lycksele lasarett"},"id":"10535"},{"type":"Feature","geometry":{"type":"Point","coordinates":[18.7556,65.1753]},"properties":{"cc":"SE","country":"Sweden","public_private":"","city":"Västerbotten","postcode":"","emergency":"","ref_date":"","lon":18.755641,"house_number":"","url":"","site_name":"","pub_date":"2020_03_25","street":"","tel":"","id":"","facility_type":"","list_specs":"","lat":65.17532,"email":"","hospital_name":"Malå sjukstuga"},"id":"10536"},{"type":"Feature","geometry":{"type":"Point","coordinates":[20.2979,63.8175]},"properties":{"cc":"SE","country":"Sweden","public_private":"","city":"Västerbotten","postcode":"","emergency":"","ref_date":"","lon":20.29792022705078,"house_number":"","url":"","site_name":"","pub_date":"2020_03_25","street":"","tel":"","id":"","facility_type":"","list_specs":"","lat":63.81752014160156,"email":"","hospital_name":"Norrlands Universitetssjukhus"},"id":"10537"},{"type":"Feature","geometry":{"type":"Point","coordinates":[20.9419,64.7573]},"properties":{"cc":"SE","country":"Sweden","public_private":"","city":"Västerbotten","postcode":"","emergency":"","ref_date":"","lon":20.94185,"house_number":"","url":"","site_name":"","pub_date":"2020_03_25","street":"","tel":"","id":"","facility_type":"","list_specs":"","lat":64.75726,"email":"","hospital_name":"Skellefteå lasarett"},"id":"10538"},{"type":"Feature","geometry":{"type":"Point","coordinates":[17.541,65.5373]},"properties":{"cc":"SE","country":"Sweden","public_private":"","city":"Västerbotten","postcode":"","emergency":"","ref_date":"","lon":17.541003,"house_number":"","url":"","site_name":"","pub_date":"2020_03_25","street":"","tel":"","id":"","facility_type":"","list_specs":"","lat":65.537307,"email":"","hospital_name":"Sorsele sjukstuga"},"id":"10539"},{"type":"Feature","geometry":{"type":"Point","coordinates":[17.1218,65.097]},"properties":{"cc":"SE","country":"Sweden","public_private":"","city":"Västerbotten","postcode":"","emergency":"","ref_date":"","lon":17.121805,"house_number":"","url":"","site_name":"","pub_date":"2020_03_25","street":"","tel":"","id":"","facility_type":"","list_specs":"","lat":65.096957,"email":"","hospital_name":"Storuman sjukstuga"},"id":"10540"},{"type":"Feature","geometry":{"type":"Point","coordinates":[15.3132,65.7157]},"properties":{"cc":"SE","country":"Sweden","public_private":"","city":"Västerbotten","postcode":"","emergency":"","ref_date":"","lon":15.313197,"house_number":"","url":"","site_name":"","pub_date":"2020_03_25","street":"","tel":"","id":"","facility_type":"","list_specs":"","lat":65.715738,"email":"","hospital_name":"Tärnaby sjukstuga"},"id":"10541"},{"type":"Feature","geometry":{"type":"Point","coordinates":[16.6616,64.6252]},"properties":{"cc":"SE","country":"Sweden","public_private":"","city":"Västerbotten","postcode":"","emergency":"","ref_date":"","lon":16.661627,"house_number":"","url":"","site_name":"","pub_date":"2020_03_25","street":"","tel":"","id":"","facility_type":"","list_specs":"","lat":64.625216,"email":"","hospital_name":"Vilhelmina sjukstuga"},"id":"10542"},{"type":"Feature","geometry":{"type":"Point","coordinates":[17.3596,64.161]},"properties":{"cc":"SE","country":"Sweden","public_private":"","city":"Västerbotten","postcode":"","emergency":"","ref_date":"","lon":17.359634,"house_number":"","url":"","site_name":"","pub_date":"2020_03_25","street":"","tel":"","id":"","facility_type":"","list_specs":"","lat":64.160975,"email":"","hospital_name":"Åsele sjukstuga"},"id":"10543"},{"type":"Feature","geometry":{"type":"Point","coordinates":[17.8919,66.05]},"properties":{"cc":"SE","country":"Sweden","public_private":"","city":"Norrbotten","postcode":"","emergency":"","ref_date":"","lon":17.891863,"house_number":"","url":"","site_name":"","pub_date":"2020_03_25","street":"","tel":"","id":"","facility_type":"","list_specs":"","lat":66.04996,"email":"","hospital_name":"Arjeplog vårdcentral"},"id":"10544"},{"type":"Feature","geometry":{"type":"Point","coordinates":[19.1681,65.5966]},"properties":{"cc":"SE","country":"Sweden","public_private":"","city":"Norrbotten","postcode":"","emergency":"","ref_date":"","lon":19.168086,"house_number":"","url":"","site_name":"","pub_date":"2020_03_25","street":"","tel":"","id":"","facility_type":"","list_specs":"","lat":65.596649,"email":"","hospital_name":"Arvidsjaur vårdcentral"},"id":"10545"},{"type":"Feature","geometry":{"type":"Point","coordinates":[20.6874,67.1313]},"properties":{"cc":"SE","country":"Sweden","public_private":"","city":"Norrbotten","postcode":"","emergency":"","ref_date":"","lon":20.687395,"house_number":"","url":"","site_name":"","pub_date":"2020_03_25","street":"","tel":"","id":"","facility_type":"","list_specs":"","lat":67.13133,"email":"","hospital_name":"Gällivare sjukhus"},"id":"10546"},{"type":"Feature","geometry":{"type":"Point","coordinates":[19.8434,66.6021]},"properties":{"cc":"SE","country":"Sweden","public_private":"","city":"Norrbotten","postcode":"","emergency":"","ref_date":"","lon":19.843368,"house_number":"","url":"","site_name":"","pub_date":"2020_03_25","street":"","tel":"","id":"","facility_type":"","list_specs":"","lat":66.602087,"email":"","hospital_name":"Jokkmokk vårdcentral"},"id":"10547"},{"type":"Feature","geometry":{"type":"Point","coordinates":[23.1564,65.8547]},"properties":{"cc":"SE","country":"Sweden","public_private":"","city":"Norrbotten","postcode":"","emergency":"","ref_date":"","lon":23.156408,"house_number":"","url":"","site_name":"","pub_date":"2020_03_25","street":"","tel":"","id":"","facility_type":"","list_specs":"","lat":65.854716,"email":"","hospital_name":"Kalix sjukhus"},"id":"10548"},{"type":"Feature","geometry":{"type":"Point","coordinates":[20.24,67.8498]},"properties":{"cc":"SE","country":"Sweden","public_private":"","city":"Norrbotten","postcode":"","emergency":"","ref_date":"","lon":20.239989,"house_number":"","url":"","site_name":"","pub_date":"2020_03_25","street":"","tel":"","id":"","facility_type":"","list_specs":"","lat":67.849807,"email":"","hospital_name":"Kiruna sjukhus"},"id":"10549"},{"type":"Feature","geometry":{"type":"Point","coordinates":[23.3433,67.2237]},"properties":{"cc":"SE","country":"Sweden","public_private":"","city":"Norrbotten","postcode":"","emergency":"","ref_date":"","lon":23.343286,"house_number":"","url":"","site_name":"","pub_date":"2020_03_25","street":"","tel":"","id":"","facility_type":"","list_specs":"","lat":67.223678,"email":"","hospital_name":"Pajala  vårdcentral"},"id":"10550"},{"type":"Feature","geometry":{"type":"Point","coordinates":[21.9311,65.6724]},"properties":{"cc":"SE","country":"Sweden","public_private":"","city":"Norrbotten","postcode":"","emergency":"","ref_date":"","lon":21.931057,"house_number":"","url":"","site_name":"","pub_date":"2020_03_25","street":"","tel":"","id":"","facility_type":"","list_specs":"","lat":65.672435,"email":"","hospital_name":"Sunderby sjukhus"},"id":"10551"},{"type":"Feature","geometry":{"type":"Point","coordinates":[22.8469,66.3385]},"properties":{"cc":"SE","country":"Sweden","public_private":"","city":"Norrbotten","postcode":"","emergency":"","ref_date":"","lon":22.846871,"house_number":"","url":"","site_name":"","pub_date":"2020_03_25","street":"","tel":"","id":"","facility_type":"","list_specs":"","lat":66.338472,"email":"","hospital_name":"Överkalix  vårdcentral"},"id":"10552"},{"type":"Feature","geometry":{"type":"Point","coordinates":[23.6531,66.3889]},"properties":{"cc":"SE","country":"Sweden","public_private":"","city":"Norrbotten","postcode":"","emergency":"","ref_date":"","lon":23.65306,"house_number":"","url":"","site_name":"","pub_date":"2020_03_25","street":"","tel":"","id":"","facility_type":"","list_specs":"","lat":66.38895,"email":"","hospital_name":"Övertorneå  vårdcentral"},"id":"10553"},{"type":"Feature","geometry":{"type":"Point","coordinates":[21.9256,65.671]},"properties":{"cc":"SE","country":"Sweden","public_private":"","city":"Norrbotten","postcode":"","emergency":"","ref_date":"","lon":21.92564,"house_number":"","url":"","site_name":"","pub_date":"2020_03_25","street":"","tel":"","id":"","facility_type":"","list_specs":"","lat":65.67104,"email":"","hospital_name":"Piteå sjukhus"},"id":"10554"},{"type":"Feature","geometry":{"type":"Point","coordinates":[18.2996,57.6479]},"properties":{"cc":"SE","country":"Sweden","public_private":"","city":"Gotland","postcode":"","emergency":"","ref_date":"","lon":18.29959,"house_number":"","url":"","site_name":"","pub_date":"2020_03_25","street":"","tel":"","id":"","facility_type":"","list_specs":"","lat":57.64785,"email":"","hospital_name":"Visby lasarett"},"id":"10555"},{"type":"Feature","geometry":{"type":"Point","coordinates":[16.7354,62.8218]},"properties":{"cc":"SE","country":"Sweden","public_private":"","city":"Riket","postcode":"","emergency":"","ref_date":"","lon":16.73538589477539,"house_number":"","url":"","site_name":"","pub_date":"2020_03_25","street":"","tel":"","id":"","facility_type":"","list_specs":"","lat":62.82179260253906,"email":"","hospital_name":"Riket"},"id":"10556"}]}