{"type":"FeatureCollection","features":[{"type":"Feature","geometry":{"type":"Point","coordinates":[18.0668,59.3326]},"properties":{"cc":"SE","country":"Sweden","city":"Stockholm","lon":18.066829681396484,"pub_date":"2020_03_24","lat":59.33256912231445,"hospital_name":"BB Stockholm"},"id":"10364"},{"type":"Feature","geometry":{"type":"Point","coordinates":[17.9745,59.2661]},"properties":{"cc":"SE","country":"Sweden","city":"Stockholm","lon":17.97445,"pub_date":"2020_03_24","lat":59.26611,"hospital_name":"Byle Gård"},"id":"10365"},{"type":"Feature","geometry":{"type":"Point","coordinates":[17.9773,59.3626]},"properties":{"cc":"SE","country":"Sweden","city":"Stockholm","lon":17.97729,"pub_date":"2020_03_24","lat":59.36257,"hospital_name":"Capio Maria AB"},"id":"10366"},{"type":"Feature","geometry":{"type":"Point","coordinates":[18.2882,59.2883]},"properties":{"cc":"SE","country":"Sweden","city":"Stockholm","lon":18.288230895996094,"pub_date":"2020_03_24","lat":59.288330078125,"hospital_name":"Capio Rehab Saltsjöbaden"},"id":"10367"},{"type":"Feature","geometry":{"type":"Point","coordinates":[18.0396,59.3925]},"properties":{"cc":"SE","country":"Sweden","city":"Stockholm","lon":18.03958,"pub_date":"2020_03_24","lat":59.39245,"hospital_name":"Danderyds sjukhus AB"},"id":"10368"},{"type":"Feature","geometry":{"type":"Point","coordinates":[18.0601,59.3094]},"properties":{"cc":"SE","country":"Sweden","city":"Stockholm","lon":18.06007,"pub_date":"2020_03_24","lat":59.30938,"hospital_name":"Ersta sjukhus"},"id":"10369"},{"type":"Feature","geometry":{"type":"Point","coordinates":[18.0668,59.3326]},"properties":{"cc":"SE","country":"Sweden","city":"Stockholm","lon":18.066829681396484,"pub_date":"2020_03_24","lat":59.33256912231445,"hospital_name":"Karolinska Universitetssjukhuset"},"id":"10370"},{"type":"Feature","geometry":{"type":"Point","coordinates":[18.0668,59.3326]},"properties":{"cc":"SE","country":"Sweden","city":"Stockholm","lon":18.066829681396484,"pub_date":"2020_03_24","lat":59.33256912231445,"hospital_name":"Mandometerkliniken Stockholm"},"id":"10371"},{"type":"Feature","geometry":{"type":"Point","coordinates":[18.0713,59.3192]},"properties":{"cc":"SE","country":"Sweden","city":"Stockholm","lon":18.07132,"pub_date":"2020_03_24","lat":59.3192,"hospital_name":"Maria Regina"},"id":"10372"},{"type":"Feature","geometry":{"type":"Point","coordinates":[18.0668,59.3326]},"properties":{"cc":"SE","country":"Sweden","city":"Stockholm","lon":18.066829681396484,"pub_date":"2020_03_24","lat":59.33256912231445,"hospital_name":"Ortopediska huset"},"id":"10373"},{"type":"Feature","geometry":{"type":"Point","coordinates":[18.0668,59.3326]},"properties":{"cc":"SE","country":"Sweden","city":"Stockholm","lon":18.066829681396484,"pub_date":"2020_03_24","lat":59.33256912231445,"hospital_name":"Rehab station Stockholm AB"},"id":"10374"},{"type":"Feature","geometry":{"type":"Point","coordinates":[18.0668,59.3326]},"properties":{"cc":"SE","country":"Sweden","city":"Stockholm","lon":18.066829681396484,"pub_date":"2020_03_24","lat":59.33256912231445,"hospital_name":"Rehabcenter Sfären"},"id":"10375"},{"type":"Feature","geometry":{"type":"Point","coordinates":[18.0668,59.3326]},"properties":{"cc":"SE","country":"Sweden","city":"Stockholm","lon":18.066829681396484,"pub_date":"2020_03_24","lat":59.33256912231445,"hospital_name":"S:t Eriks ögonsjukhus AB"},"id":"10376"},{"type":"Feature","geometry":{"type":"Point","coordinates":[18.0206,59.3341]},"properties":{"cc":"SE","country":"Sweden","city":"Stockholm","lon":18.020615,"pub_date":"2020_03_24","lat":59.334065,"hospital_name":"S:t Görans sjukhus AB"},"id":"10377"},{"type":"Feature","geometry":{"type":"Point","coordinates":[18.0668,59.3326]},"properties":{"cc":"SE","country":"Sweden","city":"Stockholm","lon":18.066829681396484,"pub_date":"2020_03_24","lat":59.33256912231445,"hospital_name":"Sophiahemmet"},"id":"10378"},{"type":"Feature","geometry":{"type":"Point","coordinates":[17.8998,59.3586]},"properties":{"cc":"SE","country":"Sweden","city":"Stockholm","lon":17.899821,"pub_date":"2020_03_24","lat":59.358606,"hospital_name":"Stockholms sjukhem Geriatrik Bromma"},"id":"10379"},{"type":"Feature","geometry":{"type":"Point","coordinates":[18.0668,59.3326]},"properties":{"cc":"SE","country":"Sweden","city":"Stockholm","lon":18.066829681396484,"pub_date":"2020_03_24","lat":59.33256912231445,"hospital_name":"Stångberga Legevisitten"},"id":"10380"},{"type":"Feature","geometry":{"type":"Point","coordinates":[18.0668,59.3326]},"properties":{"cc":"SE","country":"Sweden","city":"Stockholm","lon":18.066829681396484,"pub_date":"2020_03_24","lat":59.33256912231445,"hospital_name":"Södersjukhuset AB"},"id":"10381"},{"type":"Feature","geometry":{"type":"Point","coordinates":[18.0668,59.3326]},"properties":{"cc":"SE","country":"Sweden","city":"Stockholm","lon":18.066829681396484,"pub_date":"2020_03_24","lat":59.33256912231445,"hospital_name":"Dalens sjukhus"},"id":"10382"},{"type":"Feature","geometry":{"type":"Point","coordinates":[18.0668,59.3326]},"properties":{"cc":"SE","country":"Sweden","city":"Stockholm","lon":18.066829681396484,"pub_date":"2020_03_24","lat":59.33256912231445,"hospital_name":"Handens sjukhus"},"id":"10383"},{"type":"Feature","geometry":{"type":"Point","coordinates":[17.908,59.543]},"properties":{"cc":"SE","country":"Sweden","city":"Stockholm","lon":17.90801,"pub_date":"2020_03_24","lat":59.54301,"hospital_name":"Löwenströmska"},"id":"10384"},{"type":"Feature","geometry":{"type":"Point","coordinates":[18.069,59.3229]},"properties":{"cc":"SE","country":"Sweden","city":"Stockholm","lon":18.069,"pub_date":"2020_03_24","lat":59.32293,"hospital_name":"Mälargården"},"id":"10385"},{"type":"Feature","geometry":{"type":"Point","coordinates":[18.0601,59.3094]},"properties":{"cc":"SE","country":"Sweden","city":"Stockholm","lon":18.06007,"pub_date":"2020_03_24","lat":59.30938,"hospital_name":"Nacka sjukhus"},"id":"10386"},{"type":"Feature","geometry":{"type":"Point","coordinates":[18.0668,59.3326]},"properties":{"cc":"SE","country":"Sweden","city":"Stockholm","lon":18.066829681396484,"pub_date":"2020_03_24","lat":59.33256912231445,"hospital_name":"Norrtälje sjukhus (TioHundra AB)"},"id":"10387"},{"type":"Feature","geometry":{"type":"Point","coordinates":[18.0668,59.3326]},"properties":{"cc":"SE","country":"Sweden","city":"Stockholm","lon":18.066829681396484,"pub_date":"2020_03_24","lat":59.33256912231445,"hospital_name":"Nynäshamns sjukhus"},"id":"10388"},{"type":"Feature","geometry":{"type":"Point","coordinates":[18.0668,59.3326]},"properties":{"cc":"SE","country":"Sweden","city":"Stockholm","lon":18.066829681396484,"pub_date":"2020_03_24","lat":59.33256912231445,"hospital_name":"Stiftelsen Hublegården"},"id":"10389"},{"type":"Feature","geometry":{"type":"Point","coordinates":[18.0668,59.3326]},"properties":{"cc":"SE","country":"Sweden","city":"Stockholm","lon":18.066829681396484,"pub_date":"2020_03_24","lat":59.33256912231445,"hospital_name":"Stockholms läns sjukvårdsområde, (SLSO)"},"id":"10390"},{"type":"Feature","geometry":{"type":"Point","coordinates":[18.126,59.2575]},"properties":{"cc":"SE","country":"Sweden","city":"Stockholm","lon":18.12603,"pub_date":"2020_03_24","lat":59.25747,"hospital_name":"Stora Sköndals sjukhem"},"id":"10391"},{"type":"Feature","geometry":{"type":"Point","coordinates":[18.0668,59.3326]},"properties":{"cc":"SE","country":"Sweden","city":"Stockholm","lon":18.066829681396484,"pub_date":"2020_03_24","lat":59.33256912231445,"hospital_name":"Södertälje sjukhus AB"},"id":"10392"},{"type":"Feature","geometry":{"type":"Point","coordinates":[17.6437,59.8586]},"properties":{"cc":"SE","country":"Sweden","city":"Uppsala","lon":17.64373016357422,"pub_date":"2020_03_24","lat":59.858619689941406,"hospital_name":"Akademiska sjukhuset"},"id":"10393"},{"type":"Feature","geometry":{"type":"Point","coordinates":[17.0943,59.6389]},"properties":{"cc":"SE","country":"Sweden","city":"Uppsala","lon":17.094276428222656,"pub_date":"2020_03_24","lat":59.63887023925781,"hospital_name":"Lasarettet i Enköping"},"id":"10394"},{"type":"Feature","geometry":{"type":"Point","coordinates":[17.6437,59.8586]},"properties":{"cc":"SE","country":"Sweden","city":"Uppsala","lon":17.64373016357422,"pub_date":"2020_03_24","lat":59.858619689941406,"hospital_name":"Närvårdsavd i Uppsala"},"id":"10395"},{"type":"Feature","geometry":{"type":"Point","coordinates":[17.6437,59.8586]},"properties":{"cc":"SE","country":"Sweden","city":"Uppsala","lon":17.64373016357422,"pub_date":"2020_03_24","lat":59.858619689941406,"hospital_name":"Elisabethsjukhuset (Aleris)"},"id":"10396"},{"type":"Feature","geometry":{"type":"Point","coordinates":[16.2086,59.0148]},"properties":{"cc":"SE","country":"Sweden","city":"Sörmland","lon":16.20857,"pub_date":"2020_03_24","lat":59.01478,"hospital_name":"Karsuddens sjukhus"},"id":"10397"},{"type":"Feature","geometry":{"type":"Point","coordinates":[16.7354,62.8218]},"properties":{"cc":"SE","country":"Sweden","city":"Sörmland","lon":16.73538589477539,"pub_date":"2020_03_24","lat":62.82179260253906,"hospital_name":"Kullbergska sjukhuset"},"id":"10398"},{"type":"Feature","geometry":{"type":"Point","coordinates":[16.5362,59.3637]},"properties":{"cc":"SE","country":"Sweden","city":"Sörmland","lon":16.5362,"pub_date":"2020_03_24","lat":59.36365,"hospital_name":"Mälarsjukhuset"},"id":"10399"},{"type":"Feature","geometry":{"type":"Point","coordinates":[16.7354,62.8218]},"properties":{"cc":"SE","country":"Sweden","city":"Sörmland","lon":16.73538589477539,"pub_date":"2020_03_24","lat":62.82179260253906,"hospital_name":"Nyköpings sjukhus"},"id":"10400"},{"type":"Feature","geometry":{"type":"Point","coordinates":[15.7621,58.71]},"properties":{"cc":"SE","country":"Sweden","city":"Östergötland","lon":15.76212,"pub_date":"2020_03_24","lat":58.70999,"hospital_name":"Finspångs lasarett"},"id":"10401"},{"type":"Feature","geometry":{"type":"Point","coordinates":[15.0329,58.5425]},"properties":{"cc":"SE","country":"Sweden","city":"Östergötland","lon":15.03294,"pub_date":"2020_03_24","lat":58.54246,"hospital_name":"Lasarettet i Motala"},"id":"10402"},{"type":"Feature","geometry":{"type":"Point","coordinates":[15.6203,58.4009]},"properties":{"cc":"SE","country":"Sweden","city":"Östergötland","lon":15.620314,"pub_date":"2020_03_24","lat":58.40087,"hospital_name":"Universitetssjukhuset i Linköping"},"id":"10403"},{"type":"Feature","geometry":{"type":"Point","coordinates":[16.1787,58.563]},"properties":{"cc":"SE","country":"Sweden","city":"Östergötland","lon":16.178709,"pub_date":"2020_03_24","lat":58.562972,"hospital_name":"Vrinnevisjukhuset"},"id":"10404"},{"type":"Feature","geometry":{"type":"Point","coordinates":[14.1765,57.7798]},"properties":{"cc":"SE","country":"Sweden","city":"Jönköping","lon":14.176480293273926,"pub_date":"2020_03_24","lat":57.77975845336914,"hospital_name":"Höglandssjukhuset"},"id":"10405"},{"type":"Feature","geometry":{"type":"Point","coordinates":[14.1765,57.7798]},"properties":{"cc":"SE","country":"Sweden","city":"Jönköping","lon":14.176480293273926,"pub_date":"2020_03_24","lat":57.77975845336914,"hospital_name":"Länssjukhuset Ryhov"},"id":"10406"},{"type":"Feature","geometry":{"type":"Point","coordinates":[14.1765,57.7798]},"properties":{"cc":"SE","country":"Sweden","city":"Jönköping","lon":14.176480293273926,"pub_date":"2020_03_24","lat":57.77975845336914,"hospital_name":"Värnamo sjukhus"},"id":"10407"},{"type":"Feature","geometry":{"type":"Point","coordinates":[14.7994,56.88]},"properties":{"cc":"SE","country":"Sweden","city":"Kronoberg","lon":14.799449920654297,"pub_date":"2020_03_24","lat":56.87995910644531,"hospital_name":"Centrallasarettet, Växjö"},"id":"10408"},{"type":"Feature","geometry":{"type":"Point","coordinates":[13.932,56.8348]},"properties":{"cc":"SE","country":"Sweden","city":"Kronoberg","lon":13.93196,"pub_date":"2020_03_24","lat":56.83476,"hospital_name":"Ljungby lasarett"},"id":"10409"},{"type":"Feature","geometry":{"type":"Point","coordinates":[14.7994,56.88]},"properties":{"cc":"SE","country":"Sweden","city":"Kronoberg","lon":14.799449920654297,"pub_date":"2020_03_24","lat":56.87995910644531,"hospital_name":"Rehabcentrum (rehabkliniken), Växjö"},"id":"10410"},{"type":"Feature","geometry":{"type":"Point","coordinates":[16.3331,56.6593]},"properties":{"cc":"SE","country":"Sweden","city":"Kalmar","lon":16.33305,"pub_date":"2020_03_24","lat":56.65932,"hospital_name":"Länssjukhuset i Kalmar"},"id":"10411"},{"type":"Feature","geometry":{"type":"Point","coordinates":[16.1322,57.1079]},"properties":{"cc":"SE","country":"Sweden","city":"Kalmar","lon":16.13221,"pub_date":"2020_03_24","lat":57.10788,"hospital_name":"Oskarshamns sjukhus"},"id":"10412"},{"type":"Feature","geometry":{"type":"Point","coordinates":[16.401,57.8938]},"properties":{"cc":"SE","country":"Sweden","city":"Kalmar","lon":16.40096,"pub_date":"2020_03_24","lat":57.89382,"hospital_name":"Västerviks sjukhus"},"id":"10413"},{"type":"Feature","geometry":{"type":"Point","coordinates":[14.9619,57.9041]},"properties":{"cc":"SE","country":"Sweden","city":"Blekinge","lon":14.961870193481445,"pub_date":"2020_03_24","lat":57.90414047241211,"hospital_name":"Blekingesjukhuset"},"id":"10414"},{"type":"Feature","geometry":{"type":"Point","coordinates":[13.0012,55.5967]},"properties":{"cc":"SE","country":"Sweden","city":"Skåne","lon":13.001219749450684,"pub_date":"2020_03_24","lat":55.5966911315918,"hospital_name":"Aleris Plastikkirurgi Malmö"},"id":"10415"},{"type":"Feature","geometry":{"type":"Point","coordinates":[14.1687,56.0365]},"properties":{"cc":"SE","country":"Sweden","city":"Skåne","lon":14.168658256530762,"pub_date":"2020_03_24","lat":56.036521911621094,"hospital_name":"Centralsjukhuset Kristianstad"},"id":"10416"},{"type":"Feature","geometry":{"type":"Point","coordinates":[12.7046,56.0458]},"properties":{"cc":"SE","country":"Sweden","city":"Skåne","lon":12.704605,"pub_date":"2020_03_24","lat":56.045775,"hospital_name":"Helsingborgs lasarett"},"id":"10417"},{"type":"Feature","geometry":{"type":"Point","coordinates":[13.7789,56.1605]},"properties":{"cc":"SE","country":"Sweden","city":"Skåne","lon":13.778898,"pub_date":"2020_03_24","lat":56.160474,"hospital_name":"Hässleholms sjukhus"},"id":"10418"},{"type":"Feature","geometry":{"type":"Point","coordinates":[12.8389,55.8795]},"properties":{"cc":"SE","country":"Sweden","city":"Skåne","lon":12.838919639587402,"pub_date":"2020_03_24","lat":55.8795166015625,"hospital_name":"Lasarettet i Landskrona"},"id":"10419"},{"type":"Feature","geometry":{"type":"Point","coordinates":[13.8183,55.4344]},"properties":{"cc":"SE","country":"Sweden","city":"Skåne","lon":13.81826,"pub_date":"2020_03_24","lat":55.43437,"hospital_name":"Lasarettet i Ystad"},"id":"10420"},{"type":"Feature","geometry":{"type":"Point","coordinates":[13.1675,55.3777]},"properties":{"cc":"SE","country":"Sweden","city":"Skåne","lon":13.167510032653809,"pub_date":"2020_03_24","lat":55.37770080566406,"hospital_name":"Lasarettet Trelleborg"},"id":"10421"},{"type":"Feature","geometry":{"type":"Point","coordinates":[13.5478,55.9332]},"properties":{"cc":"SE","country":"Sweden","city":"Skåne","lon":13.547783851623535,"pub_date":"2020_03_24","lat":55.93321228027344,"hospital_name":"Lydiagården Höör"},"id":"10422"},{"type":"Feature","geometry":{"type":"Point","coordinates":[12.7304,56.0418]},"properties":{"cc":"SE","country":"Sweden","city":"Skåne","lon":12.730361938476562,"pub_date":"2020_03_24","lat":56.04181671142578,"hospital_name":"Palliativ sjukhusvård Helsingborg"},"id":"10423"},{"type":"Feature","geometry":{"type":"Point","coordinates":[14.1687,56.0365]},"properties":{"cc":"SE","country":"Sweden","city":"Skåne","lon":14.168658256530762,"pub_date":"2020_03_24","lat":56.036521911621094,"hospital_name":"Palliativ sjukhusvård Kristianstad"},"id":"10424"},{"type":"Feature","geometry":{"type":"Point","coordinates":[14.3423,55.5538]},"properties":{"cc":"SE","country":"Sweden","city":"Skåne","lon":14.342297554016113,"pub_date":"2020_03_24","lat":55.55376052856445,"hospital_name":"Praktikertjänst Närsjukhus Simrishamn"},"id":"10425"},{"type":"Feature","geometry":{"type":"Point","coordinates":[13.1986,55.7112]},"properties":{"cc":"SE","country":"Sweden","city":"Skåne","lon":13.19861,"pub_date":"2020_03_24","lat":55.711204,"hospital_name":"Skånes universitetssjukhus, Lund"},"id":"10426"},{"type":"Feature","geometry":{"type":"Point","coordinates":[13.0012,55.5967]},"properties":{"cc":"SE","country":"Sweden","city":"Skåne","lon":13.001219749450684,"pub_date":"2020_03_24","lat":55.5966911315918,"hospital_name":"Skånes universitetssjukhus, Malmö"},"id":"10427"},{"type":"Feature","geometry":{"type":"Point","coordinates":[12.7065,56.0604]},"properties":{"cc":"SE","country":"Sweden","city":"Skåne","lon":12.70645,"pub_date":"2020_03_24","lat":56.06036,"hospital_name":"Ängelholms sjukhus"},"id":"10428"},{"type":"Feature","geometry":{"type":"Point","coordinates":[12.8575,56.6723]},"properties":{"cc":"SE","country":"Sweden","city":"Halland","lon":12.857500076293945,"pub_date":"2020_03_24","lat":56.67226028442383,"hospital_name":"Capio Movement Halmstad"},"id":"10429"},{"type":"Feature","geometry":{"type":"Point","coordinates":[12.086,57.4945]},"properties":{"cc":"SE","country":"Sweden","city":"Halland","lon":12.085968,"pub_date":"2020_03_24","lat":57.494538,"hospital_name":"Hallands sjukhus"},"id":"10430"},{"type":"Feature","geometry":{"type":"Point","coordinates":[12.5005,56.9073]},"properties":{"cc":"SE","country":"Sweden","city":"Halland","lon":12.500539,"pub_date":"2020_03_24","lat":56.907252,"hospital_name":"Palliativa allmänna vårdavd"},"id":"10431"},{"type":"Feature","geometry":{"type":"Point","coordinates":[12.5223,57.9297]},"properties":{"cc":"SE","country":"Sweden","city":"Västra Götaland","lon":12.52234,"pub_date":"2020_03_24","lat":57.92968,"hospital_name":"Alingsås lasarett"},"id":"10432"},{"type":"Feature","geometry":{"type":"Point","coordinates":[11.9127,57.6505]},"properties":{"cc":"SE","country":"Sweden","city":"Västra Götaland","lon":11.912671,"pub_date":"2020_03_24","lat":57.650495,"hospital_name":"Frölunda specialistsjukhus"},"id":"10433"},{"type":"Feature","geometry":{"type":"Point","coordinates":[11.9697,57.8785]},"properties":{"cc":"SE","country":"Sweden","city":"Västra Götaland","lon":11.969664,"pub_date":"2020_03_24","lat":57.878457,"hospital_name":"Kungälvs sjukhus"},"id":"10434"},{"type":"Feature","geometry":{"type":"Point","coordinates":[11.9367,57.7211]},"properties":{"cc":"SE","country":"Sweden","city":"Västra Götaland","lon":11.936681,"pub_date":"2020_03_24","lat":57.721113,"hospital_name":"Lundby sjukhus AB"},"id":"10435"},{"type":"Feature","geometry":{"type":"Point","coordinates":[12.2669,58.3182]},"properties":{"cc":"SE","country":"Sweden","city":"Västra Götaland","lon":12.266875,"pub_date":"2020_03_24","lat":58.318229,"hospital_name":"NU-sjukvården"},"id":"10436"},{"type":"Feature","geometry":{"type":"Point","coordinates":[11.9618,57.6827]},"properties":{"cc":"SE","country":"Sweden","city":"Västra Götaland","lon":11.961790084838867,"pub_date":"2020_03_24","lat":57.68267059326172,"hospital_name":"Sahlgrenska universitetssjukhuset"},"id":"10437"},{"type":"Feature","geometry":{"type":"Point","coordinates":[14.5283,58.5348]},"properties":{"cc":"SE","country":"Sweden","city":"Västra Götaland","lon":14.52833,"pub_date":"2020_03_24","lat":58.53477,"hospital_name":"Skaraborgs sjukhus"},"id":"10438"},{"type":"Feature","geometry":{"type":"Point","coordinates":[11.9682,57.7007]},"properties":{"cc":"SE","country":"Sweden","city":"Västra Götaland","lon":11.968219757080078,"pub_date":"2020_03_24","lat":57.70066833496094,"hospital_name":"Stadsmissionen Göteborg"},"id":"10439"},{"type":"Feature","geometry":{"type":"Point","coordinates":[12.9612,57.7242]},"properties":{"cc":"SE","country":"Sweden","city":"Västra Götaland","lon":12.961219,"pub_date":"2020_03_24","lat":57.724226,"hospital_name":"Södra Älvsborgs sjukhus"},"id":"10440"},{"type":"Feature","geometry":{"type":"Point","coordinates":[11.9895,57.6925]},"properties":{"cc":"SE","country":"Sweden","city":"Västra Götaland","lon":11.989493,"pub_date":"2020_03_24","lat":57.692534,"hospital_name":"Carlanderska sjukhemmet"},"id":"10441"},{"type":"Feature","geometry":{"type":"Point","coordinates":[13.1525,58.4979]},"properties":{"cc":"SE","country":"Sweden","city":"Västra Götaland","lon":13.152461,"pub_date":"2020_03_24","lat":58.497937,"hospital_name":"Hospice Gabriel"},"id":"10442"},{"type":"Feature","geometry":{"type":"Point","coordinates":[13.7045,60.0309]},"properties":{"cc":"SE","country":"Sweden","city":"Värmland","lon":13.70454,"pub_date":"2020_03_24","lat":60.03085,"hospital_name":"Arvika sjukhus"},"id":"10443"},{"type":"Feature","geometry":{"type":"Point","coordinates":[13.478,59.3748]},"properties":{"cc":"SE","country":"Sweden","city":"Värmland","lon":13.478027,"pub_date":"2020_03_24","lat":59.374776,"hospital_name":"Centralsjukhuset Karlstad"},"id":"10444"},{"type":"Feature","geometry":{"type":"Point","coordinates":[14.1083,59.3146]},"properties":{"cc":"SE","country":"Sweden","city":"Värmland","lon":14.108336448669434,"pub_date":"2020_03_24","lat":59.31459045410156,"hospital_name":"Sjukhuset i Kristinehamn"},"id":"10445"},{"type":"Feature","geometry":{"type":"Point","coordinates":[12.9334,59.1359]},"properties":{"cc":"SE","country":"Sweden","city":"Värmland","lon":12.933425,"pub_date":"2020_03_24","lat":59.135863,"hospital_name":"Sjukhuset i Säffle"},"id":"10446"},{"type":"Feature","geometry":{"type":"Point","coordinates":[13.7045,60.0309]},"properties":{"cc":"SE","country":"Sweden","city":"Värmland","lon":13.70454,"pub_date":"2020_03_24","lat":60.03085,"hospital_name":"Torsby sjukhus"},"id":"10447"},{"type":"Feature","geometry":{"type":"Point","coordinates":[14.5079,59.3161]},"properties":{"cc":"SE","country":"Sweden","city":"Örebro","lon":14.50786,"pub_date":"2020_03_24","lat":59.31608,"hospital_name":"Karlskoga lasarett"},"id":"10448"},{"type":"Feature","geometry":{"type":"Point","coordinates":[15.2167,59.6021]},"properties":{"cc":"SE","country":"Sweden","city":"Örebro","lon":15.216675,"pub_date":"2020_03_24","lat":59.602146,"hospital_name":"Lindesbergs lasarett"},"id":"10449"},{"type":"Feature","geometry":{"type":"Point","coordinates":[15.2251,59.2755]},"properties":{"cc":"SE","country":"Sweden","city":"Örebro","lon":15.225082,"pub_date":"2020_03_24","lat":59.275458,"hospital_name":"Universitetssjukhuset i Örebro"},"id":"10450"},{"type":"Feature","geometry":{"type":"Point","coordinates":[15.8096,59.9969]},"properties":{"cc":"SE","country":"Sweden","city":"Västmanland","lon":15.809639930725098,"pub_date":"2020_03_24","lat":59.99690246582031,"hospital_name":"Närsjukh. Primärv Fagersta"},"id":"10451"},{"type":"Feature","geometry":{"type":"Point","coordinates":[15.9966,59.5106]},"properties":{"cc":"SE","country":"Sweden","city":"Västmanland","lon":15.996578216552734,"pub_date":"2020_03_24","lat":59.51056671142578,"hospital_name":"Sjukhuset i Köping"},"id":"10452"},{"type":"Feature","geometry":{"type":"Point","coordinates":[16.6019,59.9239]},"properties":{"cc":"SE","country":"Sweden","city":"Västmanland","lon":16.601866,"pub_date":"2020_03_24","lat":59.923946,"hospital_name":"Sjukhuset i Sala"},"id":"10453"},{"type":"Feature","geometry":{"type":"Point","coordinates":[16.5453,59.6096]},"properties":{"cc":"SE","country":"Sweden","city":"Västmanland","lon":16.54534912109375,"pub_date":"2020_03_24","lat":59.609580993652344,"hospital_name":"Sjukhuset i Västerås"},"id":"10454"},{"type":"Feature","geometry":{"type":"Point","coordinates":[16.2008,60.1412]},"properties":{"cc":"SE","country":"Sweden","city":"Dalarna","lon":16.200819,"pub_date":"2020_03_24","lat":60.141154,"hospital_name":"Avesta lasarett"},"id":"10455"},{"type":"Feature","geometry":{"type":"Point","coordinates":[15.4658,60.5039]},"properties":{"cc":"SE","country":"Sweden","city":"Darlana","lon":15.465829,"pub_date":"2020_03_24","lat":60.503941,"hospital_name":"Borlänge sjukhus"},"id":"10456"},{"type":"Feature","geometry":{"type":"Point","coordinates":[15.6471,60.6079]},"properties":{"cc":"SE","country":"Sweden","city":"Dalarna","lon":15.64706,"pub_date":"2020_03_24","lat":60.60785,"hospital_name":"Falu lasarett"},"id":"10457"},{"type":"Feature","geometry":{"type":"Point","coordinates":[15.1952,60.139]},"properties":{"cc":"SE","country":"Sweden","city":"Dalarna","lon":15.195231437683105,"pub_date":"2020_03_24","lat":60.139015197753906,"hospital_name":"Ludvika lasarett"},"id":"10458"},{"type":"Feature","geometry":{"type":"Point","coordinates":[14.5823,61.0114]},"properties":{"cc":"SE","country":"Sweden","city":"Dalarna","lon":14.58232,"pub_date":"2020_03_24","lat":61.01144,"hospital_name":"Mora lasarett"},"id":"10459"},{"type":"Feature","geometry":{"type":"Point","coordinates":[15.7159,60.3405]},"properties":{"cc":"SE","country":"Sweden","city":"Dalarna","lon":15.715904,"pub_date":"2020_03_24","lat":60.34053,"hospital_name":"Säters sjukhus, psykiatri"},"id":"10460"},{"type":"Feature","geometry":{"type":"Point","coordinates":[16.1284,61.8256]},"properties":{"cc":"SE","country":"Sweden","city":"Gävleborg","lon":16.12839,"pub_date":"2020_03_24","lat":61.82557,"hospital_name":"Hudiksvalls sjukhus"},"id":"10461"},{"type":"Feature","geometry":{"type":"Point","coordinates":[16.3689,61.3516]},"properties":{"cc":"SE","country":"Sweden","city":"Gävleborg","lon":16.36891,"pub_date":"2020_03_24","lat":61.35162,"hospital_name":"Bollnäs sjukhus (Aleris)"},"id":"10462"},{"type":"Feature","geometry":{"type":"Point","coordinates":[16.3689,61.3516]},"properties":{"cc":"SE","country":"Sweden","city":"Gävleborg","lon":16.36891,"pub_date":"2020_03_24","lat":61.35162,"hospital_name":"Gävle sjukhus"},"id":"10463"},{"type":"Feature","geometry":{"type":"Point","coordinates":[16.1092,61.8283]},"properties":{"cc":"SE","country":"Sweden","city":"Gävleborg","lon":16.109194,"pub_date":"2020_03_24","lat":61.828258,"hospital_name":"Ljusdals närsjukhus"},"id":"10464"},{"type":"Feature","geometry":{"type":"Point","coordinates":[16.7596,60.609]},"properties":{"cc":"SE","country":"Sweden","city":"Gävleborg","lon":16.759624,"pub_date":"2020_03_24","lat":60.608992,"hospital_name":"Sandvikens närsjukhus"},"id":"10465"},{"type":"Feature","geometry":{"type":"Point","coordinates":[17.4361,62.526]},"properties":{"cc":"SE","country":"Sweden","city":"Västernorrland","lon":17.436140060424805,"pub_date":"2020_03_24","lat":62.526031494140625,"hospital_name":"Länssjukhuset Sundsvall-Härnösand"},"id":"10466"},{"type":"Feature","geometry":{"type":"Point","coordinates":[17.2525,63.1036]},"properties":{"cc":"SE","country":"Sweden","city":"Västernorrland","lon":17.252464294433594,"pub_date":"2020_03_24","lat":63.103633880615234,"hospital_name":"Mellannorrlands Hospice AB"},"id":"10467"},{"type":"Feature","geometry":{"type":"Point","coordinates":[17.2727,63.168]},"properties":{"cc":"SE","country":"Sweden","city":"Västernorrland","lon":17.272720336914062,"pub_date":"2020_03_24","lat":63.16801071166992,"hospital_name":"Sollefteå sjukhus"},"id":"10468"},{"type":"Feature","geometry":{"type":"Point","coordinates":[18.7146,63.299]},"properties":{"cc":"SE","country":"Sweden","city":"Västernorrland","lon":18.71459,"pub_date":"2020_03_24","lat":63.29898,"hospital_name":"Örnsköldsviks sjukhus"},"id":"10469"},{"type":"Feature","geometry":{"type":"Point","coordinates":[14.3748,62.0351]},"properties":{"cc":"SE","country":"Sweden","city":"Jämtland Härjedalen","lon":14.37477970123291,"pub_date":"2020_03_24","lat":62.035118103027344,"hospital_name":"Näva, Strömsund"},"id":"10470"},{"type":"Feature","geometry":{"type":"Point","coordinates":[14.3748,62.0351]},"properties":{"cc":"SE","country":"Sweden","city":"Jämtland Härjedalen","lon":14.37477970123291,"pub_date":"2020_03_24","lat":62.035118103027344,"hospital_name":"Östersunds sjukhus"},"id":"10471"},{"type":"Feature","geometry":{"type":"Point","coordinates":[20.1767,63.8361]},"properties":{"cc":"SE","country":"Sweden","city":"Västerbotten","lon":20.17669,"pub_date":"2020_03_24","lat":63.83611,"hospital_name":"Axlagården"},"id":"10472"},{"type":"Feature","geometry":{"type":"Point","coordinates":[16.4181,64.2593]},"properties":{"cc":"SE","country":"Sweden","city":"Västerbotten","lon":16.418072,"pub_date":"2020_03_24","lat":64.259299,"hospital_name":"Dorotea sjukstuga"},"id":"10473"},{"type":"Feature","geometry":{"type":"Point","coordinates":[18.6792,64.5852]},"properties":{"cc":"SE","country":"Sweden","city":"Västerbotten","lon":18.679249,"pub_date":"2020_03_24","lat":64.585205,"hospital_name":"Lycksele lasarett"},"id":"10474"},{"type":"Feature","geometry":{"type":"Point","coordinates":[18.7556,65.1753]},"properties":{"cc":"SE","country":"Sweden","city":"Västerbotten","lon":18.755641,"pub_date":"2020_03_24","lat":65.17532,"hospital_name":"Malå sjukstuga"},"id":"10475"},{"type":"Feature","geometry":{"type":"Point","coordinates":[20.2979,63.8175]},"properties":{"cc":"SE","country":"Sweden","city":"Västerbotten","lon":20.29792022705078,"pub_date":"2020_03_24","lat":63.81752014160156,"hospital_name":"Norrlands Universitetssjukhus"},"id":"10476"},{"type":"Feature","geometry":{"type":"Point","coordinates":[20.9419,64.7573]},"properties":{"cc":"SE","country":"Sweden","city":"Västerbotten","lon":20.94185,"pub_date":"2020_03_24","lat":64.75726,"hospital_name":"Skellefteå lasarett"},"id":"10477"},{"type":"Feature","geometry":{"type":"Point","coordinates":[17.541,65.5373]},"properties":{"cc":"SE","country":"Sweden","city":"Västerbotten","lon":17.541003,"pub_date":"2020_03_24","lat":65.537307,"hospital_name":"Sorsele sjukstuga"},"id":"10478"},{"type":"Feature","geometry":{"type":"Point","coordinates":[17.1218,65.097]},"properties":{"cc":"SE","country":"Sweden","city":"Västerbotten","lon":17.121805,"pub_date":"2020_03_24","lat":65.096957,"hospital_name":"Storuman sjukstuga"},"id":"10479"},{"type":"Feature","geometry":{"type":"Point","coordinates":[15.3132,65.7157]},"properties":{"cc":"SE","country":"Sweden","city":"Västerbotten","lon":15.313197,"pub_date":"2020_03_24","lat":65.715738,"hospital_name":"Tärnaby sjukstuga"},"id":"10480"},{"type":"Feature","geometry":{"type":"Point","coordinates":[16.6616,64.6252]},"properties":{"cc":"SE","country":"Sweden","city":"Västerbotten","lon":16.661627,"pub_date":"2020_03_24","lat":64.625216,"hospital_name":"Vilhelmina sjukstuga"},"id":"10481"},{"type":"Feature","geometry":{"type":"Point","coordinates":[17.3596,64.161]},"properties":{"cc":"SE","country":"Sweden","city":"Västerbotten","lon":17.359634,"pub_date":"2020_03_24","lat":64.160975,"hospital_name":"Åsele sjukstuga"},"id":"10482"},{"type":"Feature","geometry":{"type":"Point","coordinates":[17.8919,66.05]},"properties":{"cc":"SE","country":"Sweden","city":"Norrbotten","lon":17.891863,"pub_date":"2020_03_24","lat":66.04996,"hospital_name":"Arjeplog vårdcentral"},"id":"10483"},{"type":"Feature","geometry":{"type":"Point","coordinates":[19.1681,65.5966]},"properties":{"cc":"SE","country":"Sweden","city":"Norrbotten","lon":19.168086,"pub_date":"2020_03_24","lat":65.596649,"hospital_name":"Arvidsjaur vårdcentral"},"id":"10484"},{"type":"Feature","geometry":{"type":"Point","coordinates":[20.6874,67.1313]},"properties":{"cc":"SE","country":"Sweden","city":"Norrbotten","lon":20.687395,"pub_date":"2020_03_24","lat":67.13133,"hospital_name":"Gällivare sjukhus"},"id":"10485"},{"type":"Feature","geometry":{"type":"Point","coordinates":[19.8434,66.6021]},"properties":{"cc":"SE","country":"Sweden","city":"Norrbotten","lon":19.843368,"pub_date":"2020_03_24","lat":66.602087,"hospital_name":"Jokkmokk vårdcentral"},"id":"10486"},{"type":"Feature","geometry":{"type":"Point","coordinates":[23.1564,65.8547]},"properties":{"cc":"SE","country":"Sweden","city":"Norrbotten","lon":23.156408,"pub_date":"2020_03_24","lat":65.854716,"hospital_name":"Kalix sjukhus"},"id":"10487"},{"type":"Feature","geometry":{"type":"Point","coordinates":[20.24,67.8498]},"properties":{"cc":"SE","country":"Sweden","city":"Norrbotten","lon":20.239989,"pub_date":"2020_03_24","lat":67.849807,"hospital_name":"Kiruna sjukhus"},"id":"10488"},{"type":"Feature","geometry":{"type":"Point","coordinates":[23.3433,67.2237]},"properties":{"cc":"SE","country":"Sweden","city":"Norrbotten","lon":23.343286,"pub_date":"2020_03_24","lat":67.223678,"hospital_name":"Pajala  vårdcentral"},"id":"10489"},{"type":"Feature","geometry":{"type":"Point","coordinates":[21.9311,65.6724]},"properties":{"cc":"SE","country":"Sweden","city":"Norrbotten","lon":21.931057,"pub_date":"2020_03_24","lat":65.672435,"hospital_name":"Sunderby sjukhus"},"id":"10490"},{"type":"Feature","geometry":{"type":"Point","coordinates":[22.8469,66.3385]},"properties":{"cc":"SE","country":"Sweden","city":"Norrbotten","lon":22.846871,"pub_date":"2020_03_24","lat":66.338472,"hospital_name":"Överkalix  vårdcentral"},"id":"10491"},{"type":"Feature","geometry":{"type":"Point","coordinates":[23.6531,66.3889]},"properties":{"cc":"SE","country":"Sweden","city":"Norrbotten","lon":23.65306,"pub_date":"2020_03_24","lat":66.38895,"hospital_name":"Övertorneå  vårdcentral"},"id":"10492"},{"type":"Feature","geometry":{"type":"Point","coordinates":[21.9256,65.671]},"properties":{"cc":"SE","country":"Sweden","city":"Norrbotten","lon":21.92564,"pub_date":"2020_03_24","lat":65.67104,"hospital_name":"Piteå sjukhus"},"id":"10493"},{"type":"Feature","geometry":{"type":"Point","coordinates":[18.2996,57.6479]},"properties":{"cc":"SE","country":"Sweden","city":"Gotland","lon":18.29959,"pub_date":"2020_03_24","lat":57.64785,"hospital_name":"Visby lasarett"},"id":"10494"},{"type":"Feature","geometry":{"type":"Point","coordinates":[16.7354,62.8218]},"properties":{"cc":"SE","country":"Sweden","city":"Riket","lon":16.73538589477539,"pub_date":"2020_03_24","lat":62.82179260253906,"hospital_name":"Riket"},"id":"10495"}]}