{"type":"FeatureCollection","features":[{"type":"Feature","geometry":{"type":"Point","coordinates":[-0.406,51.38]},"properties":{"cc":"UK","country":"United Kingdom","public_private":"private","city":"Walton-on-Thames","postcode":"KT12 3LD","lon":-0.406042069,"pub_date":"2020_03_24","tel":"1932414205","facility_type":"Hospital","lat":51.37999725,"hospital_name":"Walton Community Hospital - Virgin Care Services Ltd"},"id":"10496"},{"type":"Feature","geometry":{"type":"Point","coordinates":[-0.5563,51.3151]},"properties":{"cc":"UK","country":"United Kingdom","public_private":"private","city":"Woking","postcode":"GU22 7HS","lon":-0.556289494,"pub_date":"2020_03_24","tel":"1483715911","facility_type":"Hospital","lat":51.31513214,"hospital_name":"Woking Community Hospital (Virgin Care)"},"id":"10497"},{"type":"Feature","geometry":{"type":"Point","coordinates":[-2.8472,51.4372]},"properties":{"cc":"UK","country":"United Kingdom","public_private":"public","city":"Clevedon","postcode":"BS21 6BS","lon":-2.847192764,"url":"http:\/\/www.nscphealth.co.uk","pub_date":"2020_03_24","tel":"1275872212","facility_type":"Hospital","lat":51.43719482,"hospital_name":"North Somerset Community Hospital"},"id":"10498"},{"type":"Feature","geometry":{"type":"Point","coordinates":[-2.2455,53.4597]},"properties":{"cc":"UK","country":"United Kingdom","public_private":"private","city":"Manchester","postcode":"M15 5AT","lon":-2.245468855,"url":"www.bridgewaterhospital.com","pub_date":"2020_03_24","tel":"1612270000","facility_type":"Hospital","lat":53.4597435,"hospital_name":"Bridgewater Hospital"},"id":"10499"},{"type":"Feature","geometry":{"type":"Point","coordinates":[-0.0306,52.0781]},"properties":{"cc":"UK","country":"United Kingdom","public_private":"private","city":"Royston","postcode":"SG8 5JP","lon":-0.0306,"url":"www.partnershipsincare.co.uk","pub_date":"2020_03_24","tel":"1763255700","facility_type":"Hospital","lat":52.07812119,"email":"reception_kneesworthhouse@partnershipsincare.co.uk","hospital_name":"Kneesworth House"},"id":"10500"},{"type":"Feature","geometry":{"type":"Point","coordinates":[-1.0026,53.9954]},"properties":{"cc":"UK","country":"United Kingdom","public_private":"private","city":"York","postcode":"YO32 9UN","lon":-1.002552867,"url":"https:\/\/www.priorygroup.com\/stockton-hall","pub_date":"2020_03_24","tel":"1904400500","facility_type":"Hospital","lat":53.99539185,"email":"info@priorygroup.com","hospital_name":"Stockton Hall Hospital"},"id":"10501"},{"type":"Feature","geometry":{"type":"Point","coordinates":[1.2614,51.9347]},"properties":{"cc":"UK","country":"United Kingdom","public_private":"private","city":"Harwich","postcode":"CO12 4EX","lon":1.261444092,"pub_date":"2020_03_24","tel":"1255201200","facility_type":"Hospital","lat":51.9346962,"hospital_name":"Fryatt Hospital, Harwich"},"id":"10502"},{"type":"Feature","geometry":{"type":"Point","coordinates":[1.1482,51.7861]},"properties":{"cc":"UK","country":"United Kingdom","public_private":"private","city":"Clacton","postcode":"CO15 1LH","lon":1.148187518,"url":"https:\/\/www.esneft.nhs.uk\/your-visit\/our-wards\/clacton-hospital\/","pub_date":"2020_03_24","tel":"1255201717","facility_type":"Hospital","lat":51.78607941,"hospital_name":"Clacton Hospital"},"id":"10503"},{"type":"Feature","geometry":{"type":"Point","coordinates":[-0.3103,52.1983]},"properties":{"cc":"UK","country":"United Kingdom","public_private":"private","city":"Bedford","postcode":"MK44 3AS","lon":-0.31028071,"pub_date":"2020_03_24","facility_type":"Hospital","lat":52.19832611,"hospital_name":"Lakeside Hospital"},"id":"10504"},{"type":"Feature","geometry":{"type":"Point","coordinates":[-0.283,52.6049]},"properties":{"cc":"UK","country":"United Kingdom","public_private":"private","city":"Peterborough","postcode":"PE3 8YA","lon":-0.283021808,"pub_date":"2020_03_24","tel":"1733333156","facility_type":"Hospital","lat":52.60494232,"email":"info@orthospine.co.uk","hospital_name":"Orthopaedics and Spine Specialist Hospital"},"id":"10505"},{"type":"Feature","geometry":{"type":"Point","coordinates":[-3.9597,50.3895]},"properties":{"cc":"UK","country":"United Kingdom","public_private":"private","city":"Plymouth","postcode":"PL21 9HL","lon":-3.959660053,"pub_date":"2020_03_24","tel":"1752314800","facility_type":"Hospital","lat":50.38948441,"hospital_name":"Lee Mill Hospital"},"id":"10506"},{"type":"Feature","geometry":{"type":"Point","coordinates":[-4.1127,50.3784]},"properties":{"cc":"UK","country":"United Kingdom","public_private":"private","city":"Plymouth","postcode":"PL4 7QD","lon":-4.112740517,"url":"https:\/\/www.livewellsouthwest.co.uk\/","pub_date":"2020_03_24","tel":"1752268011","facility_type":"Hospital","lat":50.37840271,"hospital_name":"Mount Gould Hospital"},"id":"10507"},{"type":"Feature","geometry":{"type":"Point","coordinates":[-1.8709,50.7304]},"properties":{"cc":"UK","country":"United Kingdom","public_private":"private","city":"Bournemouth","postcode":"BH1 1RW","lon":-1.870926738,"url":"http:\/\/www.nuffieldhealth.com\/individuals\/centres\/b\/bournemouth\/","pub_date":"2020_03_24","tel":"8000155020","facility_type":"Hospital","lat":50.73041916,"email":"nuffieldhealth.ereferrals@nhs.net","hospital_name":"Nuffield Health, Bournemouth Hospital"},"id":"10508"},{"type":"Feature","geometry":{"type":"Point","coordinates":[0.3128,51.6233]},"properties":{"cc":"UK","country":"United Kingdom","public_private":"private","city":"Brentwood","postcode":"CM15 8EH","lon":0.312835306,"url":"http:\/\/www.nuffieldhealth.com\/brentwoodhospital","pub_date":"2020_03_24","tel":"8000155020","facility_type":"Hospital","lat":51.62333298,"email":"nuffieldhealth.ereferrals@nhs.net","hospital_name":"Nuffield Health, Brentwood Hospital"},"id":"10509"},{"type":"Feature","geometry":{"type":"Point","coordinates":[-0.0819,50.8345]},"properties":{"cc":"UK","country":"United Kingdom","public_private":"private","city":"Brighton","postcode":"BN2 6DX","lon":-0.0819,"url":"http:\/\/www.nuffieldhealth.com\/brightonhospital","pub_date":"2020_03_24","tel":"8000155020","facility_type":"Hospital","lat":50.83451843,"email":"nuffieldhealth.ereferrals@nhs.net","hospital_name":"Nuffield Health, Brighton Hospital"},"id":"10510"},{"type":"Feature","geometry":{"type":"Point","coordinates":[-2.616,51.4536]},"properties":{"cc":"UK","country":"United Kingdom","public_private":"private","city":"Bristol","postcode":"BS8 1BN","lon":-2.61598444,"url":"http:\/\/www.nuffieldhealth.com\/hospitals\/bristol","pub_date":"2020_03_24","tel":"8000155020","facility_type":"Hospital","lat":51.45360947,"email":"nuffieldhealth.ereferrals@nhs.net","hospital_name":"Nuffield Health, Bristol Hospital (Chesterfield)"},"id":"10511"},{"type":"Feature","geometry":{"type":"Point","coordinates":[0.1236,52.1904]},"properties":{"cc":"UK","country":"United Kingdom","public_private":"private","city":"Cambridge","postcode":"CB2 8AF","lon":0.123558596,"url":"http:\/\/www.nuffieldhealth.com\/cambridgehospital","pub_date":"2020_03_24","tel":"8000155020","facility_type":"Hospital","lat":52.19035339,"email":"nuffieldhealth.ereferrals@nhs.net","hospital_name":"Nuffield Health, Cambridge Hospital"},"id":"10512"},{"type":"Feature","geometry":{"type":"Point","coordinates":[-2.8952,53.1763]},"properties":{"cc":"UK","country":"United Kingdom","public_private":"private","city":"Chester","postcode":"CH4 7QP","lon":-2.895246744,"url":"http:\/\/www.nuffieldhealth.com\/thegrosvenorhospitalchester","pub_date":"2020_03_24","tel":"8000155020","facility_type":"Hospital","lat":53.17634583,"email":"nuffieldhealth.ereferrals@nhs.net","hospital_name":"Nuffield Health, The Grosvenor Hospital, Chester"},"id":"10513"},{"type":"Feature","geometry":{"type":"Point","coordinates":[-2.1299,51.8919]},"properties":{"cc":"UK","country":"United Kingdom","public_private":"private","city":"Cheltenham","postcode":"GL51 6SY","lon":-2.129905462,"url":"http:\/\/www.nuffieldhealth.com\/cheltenhamhospital","pub_date":"2020_03_24","tel":"8000155020","facility_type":"Hospital","lat":51.89192963,"email":"nuffieldhealth.ereferrals@nhs.net","hospital_name":"Nuffield Health, Cheltenham Hospital"},"id":"10514"},{"type":"Feature","geometry":{"type":"Point","coordinates":[-0.78,50.848]},"properties":{"cc":"UK","country":"United Kingdom","public_private":"private","city":"Chichester","postcode":"PO19 6WB","lon":-0.780013144,"url":"http:\/\/www.nuffieldhealth.com\/chichesterhospital","pub_date":"2020_03_24","tel":"8000155020","facility_type":"Hospital","lat":50.8479805,"email":"nuffieldhealth.ereferrals@nhs.net","hospital_name":"Nuffield Health, Chichester Hospital"},"id":"10515"},{"type":"Feature","geometry":{"type":"Point","coordinates":[-1.5302,52.8936]},"properties":{"cc":"UK","country":"United Kingdom","public_private":"private","city":"Derby","postcode":"DE23 4SN","lon":-1.530155182,"url":"http:\/\/www.nuffieldhealth.com\/derbyhospital","pub_date":"2020_03_24","tel":"8000155020","facility_type":"Hospital","lat":52.89355087,"email":"nuffieldhealth.ereferrals@nhs.net","hospital_name":"Nuffield Health, Derby Hospital"},"id":"10516"},{"type":"Feature","geometry":{"type":"Point","coordinates":[-1.3594,50.997]},"properties":{"cc":"UK","country":"United Kingdom","public_private":"private","city":"Eastleigh","postcode":"SO53 2DW","lon":-1.35935092,"url":"http:\/\/www.nuffieldhealth.com\/hospitals\/wessex","pub_date":"2020_03_24","tel":"8000155020","facility_type":"Hospital","lat":50.99697495,"email":"nuffieldhealth.ereferrals@nhs.net","hospital_name":"Nuffield Health, Wessex Hospital"},"id":"10517"},{"type":"Feature","geometry":{"type":"Point","coordinates":[-3.5113,50.7163]},"properties":{"cc":"UK","country":"United Kingdom","public_private":"private","city":"Exeter","postcode":"EX2 4UG","lon":-3.511271715,"url":"http:\/\/www.nuffieldhealth.com\/exeterhospital","pub_date":"2020_03_24","tel":"8000155020","facility_type":"Hospital","lat":50.71631622,"email":"nuffieldhealth.ereferrals@nhs.net","hospital_name":"Nuffield Health, Exeter Hospital"},"id":"10518"},{"type":"Feature","geometry":{"type":"Point","coordinates":[-0.6125,51.2417]},"properties":{"cc":"UK","country":"United Kingdom","public_private":"private","city":"Guildford","postcode":"GU2 7RF","lon":-0.612543583,"url":"http:\/\/www.nuffieldhealth.com\/guildfordhospital","pub_date":"2020_03_24","tel":"1483555800","facility_type":"Hospital","lat":51.24165344,"hospital_name":"Nuffield Health, Guildford Hospital"},"id":"10519"},{"type":"Feature","geometry":{"type":"Point","coordinates":[-0.1061,51.0084]},"properties":{"cc":"UK","country":"United Kingdom","public_private":"private","city":"Haywards Heath","postcode":"RH16 1UD","lon":-0.106121421,"url":"http:\/\/www.nuffieldhealth.com\/haywards-heathhospital","pub_date":"2020_03_24","tel":"8000155020","facility_type":"Hospital","lat":51.00840378,"email":"nuffieldhealth.ereferrals@nhs.net","hospital_name":"Nuffield Health, Haywards Heath Hospital"},"id":"10520"},{"type":"Feature","geometry":{"type":"Point","coordinates":[-2.7,52.0639]},"properties":{"cc":"UK","country":"United Kingdom","public_private":"private","city":"Hereford","postcode":"HR1 1DF","lon":-2.69995451,"url":"http:\/\/www.nuffieldhealth.com\/herefordhospital","pub_date":"2020_03_24","tel":"1432355131","facility_type":"Hospital","lat":52.06393814,"email":"nuffieldhealth.ereferrals@nhs.net","hospital_name":"Nuffield Health, Hereford Hospital"},"id":"10521"},{"type":"Feature","geometry":{"type":"Point","coordinates":[1.2289,52.0475]},"properties":{"cc":"UK","country":"United Kingdom","public_private":"private","city":"Ipswich","postcode":"IP4 5SW","lon":1.228945851,"url":"http:\/\/www.nuffieldhealth.com\/ipswichhospital","pub_date":"2020_03_24","tel":"8000155020","facility_type":"Hospital","lat":52.04751968,"email":"nuffieldhealth.ereferrals@nhs.net","hospital_name":"Nuffield Health, Ipswich Hospital"},"id":"10522"},{"type":"Feature","geometry":{"type":"Point","coordinates":[-1.5439,52.3085]},"properties":{"cc":"UK","country":"United Kingdom","public_private":"private","city":"Leamington Spa","postcode":"CV32 6RW","lon":-1.543865085,"url":"http:\/\/www.nuffieldhealth.com\/warwickshirehospital","pub_date":"2020_03_24","tel":"8000155020","facility_type":"Hospital","lat":52.30849838,"email":"nuffieldhealth.ereferrals@nhs.net","hospital_name":"Nuffield Health, Warwickshire Hospital"},"id":"10523"},{"type":"Feature","geometry":{"type":"Point","coordinates":[-1.5543,53.8007]},"properties":{"cc":"UK","country":"United Kingdom","public_private":"private","city":"Leeds","postcode":"LS1 3EB","lon":-1.554257393,"url":"https:\/\/www.nuffieldhealth.com\/hospitals\/leeds","pub_date":"2020_03_24","tel":"1133882000","facility_type":"Hospital","lat":53.80065918,"email":"leedsnuffield@nhs.net","hospital_name":"Nuffield Health, Leeds Hospital"},"id":"10524"},{"type":"Feature","geometry":{"type":"Point","coordinates":[-1.0713,52.6443]},"properties":{"cc":"UK","country":"United Kingdom","public_private":"private","city":"Leicester","postcode":"LE5 1HY","lon":-1.0712955,"url":"http:\/\/www.nuffieldhealth.com\/leicesterhospital","pub_date":"2020_03_24","tel":"8000155020","facility_type":"Hospital","lat":52.64425659,"email":"nuffieldhealth.ereferrals@nhs.net","hospital_name":"Nuffield Health, Leicester Hospital"},"id":"10525"},{"type":"Feature","geometry":{"type":"Point","coordinates":[-1.6053,54.9866]},"properties":{"cc":"UK","country":"United Kingdom","public_private":"private","city":"Newcastle Upon Tyne","postcode":"NE2 1JP","lon":-1.605277061,"url":"http:\/\/www.nuffieldhealth.com\/newcastle-upon-tynehospital","pub_date":"2020_03_24","tel":"8000155020","facility_type":"Hospital","lat":54.98661423,"email":"nuffieldhealth.ereferrals@nhs.net","hospital_name":"Nuffield Health, Newcastle-upon-Tyne Hospital"},"id":"10526"},{"type":"Feature","geometry":{"type":"Point","coordinates":[-2.223,52.9874]},"properties":{"cc":"UK","country":"United Kingdom","public_private":"private","city":"Newcastle Under Lyme","postcode":"ST5 4DB","lon":-2.223027706,"url":"http:\/\/www.nuffieldhealth.com\/northstaffordshirehospital","pub_date":"2020_03_24","tel":"1782382551","facility_type":"Hospital","lat":52.98740768,"email":"customerservice.enq@nuffieldhealth.com","hospital_name":"Nuffield Health, North Staffordshire Hospital"},"id":"10527"},{"type":"Feature","geometry":{"type":"Point","coordinates":[-4.1144,50.4187]},"properties":{"cc":"UK","country":"United Kingdom","public_private":"private","city":"Plymouth","postcode":"PL6 8BG","lon":-4.114448071,"url":"http:\/\/www.nuffieldhealth.com\/plymouthhospital","pub_date":"2020_03_24","tel":"8000155020","facility_type":"Hospital","lat":50.41867447,"email":"nuffieldhealth.ereferrals@nhs.net","hospital_name":"Nuffield Health, Plymouth Hospital"},"id":"10528"},{"type":"Feature","geometry":{"type":"Point","coordinates":[-2.7714,52.6923]},"properties":{"cc":"UK","country":"United Kingdom","public_private":"private","city":"Shrewsbury","postcode":"SY3 9DP","lon":-2.771440506,"url":"http:\/\/www.nuffieldhealth.com\/shrewsburyhospital","pub_date":"2020_03_24","tel":"8000155020","facility_type":"Hospital","lat":52.69225693,"email":"nuffieldhealth.ereferrals@nhs.net","hospital_name":"Nuffield Health, Shrewsbury Hospital"},"id":"10529"},{"type":"Feature","geometry":{"type":"Point","coordinates":[-1.3352,54.5934]},"properties":{"cc":"UK","country":"United Kingdom","public_private":"private","city":"Stockton-on-Tees","postcode":"TS20 1PX","lon":-1.335218549,"url":"http:\/\/www.nuffieldhealth.com\/teeshospital","pub_date":"2020_03_24","tel":"8000155020","facility_type":"Hospital","lat":54.59342575,"email":"tees.enquiries2@nuffieldhealth.com","hospital_name":"Nuffield Health, Tees Hospital"},"id":"10530"},{"type":"Feature","geometry":{"type":"Point","coordinates":[-3.1269,51.0298]},"properties":{"cc":"UK","country":"United Kingdom","public_private":"private","city":"Taunton","postcode":"TA2 6AN","lon":-3.126897812,"url":"http:\/\/www.nuffieldhealth.com\/tauntonhospital","pub_date":"2020_03_24","tel":"8000155020","facility_type":"Hospital","lat":51.02984619,"email":"nuffieldhealth.ereferrals@nhs.net","hospital_name":"Nuffield Health, Taunton Hospital"},"id":"10531"},{"type":"Feature","geometry":{"type":"Point","coordinates":[0.2781,51.1315]},"properties":{"cc":"UK","country":"United Kingdom","public_private":"private","city":"Tunbridge Wells","postcode":"TN2 4UL","lon":0.278053015,"url":"http:\/\/www.nuffieldhealth.com\/tunbridgewellshospital","pub_date":"2020_03_24","tel":"8000155020","facility_type":"Hospital","lat":51.13151932,"email":"nuffieldhealth.ereferrals@nhs.net","hospital_name":"Nuffield Health, Tunbridge Wells Hospital"},"id":"10532"},{"type":"Feature","geometry":{"type":"Point","coordinates":[-0.5614,51.3322]},"properties":{"cc":"UK","country":"United Kingdom","public_private":"private","city":"Woking","postcode":"GU21 4BY","lon":-0.561365902,"url":"http:\/\/www.nuffieldhealth.com\/wokinghospital","pub_date":"2020_03_24","tel":"8000155020","facility_type":"Hospital","lat":51.33221054,"email":"nuffieldhealth.ereferrals@nhs.net","hospital_name":"Nuffield Health, Woking Hospital"},"id":"10533"},{"type":"Feature","geometry":{"type":"Point","coordinates":[-2.1715,52.5935]},"properties":{"cc":"UK","country":"United Kingdom","public_private":"private","city":"Wolverhampton","postcode":"WV6 8LE","lon":-2.171522379,"url":"http:\/\/www.nuffieldhealth.com\/hospitals\/wolverhampton","pub_date":"2020_03_24","tel":"8000155020","facility_type":"Hospital","lat":52.5934639,"email":"nuffieldhealth.ereferrals@nhs.net","hospital_name":"Nuffield Health, Wolverhampton Hospital"},"id":"10534"},{"type":"Feature","geometry":{"type":"Point","coordinates":[-1.2155,51.7604]},"properties":{"cc":"UK","country":"United Kingdom","public_private":"private","city":"Oxford","postcode":"OX3 7RP","lon":-1.215518713,"url":"http:\/\/www.nuffieldhealth.com\/themanorhospitaloxford","pub_date":"2020_03_24","tel":"8000155020","facility_type":"Hospital","lat":51.76044464,"email":"nuffieldhealth.ereferrals@nhs.net","hospital_name":"Nuffield Health, The Manor Hospital, Oxford"},"id":"10535"},{"type":"Feature","geometry":{"type":"Point","coordinates":[-1.0756,53.9747]},"properties":{"cc":"UK","country":"United Kingdom","public_private":"private","city":"York","postcode":"YO31 8TA","lon":-1.075559855,"url":"http:\/\/www.nuffieldhealth.com\/yorkhospital","pub_date":"2020_03_24","tel":"8000155020","facility_type":"Hospital","lat":53.97470093,"email":"nuffieldhealth.ereferrals@nhs.net","hospital_name":"Nuffield Health, York Hospital"},"id":"10536"},{"type":"Feature","geometry":{"type":"Point","coordinates":[-2.2162,52.1811]},"properties":{"cc":"UK","country":"United Kingdom","public_private":"private","city":"Worcester","postcode":"WR5 3YB","lon":-2.2162323,"url":"https:\/\/www.spirehealthcare.com\/spire-south-bank-hospital\/","pub_date":"2020_03_24","tel":"1905350003","facility_type":"Hospital","lat":52.18108749,"email":"cservice-sb@spirehealthcare.com","hospital_name":"Spire South Bank Hospital"},"id":"10537"},{"type":"Feature","geometry":{"type":"Point","coordinates":[-2.6149,51.472]},"properties":{"cc":"UK","country":"United Kingdom","public_private":"private","city":"Bristol","postcode":"BS6 6UT","lon":-2.61485076,"url":"https:\/\/www.spirehealthcare.com\/spire-bristol-hospital\/","pub_date":"2020_03_24","tel":"1179804000","facility_type":"Hospital","lat":51.47204971,"email":"info@spirebristol.com","hospital_name":"Spire Bristol Hospital"},"id":"10538"},{"type":"Feature","geometry":{"type":"Point","coordinates":[-1.4327,50.9306]},"properties":{"cc":"UK","country":"United Kingdom","public_private":"private","city":"Southampton","postcode":"SO16 6UY","lon":-1.432714343,"url":"https:\/\/www.spirehealthcare.com\/spire-southampton-hospital\/","pub_date":"2020_03_24","tel":"2380775544","facility_type":"Hospital","lat":50.93061066,"email":"spire.southampton@nhs.net","hospital_name":"Spire Southampton Hospital"},"id":"10539"},{"type":"Feature","geometry":{"type":"Point","coordinates":[-0.9551,50.8686]},"properties":{"cc":"UK","country":"United Kingdom","public_private":"private","city":"Havant","postcode":"PO9 5NP","lon":-0.955126107,"url":"https:\/\/www.spirehealthcare.com\/spire-portsmouth-hospital\/","pub_date":"2020_03_24","tel":"2392456172","facility_type":"Hospital","lat":50.86859131,"email":"info@spireportsmouth.com","hospital_name":"Spire Portsmouth Hospital"},"id":"10540"},{"type":"Feature","geometry":{"type":"Point","coordinates":[-0.1834,51.1677]},"properties":{"cc":"UK","country":"United Kingdom","public_private":"private","city":"Horley","postcode":"RH6 0BB","lon":-0.183382452,"url":"https:\/\/www.spirehealthcare.com\/spire-gatwick-park-hospital\/","pub_date":"2020_03_24","tel":"1293778917","facility_type":"Hospital","lat":51.16768265,"email":"spire.nhsteamgpk@nhs.net","hospital_name":"Spire Gatwick Park Hospital"},"id":"10541"},{"type":"Feature","geometry":{"type":"Point","coordinates":[0.5677,50.8854]},"properties":{"cc":"UK","country":"United Kingdom","public_private":"private","city":"St. Leonards-on-Sea","postcode":"TN37 7RE","lon":0.567722082,"url":"https:\/\/www.spirehealthcare.com\/spire-sussex-hospital\/","pub_date":"2020_03_24","tel":"1424757400","facility_type":"Hospital","lat":50.88537216,"email":"info@spiresussex.com","hospital_name":"Spire Sussex Hospital"},"id":"10542"},{"type":"Feature","geometry":{"type":"Point","coordinates":[0.1882,51.1345]},"properties":{"cc":"UK","country":"United Kingdom","public_private":"private","city":"Tunbridge Wells","postcode":"TN3 0RD","lon":0.188159764,"url":"https:\/\/www.spirehealthcare.com\/spire-tunbridge-wells-hospital\/","pub_date":"2020_03_24","tel":"1892740047","facility_type":"Hospital","lat":51.13451385,"email":"info@spiretunbridgewells.com","hospital_name":"Spire Tunbridge Wells Hospital"},"id":"10543"},{"type":"Feature","geometry":{"type":"Point","coordinates":[0.5265,51.3279]},"properties":{"cc":"UK","country":"United Kingdom","public_private":"private","city":"Chatham","postcode":"ME5 9PG","lon":0.526541173,"url":"https:\/\/www.spirehealthcare.com\/spire-alexandra-hospital\/","pub_date":"2020_03_24","tel":"1634687166","facility_type":"Hospital","lat":51.32793427,"email":"cservice-al@spirehealthcare.com","hospital_name":"Spire Alexandra Hospital"},"id":"10544"},{"type":"Feature","geometry":{"type":"Point","coordinates":[0.7276,51.5544]},"properties":{"cc":"UK","country":"United Kingdom","public_private":"private","city":"Southend-on-Sea","postcode":"SS2 4XH","lon":0.727603078,"url":"https:\/\/www.spirehealthcare.com\/spire-wellesley-hospital\/","pub_date":"2020_03_24","tel":"1702462944","facility_type":"Hospital","lat":51.55439377,"email":"spire.wellesley@nhs.net","hospital_name":"Spire Wellesley Hospital"},"id":"10545"},{"type":"Feature","geometry":{"type":"Point","coordinates":[0.0431,51.5872]},"properties":{"cc":"UK","country":"United Kingdom","public_private":"private","city":"Ilford","postcode":"IG4 5PZ","lon":0.0431,"url":"https:\/\/www.spirehealthcare.com\/spire-london-east-hospital","pub_date":"2020_03_24","tel":"2087097878","facility_type":"Hospital","lat":51.58715439,"email":"spire.londoneast@nhs.net","hospital_name":"Spire London East Hospital"},"id":"10546"},{"type":"Feature","geometry":{"type":"Point","coordinates":[-0.3317,51.6373]},"properties":{"cc":"UK","country":"United Kingdom","public_private":"private","city":"Bushey","postcode":"WD23 1RD","lon":-0.331717819,"url":"https:\/\/www.spirehealthcare.com\/spire-bushey-hospital\/","pub_date":"2020_03_24","tel":"2089015572","facility_type":"Hospital","lat":51.63734055,"email":"spire.bushey@nhs.net","hospital_name":"Spire Bushey Hospital"},"id":"10547"},{"type":"Feature","geometry":{"type":"Point","coordinates":[-0.3604,51.8281]},"properties":{"cc":"UK","country":"United Kingdom","public_private":"private","city":"Harpenden","postcode":"AL5 4BP","lon":-0.360377461,"url":"https:\/\/www.spirehealthcare.com\/spire-harpenden-hospital\/","pub_date":"2020_03_24","tel":"1582763191","facility_type":"Hospital","lat":51.82812881,"email":"spire.harpenden@nhs.net","hospital_name":"Spire Harpenden Hospital"},"id":"10548"},{"type":"Feature","geometry":{"type":"Point","coordinates":[0.1134,52.2448]},"properties":{"cc":"UK","country":"United Kingdom","public_private":"private","city":"Cambridge","postcode":"CB24 9EL","lon":0.113378502,"url":"https:\/\/www.spirehealthcare.com\/spire-cambridge-lea-hospital\/","pub_date":"2020_03_24","tel":"1223266900","facility_type":"Hospital","lat":52.24476242,"email":"info@spirecambridge.com","hospital_name":"Spire Cambridge Lea Hospital"},"id":"10549"},{"type":"Feature","geometry":{"type":"Point","coordinates":[1.2258,52.6271]},"properties":{"cc":"UK","country":"United Kingdom","public_private":"private","city":"Norwich","postcode":"NR4 7TD","lon":1.225765705,"url":"https:\/\/www.spirehealthcare.com\/spire-norwich-hospital\/","pub_date":"2020_03_24","tel":"1603456181","facility_type":"Hospital","lat":52.62712097,"email":"spire.norwich@nhs.net","hospital_name":"Spire Norwich Hospital"},"id":"10550"},{"type":"Feature","geometry":{"type":"Point","coordinates":[0.293,51.6004]},"properties":{"cc":"UK","country":"United Kingdom","public_private":"private","city":"Brentwood","postcode":"CM13 3LE","lon":0.293041915,"url":"https:\/\/www.spirehealthcare.com\/spire-hartswood-hospital\/","pub_date":"2020_03_24","tel":"1277232525","facility_type":"Hospital","lat":51.60041428,"email":"spire.hartswood@nhs.net","hospital_name":"Spire Hartswood Hospital"},"id":"10551"},{"type":"Feature","geometry":{"type":"Point","coordinates":[-1.7631,52.4219]},"properties":{"cc":"UK","country":"United Kingdom","public_private":"private","city":"Solihull","postcode":"B91 2PP","lon":-1.763121605,"url":"https:\/\/www.spirehealthcare.com\/spire-parkway-hospital\/","pub_date":"2020_03_24","tel":"1217041451","facility_type":"Hospital","lat":52.42188644,"email":"spire.parkway@nhs.net","hospital_name":"Spire Parkway Hospital"},"id":"10552"},{"type":"Feature","geometry":{"type":"Point","coordinates":[-1.8756,52.5996]},"properties":{"cc":"UK","country":"United Kingdom","public_private":"private","city":"Sutton Coldfield","postcode":"B74 3UP","lon":-1.875568867,"url":"https:\/\/www.spirehealthcare.com\/spire-little-aston-hospital\/","pub_date":"2020_03_24","tel":"1213532444","facility_type":"Hospital","lat":52.59960938,"email":"info@spirelittleaston.com","hospital_name":"Spire Little Aston Hospital"},"id":"10553"},{"type":"Feature","geometry":{"type":"Point","coordinates":[-1.0835,52.6147]},"properties":{"cc":"UK","country":"United Kingdom","public_private":"private","city":"Leicester","postcode":"LE2 2FF","lon":-1.083456755,"url":"https:\/\/www.spirehealthcare.com\/spire-leicester-hospital\/","pub_date":"2020_03_24","tel":"1162653685","facility_type":"Hospital","lat":52.61466599,"email":"info@spireleicester.com","hospital_name":"Spire Leicester Hospital"},"id":"10554"},{"type":"Feature","geometry":{"type":"Point","coordinates":[-2.5763,53.3375]},"properties":{"cc":"UK","country":"United Kingdom","public_private":"private","city":"Warrington","postcode":"WA4 4LU","lon":-2.576329708,"url":"https:\/\/www.spirehealthcare.com\/spire-cheshire-hospital\/","pub_date":"2020_03_24","tel":"1925265000","facility_type":"Hospital","lat":53.33747482,"email":"spire.cheshire@nhs.net","hospital_name":"Spire Cheshire Hospital"},"id":"10555"},{"type":"Feature","geometry":{"type":"Point","coordinates":[-3.0801,53.3493]},"properties":{"cc":"UK","country":"United Kingdom","public_private":"private","city":"Wirral","postcode":"CH61 1AU","lon":-3.080098629,"url":"https:\/\/www.spirehealthcare.com\/spire-murrayfield-hospital-wirral","pub_date":"2020_03_24","tel":"1516487000","facility_type":"Hospital","lat":53.3492775,"email":"spire.murrayfield.nhsoffice@nhs.net","hospital_name":"Spire Murrayfield Hospital"},"id":"10556"},{"type":"Feature","geometry":{"type":"Point","coordinates":[-2.2537,53.4252]},"properties":{"cc":"UK","country":"United Kingdom","public_private":"private","city":"Manchester","postcode":"M20 2AF","lon":-2.25366497,"url":"https:\/\/www.spirehealthcare.com\/spire-manchester-hospital\/","pub_date":"2020_03_24","tel":"1614476677","facility_type":"Hospital","lat":53.42523193,"email":"info@spiremanchester.com","hospital_name":"Spire Manchester Hospital"},"id":"10557"},{"type":"Feature","geometry":{"type":"Point","coordinates":[-1.5139,53.8325]},"properties":{"cc":"UK","country":"United Kingdom","public_private":"private","city":"Leeds","postcode":"LS8 1NT","lon":-1.513913035,"url":"https:\/\/www.spirehealthcare.com\/spire-leeds-hospital\/","pub_date":"2020_03_24","tel":"1132693939","facility_type":"Hospital","lat":53.83246994,"email":"spire.leeds@nhs.net","hospital_name":"Spire Leeds Hospital"},"id":"10558"},{"type":"Feature","geometry":{"type":"Point","coordinates":[-1.5591,54.8794]},"properties":{"cc":"UK","country":"United Kingdom","public_private":"private","city":"Washington","postcode":"NE38 9JZ","lon":-1.559100747,"url":"https:\/\/www.spirehealthcare.com\/spire-washington-hospital\/","pub_date":"2020_03_24","tel":"1914188669","facility_type":"Hospital","lat":54.87936783,"email":"spire.washington@nhs.net","hospital_name":"Spire Washington Hospital"},"id":"10559"},{"type":"Feature","geometry":{"type":"Point","coordinates":[-2.9241,53.3853]},"properties":{"cc":"UK","country":"United Kingdom","public_private":"private","city":"Liverpool","postcode":"L18 1HQ","lon":-2.924102306,"url":"https:\/\/www.spirehealthcare.com\/spire-liverpool-hospital\/","pub_date":"2020_03_24","tel":"1517337123","facility_type":"Hospital","lat":53.38527679,"email":"spire.liverpool@nhs.net","hospital_name":"Spire Liverpool Hospital"},"id":"10560"},{"type":"Feature","geometry":{"type":"Point","coordinates":[-2.1378,53.2601]},"properties":{"cc":"UK","country":"United Kingdom","public_private":"private","city":"Macclesfield","postcode":"SK11 8DW","lon":-2.137799501,"url":"https:\/\/www.spirehealthcare.com\/spire-regency-hospital-macclesfield\/","pub_date":"2020_03_24","tel":"1625501150","facility_type":"Hospital","lat":53.26012802,"email":"spire.regencyhospnhs@nhs.net","hospital_name":"Spire Regency Hospital"},"id":"10561"},{"type":"Feature","geometry":{"type":"Point","coordinates":[-0.5724,51.5428]},"properties":{"cc":"UK","country":"United Kingdom","public_private":"private","city":"Slough","postcode":"SL3 6NH","lon":-0.572400808,"url":"https:\/\/www.spirehealthcare.com\/spire-thames-valley-hospital\/","pub_date":"2020_03_24","tel":"1753662241","facility_type":"Hospital","lat":51.54278946,"email":"cservice-tv@spirehealthcare.com","hospital_name":"Spire Thames Valley Hospital"},"id":"10562"},{"type":"Feature","geometry":{"type":"Point","coordinates":[-0.9868,51.4502]},"properties":{"cc":"UK","country":"United Kingdom","public_private":"private","city":"Reading","postcode":"RG1 6NS","lon":-0.986806393,"url":"https:\/\/www.spirehealthcare.com\/spire-dunedin-hospital\/","pub_date":"2020_03_24","tel":"1189587676","facility_type":"Hospital","lat":51.45022202,"email":"spire.dunedin@nhs.net","hospital_name":"Spire Dunedin Hospital"},"id":"10563"},{"type":"Feature","geometry":{"type":"Point","coordinates":[-0.8475,51.2251]},"properties":{"cc":"UK","country":"United Kingdom","public_private":"private","city":"Farnham","postcode":"GU10 5XX","lon":-0.847474158,"url":"https:\/\/www.spirehealthcare.com\/spire-clare-park-hospital\/","pub_date":"2020_03_24","tel":"1252850216","facility_type":"Hospital","lat":51.22512817,"email":"info@spireclarepark.com","hospital_name":"Spire Clare Park Hospital"},"id":"10564"},{"type":"Feature","geometry":{"type":"Point","coordinates":[-3.0196,53.8261]},"properties":{"cc":"UK","country":"United Kingdom","public_private":"private","city":"Blackpool","postcode":"FY3 8BP","lon":-3.019570589,"url":"https:\/\/www.spirehealthcare.com\/spire-fylde-coast-hospital\/","pub_date":"2020_03_24","tel":"1253394188","facility_type":"Hospital","lat":53.82605743,"email":"info@spirefyldecoast.com","hospital_name":"Spire Fylde Coast Hospital"},"id":"10565"},{"type":"Feature","geometry":{"type":"Point","coordinates":[-1.8289,53.6888]},"properties":{"cc":"UK","country":"United Kingdom","public_private":"private","city":"Elland","postcode":"HX5 9EB","lon":-1.828913331,"url":"https:\/\/www.spirehealthcare.com\/spire-elland-hospital\/","pub_date":"2020_03_24","tel":"1422324000","facility_type":"Hospital","lat":53.68877792,"email":"spire.elland@nhs.net","hospital_name":"Spire Elland Hospital"},"id":"10566"},{"type":"Feature","geometry":{"type":"Point","coordinates":[-1.4233,53.7404]},"properties":{"cc":"UK","country":"United Kingdom","public_private":"private","city":"Leeds","postcode":"LS26 9HG","lon":-1.423310161,"url":"https:\/\/www.spirehealthcare.com\/spire-methley-park-hospital\/","pub_date":"2020_03_24","tel":"1977518518","facility_type":"Hospital","lat":53.74044418,"email":"spire.methleypark@nhs.net","hospital_name":"Spire Methley Park Hospital"},"id":"10567"},{"type":"Feature","geometry":{"type":"Point","coordinates":[-0.435,53.7393]},"properties":{"cc":"UK","country":"United Kingdom","public_private":"private","city":"Hull","postcode":"HU10 7AZ","lon":-0.435012013,"url":"https:\/\/www.spirehealthcare.com\/spire-hull-and-east-riding-hospital\/","pub_date":"2020_03_24","tel":"1482659471","facility_type":"Hospital","lat":53.739254,"email":"spire.hull@nhs.net","hospital_name":"Spire Hull and East Riding Hospital"},"id":"10568"},{"type":"Feature","geometry":{"type":"Point","coordinates":[-0.1549,50.8319]},"properties":{"cc":"UK","country":"United Kingdom","public_private":"private","city":"Hove","postcode":"BN3 1RD","lon":-0.154885277,"url":"http:\/\/themontefiorehospital.co.uk\/","pub_date":"2020_03_24","tel":"1273828120","facility_type":"Hospital","lat":50.83185577,"email":"montefioreinfo@spirehealthcare.com","hospital_name":"The Montefiore Hospital"},"id":"10569"},{"type":"Feature","geometry":{"type":"Point","coordinates":[-2.2158,53.3973]},"properties":{"cc":"UK","country":"United Kingdom","public_private":"private","city":"Cheadle","postcode":"SK8 2PX","lon":-2.21581316,"url":"https:\/\/www.bmihealthcare.co.uk\/hospitals\/bmi-the-alexandra-hospital","pub_date":"2020_03_24","tel":"1614283656","facility_type":"Hospital","lat":53.39726639,"email":"info@bmihealthcare.co.uk","hospital_name":"BMI The Alexandra Hospital"},"id":"10570"},{"type":"Feature","geometry":{"type":"Point","coordinates":[-2.332,51.3643]},"properties":{"cc":"UK","country":"United Kingdom","public_private":"private","city":"Bath","postcode":"BA2 7BR","lon":-2.332021952,"url":"https:\/\/www.bmihealthcare.co.uk\/hospitals\/bmi-bath-clinic","pub_date":"2020_03_24","tel":"1225835555","facility_type":"Hospital","lat":51.36428452,"email":"bath@bmihealthcare.co.uk","hospital_name":"BMI Bath Clinic"},"id":"10571"},{"type":"Feature","geometry":{"type":"Point","coordinates":[-2.5132,53.755]},"properties":{"cc":"UK","country":"United Kingdom","public_private":"private","city":"Blackburn","postcode":"BB2 7AE","lon":-2.513161898,"url":"https:\/\/www.bmihealthcare.co.uk\/hospitals\/bmi-the-beardwood-hospital","pub_date":"2020_03_24","tel":"1254507607","facility_type":"Hospital","lat":53.75504303,"email":"beardwood@bmihealthcare.co.uk","hospital_name":"BMI The Beardwood Hospital"},"id":"10572"},{"type":"Feature","geometry":{"type":"Point","coordinates":[-2.4991,53.5798]},"properties":{"cc":"UK","country":"United Kingdom","public_private":"private","city":"Bolton","postcode":"BL6 4LA","lon":-2.4991045,"url":"https:\/\/www.bmihealthcare.co.uk\/hospitals\/bmi-the-beaumont-hospital","pub_date":"2020_03_24","tel":"1204404404","facility_type":"Hospital","lat":53.57982254,"email":"beaumont@bmihealthcare.co.uk","hospital_name":"BMI The Beaumont Hospital"},"id":"10573"},{"type":"Feature","geometry":{"type":"Point","coordinates":[-0.4465,51.6165]},"properties":{"cc":"UK","country":"United Kingdom","public_private":"private","city":"Northwood","postcode":"HA6 2JW","lon":-0.446507066,"url":"https:\/\/www.bmihealthcare.co.uk\/hospitals\/bmi-bishops-wood-hospital","pub_date":"2020_03_24","tel":"1923835814","facility_type":"Hospital","lat":51.61645126,"email":"info@bmihealthcare.co.uk","hospital_name":"BMI Bishops Wood Hospital"},"id":"10574"},{"type":"Feature","geometry":{"type":"Point","coordinates":[0.0063,51.4635]},"properties":{"cc":"UK","country":"United Kingdom","public_private":"private","city":"London","postcode":"SE3 9UD","lon":0.00628,"url":"https:\/\/www.bmihealthcare.co.uk\/hospitals\/bmi-the-blackheath-hospital","pub_date":"2020_03_24","tel":"2083187722","facility_type":"Hospital","lat":51.46347427,"email":"blackheath@bmihealthcare.co.uk","hospital_name":"BMI The Blackheath Hospital"},"id":"10575"},{"type":"Feature","geometry":{"type":"Point","coordinates":[1.0875,51.2617]},"properties":{"cc":"UK","country":"United Kingdom","public_private":"private","city":"Canterbury","postcode":"CT4 7AR","lon":1.087459326,"url":"https:\/\/www.bmihealthcare.co.uk\/hospitals\/bmi-the-chaucer-hospital","pub_date":"2020_03_24","tel":"1227825100","facility_type":"Hospital","lat":51.26171875,"email":"chaucer@bmihealthcare.co.uk","hospital_name":"BMI The Chaucer Hospital"},"id":"10576"},{"type":"Feature","geometry":{"type":"Point","coordinates":[0.1309,51.3585]},"properties":{"cc":"UK","country":"United Kingdom","public_private":"private","city":"Orpington","postcode":"BR6 7RG","lon":0.130860955,"url":"https:\/\/www.bmihealthcare.co.uk\/hospitals\/bmi-chelsfield-park-hospital","pub_date":"2020_03_24","tel":"1689877855","facility_type":"Hospital","lat":51.3584671,"email":"chelsfield@bmihealthcare.co.uk","hospital_name":"BMI Chelsfield Park Hospital"},"id":"10577"},{"type":"Feature","geometry":{"type":"Point","coordinates":[-0.6937,51.6905]},"properties":{"cc":"UK","country":"United Kingdom","public_private":"private","city":"Great Missenden","postcode":"HP16 0EN","lon":-0.69365418,"url":"https:\/\/www.bmihealthcare.co.uk\/hospitals\/bmi-the-chiltern-hospital","pub_date":"2020_03_24","tel":"1494890890","facility_type":"Hospital","lat":51.69053268,"email":"chiltern@bmihealthcare.co.uk","hospital_name":"BMI The Chiltern Hospital"},"id":"10578"},{"type":"Feature","geometry":{"type":"Point","coordinates":[-0.3327,51.565]},"properties":{"cc":"UK","country":"United Kingdom","public_private":"private","city":"Harrow","postcode":"HA1 3RX","lon":-0.332694322,"url":"https:\/\/www.bmihealthcare.co.uk\/hospitals\/bmi-the-clementine-churchill-hospital","pub_date":"2020_03_24","tel":"2088723872","facility_type":"Hospital","lat":51.56496811,"email":"cch@bmihealthcare.co.uk","hospital_name":"BMI The Clementine Churchill Hospital"},"id":"10579"},{"type":"Feature","geometry":{"type":"Point","coordinates":[-2.1509,52.2655]},"properties":{"cc":"UK","country":"United Kingdom","public_private":"private","city":"Droitwich","postcode":"WR9 8DN","lon":-2.15086627,"url":"https:\/\/www.bmihealthcare.co.uk\/hospitals\/bmi-the-droitwich-spa-hospital","pub_date":"2020_03_24","tel":"1905793333","facility_type":"Hospital","lat":52.26553726,"email":"droitwich@bmihealthcare.co.uk","hospital_name":"BMI The Droitwich Spa Hospital"},"id":"10580"},{"type":"Feature","geometry":{"type":"Point","coordinates":[0.287,50.7661]},"properties":{"cc":"UK","country":"United Kingdom","public_private":"private","city":"Eastbourne","postcode":"BN21 3BG","lon":0.287030458,"url":"https:\/\/www.bmihealthcare.co.uk\/hospitals\/bmi-the-esperance-hospital","pub_date":"2020_03_24","tel":"1323411188","facility_type":"Hospital","lat":50.76611328,"email":"esperance@bmihealthcare.co.uk","hospital_name":"BMI The Esperance Hospital"},"id":"10581"},{"type":"Feature","geometry":{"type":"Point","coordinates":[0.2861,51.3729]},"properties":{"cc":"UK","country":"United Kingdom","public_private":"private","city":"Longfield","postcode":"DA3 8ND","lon":0.286065489,"url":"https:\/\/www.bmihealthcare.co.uk\/hospitals\/bmi-fawkham-manor-hospital","pub_date":"2020_03_24","tel":"1474879900","facility_type":"Hospital","lat":51.37290573,"email":"fawkham@bmihealthcare.co.uk","hospital_name":"BMI Fawkham Manor Hospital"},"id":"10582"},{"type":"Feature","geometry":{"type":"Point","coordinates":[-0.2246,51.5937]},"properties":{"cc":"UK","country":"United Kingdom","public_private":"private","city":"London","postcode":"NW4 1RP","lon":-0.224589705,"url":"https:\/\/www.bmihealthcare.co.uk\/hospitals\/bmi-hendon-hospital","pub_date":"2020_03_24","tel":"2084574500","facility_type":"Hospital","lat":51.59371185,"email":"garden@bmihealthcare.co.uk","hospital_name":"BMI Hendon Hospital"},"id":"10583"},{"type":"Feature","geometry":{"type":"Point","coordinates":[-0.4318,50.8114]},"properties":{"cc":"UK","country":"United Kingdom","public_private":"private","city":"Worthing","postcode":"BN12 5AT","lon":-0.431818694,"url":"https:\/\/www.bmihealthcare.co.uk\/hospitals\/bmi-goring-hall-hospital","pub_date":"2020_03_24","tel":"1903506699","facility_type":"Hospital","lat":50.81138992,"email":"info@bmihealthcare.co.uk","hospital_name":"BMI Goring Hall Hospital"},"id":"10584"},{"type":"Feature","geometry":{"type":"Point","coordinates":[-1.9757,50.722]},"properties":{"cc":"UK","country":"United Kingdom","public_private":"private","city":"Poole","postcode":"BH15 2BH","lon":-1.975681186,"url":"https:\/\/www.bmihealthcare.co.uk\/hospitals\/bmi-the-harbour-hospital","pub_date":"2020_03_24","tel":"1202244200","facility_type":"Hospital","lat":50.72200775,"email":"info@bmihealthcare.co.uk","hospital_name":"BMI The Harbour Hospital"},"id":"10585"},{"type":"Feature","geometry":{"type":"Point","coordinates":[-2.1675,53.6065]},"properties":{"cc":"UK","country":"United Kingdom","public_private":"private","city":"Rochdale","postcode":"OL11 4LZ","lon":-2.167490244,"url":"https:\/\/www.bmihealthcare.co.uk\/hospitals\/bmi-the-highfield-hospital","pub_date":"2020_03_24","tel":"1706655121","facility_type":"Hospital","lat":53.60650635,"email":"highfield@bmihealthcare.co.uk","hospital_name":"BMI The Highfield Hospital"},"id":"10586"},{"type":"Feature","geometry":{"type":"Point","coordinates":[-0.1056,51.6679]},"properties":{"cc":"UK","country":"United Kingdom","public_private":"private","city":"Enfield","postcode":"EN2 8SD","lon":-0.105554052,"url":"https:\/\/www.bmihealthcare.co.uk\/hospitals\/bmi-the-kings-oak-hospital","pub_date":"2020_03_24","tel":"2083709500","facility_type":"Hospital","lat":51.66790009,"email":"kingsoak@bmihealthcare.co.uk","hospital_name":"BMI The Kings Oak Hospital"},"id":"10587"},{"type":"Feature","geometry":{"type":"Point","coordinates":[-0.0467,51.5204]},"properties":{"cc":"UK","country":"United Kingdom","public_private":"private","city":"London","postcode":"E1 4NL","lon":-0.0467,"url":"https:\/\/www.bmihealthcare.co.uk\/hospitals\/bmi-the-london-independent-hospital","pub_date":"2020_03_24","tel":"2077802400","facility_type":"Hospital","lat":51.520401,"email":"lih@bmihealthcare.co.uk","hospital_name":"BMI The London Independent Hospital"},"id":"10588"},{"type":"Feature","geometry":{"type":"Point","coordinates":[-0.5131,52.1384]},"properties":{"cc":"UK","country":"United Kingdom","public_private":"private","city":"Biddenham","postcode":"MK40 4AW","lon":-0.513136744,"url":"https:\/\/www.bmihealthcare.co.uk\/hospitals\/bmi-the-manor-hospital","pub_date":"2020_03_24","tel":"1234364252","facility_type":"Hospital","lat":52.13838577,"email":"manor@bmihealthcare.co.uk","hospital_name":"BMI The Manor Hospital"},"id":"10589"},{"type":"Feature","geometry":{"type":"Point","coordinates":[-1.4384,52.4212]},"properties":{"cc":"UK","country":"United Kingdom","public_private":"private","city":"Coventry","postcode":"CV2 2LQ","lon":-1.438388586,"url":"https:\/\/www.bmihealthcare.co.uk\/hospitals\/bmi-the-meriden-hospital","pub_date":"2020_03_24","tel":"2476647000","facility_type":"Hospital","lat":52.42121506,"email":"meriden@bmihealthcare.co.uk","hospital_name":"BMI The Meriden Hospital"},"id":"10590"},{"type":"Feature","geometry":{"type":"Point","coordinates":[-1.1429,53.0501]},"properties":{"cc":"UK","country":"United Kingdom","public_private":"private","city":"Arnold","postcode":"NG5 8RX","lon":-1.142871261,"url":"https:\/\/www.bmihealthcare.co.uk\/hospitals\/bmi-the-park-hospital","pub_date":"2020_03_24","tel":"1159662000","facility_type":"Hospital","lat":53.0500946,"hospital_name":"BMI The Park Hospital"},"id":"10591"},{"type":"Feature","geometry":{"type":"Point","coordinates":[-0.6103,51.4747]},"properties":{"cc":"UK","country":"United Kingdom","public_private":"private","city":"Windsor","postcode":"SL4 3SJ","lon":-0.61026597,"url":"https:\/\/www.bmihealthcare.co.uk\/hospitals\/bmi-the-princess-margaret-hospital","pub_date":"2020_03_24","tel":"1753743434","facility_type":"Hospital","lat":51.47469711,"email":"info@bmihealthcare.co.uk","hospital_name":"BMI The Princess Margaret Hospital"},"id":"10592"},{"type":"Feature","geometry":{"type":"Point","coordinates":[-1.9114,52.4564]},"properties":{"cc":"UK","country":"United Kingdom","public_private":"private","city":"Birmingham","postcode":"B5 7UG","lon":-1.911408663,"url":"https:\/\/www.bmihealthcare.co.uk\/hospitals\/bmi-the-priory-hospital","pub_date":"2020_03_24","tel":"1214402323","facility_type":"Hospital","lat":52.45643234,"email":"priory@bmihealthcare.co.uk","hospital_name":"BMI The Priory Hospital"},"id":"10593"},{"type":"Feature","geometry":{"type":"Point","coordinates":[-1.7861,51.5253]},"properties":{"cc":"UK","country":"United Kingdom","public_private":"private","city":"Swindon","postcode":"SN4 9DD","lon":-1.786146641,"url":"https:\/\/www.bmihealthcare.co.uk\/hospitals\/bmi-the-ridgeway-hospital","pub_date":"2020_03_24","tel":"1793814848","facility_type":"Hospital","lat":51.52532959,"email":"ridgeway@bmihealthcare.co.uk","hospital_name":"BMI The Ridgeway Hospital"},"id":"10594"},{"type":"Feature","geometry":{"type":"Point","coordinates":[-0.5241,51.378]},"properties":{"cc":"UK","country":"United Kingdom","public_private":"private","city":"Chertsey","postcode":"KT16 0RQ","lon":-0.524110198,"url":"https:\/\/www.bmihealthcare.co.uk\/hospitals\/bmi-the-runnymede-hospital","pub_date":"2020_03_24","tel":"1932877800","facility_type":"Hospital","lat":51.37797546,"email":"runnymede@bmihealthcare.co.uk","hospital_name":"BMI The Runnymede Hospital"},"id":"10595"},{"type":"Feature","geometry":{"type":"Point","coordinates":[0.4472,52.7578]},"properties":{"cc":"UK","country":"United Kingdom","public_private":"private","city":"King's Lynn","postcode":"PE30 4HJ","lon":0.447176158,"url":"https:\/\/www.bmihealthcare.co.uk\/hospitals\/bmi-the-sandringham-hospital","pub_date":"2020_03_24","tel":"1553769770","facility_type":"Hospital","lat":52.75782013,"email":"sandringham@bmihealthcare.co.uk","hospital_name":"BMI The Sandringham Hospital"},"id":"10596"},{"type":"Feature","geometry":{"type":"Point","coordinates":[-1.3385,51.0613]},"properties":{"cc":"UK","country":"United Kingdom","public_private":"private","city":"Winchester","postcode":"SO22 5HA","lon":-1.338494301,"url":"https:\/\/www.bmihealthcare.co.uk\/hospitals\/bmi-sarum-road-hospital","pub_date":"2020_03_24","tel":"1962844555","facility_type":"Hospital","lat":51.06130219,"email":"sarum@bmihealthcare.co.uk","hospital_name":"BMI Sarum Road Hospital"},"id":"10597"},{"type":"Feature","geometry":{"type":"Point","coordinates":[-0.7404,52.0256]},"properties":{"cc":"UK","country":"United Kingdom","public_private":"private","city":"Milton Keynes","postcode":"MK6 5LR","lon":-0.740350008,"url":"https:\/\/www.bmihealthcare.co.uk\/hospitals\/bmi-the-saxon-clinic","pub_date":"2020_03_24","tel":"1908665533","facility_type":"Hospital","lat":52.02561569,"email":"saxon@bmihealthcare.co.uk","hospital_name":"BMI The Saxon Clinic"},"id":"10598"},{"type":"Feature","geometry":{"type":"Point","coordinates":[-0.7547,51.6264]},"properties":{"cc":"UK","country":"United Kingdom","public_private":"private","city":"High Wycombe","postcode":"HP11 2TR","lon":-0.754729986,"url":"https:\/\/www.bmihealthcare.co.uk\/hospitals\/bmi-the-shelburne-hospital","pub_date":"2020_03_24","tel":"1494888700","facility_type":"Hospital","lat":51.62637711,"email":"shelburne@bmihealthcare.co.uk","hospital_name":"BMI The Shelburne Hospital"},"id":"10599"},{"type":"Feature","geometry":{"type":"Point","coordinates":[-0.0563,51.3823]},"properties":{"cc":"UK","country":"United Kingdom","public_private":"private","city":"Croydon","postcode":"CR9 8AB","lon":-0.0563,"url":"https:\/\/www.bmihealthcare.co.uk\/hospitals\/bmi-shirley-oaks-hospital","pub_date":"2020_03_24","tel":"2086555500","facility_type":"Hospital","lat":51.38230133,"email":"info@bmihealthcare.co.uk","hospital_name":"BMI Shirley Oaks Hospital"},"id":"10600"},{"type":"Feature","geometry":{"type":"Point","coordinates":[-0.0043,51.4083]},"properties":{"cc":"UK","country":"United Kingdom","public_private":"private","city":"Beckenham","postcode":"BR3 5HS","lon":-0.00435,"url":"https:\/\/www.bmihealthcare.co.uk\/hospitals\/bmi-the-sloane-hospital","pub_date":"2020_03_24","tel":"2084664000","facility_type":"Hospital","lat":51.40833282,"email":"sloane@bmihealthcare.co.uk","hospital_name":"BMI The Sloane Hospital"},"id":"10601"},{"type":"Feature","geometry":{"type":"Point","coordinates":[-1.5173,53.3745]},"properties":{"cc":"UK","country":"United Kingdom","public_private":"private","city":"Sheffield","postcode":"S10 3BR","lon":-1.517261028,"url":"https:\/\/www.bmihealthcare.co.uk\/hospitals\/bmi-thornbury-hospital","pub_date":"2020_03_24","tel":"1142661133","facility_type":"Hospital","lat":53.37451935,"email":"info@bmihealthcare.co.uk","hospital_name":"BMI Thornbury Hospital"},"id":"10602"},{"type":"Feature","geometry":{"type":"Point","coordinates":[-0.8743,52.2361]},"properties":{"cc":"UK","country":"United Kingdom","public_private":"private","city":"Northampton","postcode":"NN1 5DR","lon":-0.874308646,"url":"https:\/\/www.bmihealthcare.co.uk\/hospitals\/bmi-three-shires-hospital","pub_date":"2020_03_24","tel":"1604620311","facility_type":"Hospital","lat":52.23614502,"email":"threeshires@bmihealthcare.co.uk","hospital_name":"BMI Three Shires Hospital"},"id":"10603"},{"type":"Feature","geometry":{"type":"Point","coordinates":[-2.4419,50.701]},"properties":{"cc":"UK","country":"United Kingdom","public_private":"private","city":"Dorchester","postcode":"DT1 2DR","lon":-2.441853046,"url":"https:\/\/www.bmihealthcare.co.uk\/hospitals\/bmi-the-winterbourne-hospital","pub_date":"2020_03_24","tel":"1305263252","facility_type":"Hospital","lat":50.7010231,"email":"winterbourne@bmihealthcare.co.uk","hospital_name":"BMI The Winterbourne Hospital"},"id":"10604"},{"type":"Feature","geometry":{"type":"Point","coordinates":[-1.9329,52.4576]},"properties":{"cc":"UK","country":"United Kingdom","public_private":"private","city":"Birmingham","postcode":"B15 2QQ","lon":-1.932878017,"url":"https:\/\/www.bmihealthcare.co.uk\/hospitals\/bmi-the-edgbaston-hospital","pub_date":"2020_03_24","tel":"1214562000","facility_type":"Hospital","lat":52.4575882,"email":"birminghamenquiries@bmihealthcare.co.uk","hospital_name":"BMI The Edgbaston Hospital"},"id":"10605"},{"type":"Feature","geometry":{"type":"Point","coordinates":[0.7194,52.2401]},"properties":{"cc":"UK","country":"United Kingdom","public_private":"private","city":"Bury St. Edmunds","postcode":"IP33 2AA","lon":0.719400406,"url":"https:\/\/www.bmihealthcare.co.uk\/hospitals\/bmi-st-edmunds-hospital","pub_date":"2020_03_24","tel":"1284701371","facility_type":"Hospital","lat":52.24007797,"email":"info@bmihealthcare.co.uk","hospital_name":"BMI Bury St Edmunds Hospital"},"id":"10606"},{"type":"Feature","geometry":{"type":"Point","coordinates":[-1.5478,53.9876]},"properties":{"cc":"UK","country":"United Kingdom","public_private":"private","city":"Harrogate","postcode":"HG2 0HF","lon":-1.547796488,"url":"https:\/\/www.bmihealthcare.co.uk\/hospitals\/bmi-the-duchy-hospital","pub_date":"2020_03_24","tel":"1423567136","facility_type":"Hospital","lat":53.98757172,"email":"info@bmihealthcare.co.uk","hospital_name":"BMI The Duchy Hospital"},"id":"10607"},{"type":"Feature","geometry":{"type":"Point","coordinates":[-1.7987,53.6584]},"properties":{"cc":"UK","country":"United Kingdom","public_private":"private","city":"Huddersfield","postcode":"HD2 2BL","lon":-1.798727751,"url":"https:\/\/www.bmihealthcare.co.uk\/hospitals\/bmi-the-huddersfield-hospital","pub_date":"2020_03_24","tel":"1484533131","facility_type":"Hospital","lat":53.6583519,"email":"info@bmihealthcare.co.uk","hospital_name":"BMI The Huddersfield Hospital"},"id":"10608"},{"type":"Feature","geometry":{"type":"Point","coordinates":[-2.7954,54.0432]},"properties":{"cc":"UK","country":"United Kingdom","public_private":"private","city":"Lancaster","postcode":"LA1 3RH","lon":-2.795393229,"url":"https:\/\/www.bmihealthcare.co.uk\/hospitals\/bmi-the-lancaster-hospital","pub_date":"2020_03_24","tel":"152462345","facility_type":"Hospital","lat":54.04319763,"email":"info@bmihealthcare.co.uk","hospital_name":"BMI The Lancaster Hospital"},"id":"10609"},{"type":"Feature","geometry":{"type":"Point","coordinates":[-0.5331,53.2381]},"properties":{"cc":"UK","country":"United Kingdom","public_private":"private","city":"Lincoln","postcode":"LN2 1QU","lon":-0.533085406,"url":"https:\/\/www.bmihealthcare.co.uk\/hospitals\/bmi-the-lincoln-hospital","pub_date":"2020_03_24","tel":"1522578000","facility_type":"Hospital","lat":53.23808289,"hospital_name":"BMI The Lincoln Hospital"},"id":"10610"},{"type":"Feature","geometry":{"type":"Point","coordinates":[-0.1013,51.6592]},"properties":{"cc":"UK","country":"United Kingdom","public_private":"private","city":"Enfield","postcode":"EN2 7PR","lon":-0.101346962,"url":"https:\/\/www.bmihealthcare.co.uk\/hospitals\/bmi-the-cavell-hospital","pub_date":"2020_03_24","tel":"2083662122","facility_type":"Hospital","lat":51.65922546,"email":"info@bmihealthcare.co.uk","hospital_name":"BMI The Cavell Hospital"},"id":"10611"},{"type":"Feature","geometry":{"type":"Point","coordinates":[-0.5642,51.2357]},"properties":{"cc":"UK","country":"United Kingdom","public_private":"private","city":"Guildford","postcode":"GU1 3LX","lon":-0.564204454,"url":"https:\/\/www.bmihealthcare.co.uk\/hospitals\/bmi-mount-alvernia-hospital","pub_date":"2020_03_24","tel":"1483570122","facility_type":"Hospital","lat":51.23574829,"email":"info@bmihealthcare.co.uk","hospital_name":"BMI Mount Alvernia Hospital"},"id":"10612"},{"type":"Feature","geometry":{"type":"Point","coordinates":[0.6998,51.55]},"properties":{"cc":"UK","country":"United Kingdom","public_private":"private","city":"Westcliff-on-Sea","postcode":"SS0 9AG","lon":0.699760079,"url":"https:\/\/www.bmihealthcare.co.uk\/hospitals\/bmi-southend-private-hospital","pub_date":"2020_03_24","tel":"1702608908","facility_type":"Hospital","lat":51.55002975,"email":"reception.southend@bmihealthcare.co.uk","hospital_name":"BMI Southend Private Hospital"},"id":"10613"},{"type":"Feature","geometry":{"type":"Point","coordinates":[-2.2675,53.9433]},"properties":{"cc":"UK","country":"United Kingdom","public_private":"private","city":"Clitheroe","postcode":"BB7 4HX","lon":-2.267543077,"url":"https:\/\/www.bmihealthcare.co.uk\/hospitals\/bmi-gisburne-park-hospital","pub_date":"2020_03_24","tel":"1200445693","facility_type":"Hospital","lat":53.94332886,"hospital_name":"BMI Gisburne Park Hospital"},"id":"10614"},{"type":"Feature","geometry":{"type":"Point","coordinates":[-1.1246,50.786]},"properties":{"cc":"UK","country":"United Kingdom","public_private":"private","city":"Gosport","postcode":"PO12 2AA","lon":-1.124631882,"pub_date":"2020_03_24","facility_type":"Hospital","lat":50.78601837,"hospital_name":"Royal Hospital Haslar"},"id":"10615"},{"type":"Feature","geometry":{"type":"Point","coordinates":[-0.0738,53.5511]},"properties":{"cc":"UK","country":"United Kingdom","public_private":"private","city":"Grimsby","postcode":"DN32 9RP","lon":-0.0738,"url":"http:\/\/www.sthughshospital.co.uk","pub_date":"2020_03_24","tel":"1472251100","facility_type":"Hospital","lat":53.55105209,"email":"admin@sthughshospital.co.uk","hospital_name":"St Hugh's Hospital"},"id":"10616"},{"type":"Feature","geometry":{"type":"Point","coordinates":[-0.4981,51.7324]},"properties":{"cc":"UK","country":"United Kingdom","public_private":"private","city":"Hemel Hempstead","postcode":"HP3 0BN","lon":-0.498069763,"url":"http:\/\/www.priorygroup.com\/hemelhempstead","pub_date":"2020_03_24","tel":"1442255371","facility_type":"Hospital","lat":51.73241043,"email":"hemelhempstead@priorygroup.com","hospital_name":"Priory Hospital Hemel Hempstead"},"id":"10617"},{"type":"Feature","geometry":{"type":"Point","coordinates":[0.3066,50.9819]},"properties":{"cc":"UK","country":"United Kingdom","public_private":"private","city":"Heathfield","postcode":"TN21 8UN","lon":0.306597054,"url":"http:\/\/www.priorygroup.com\/heathfield","pub_date":"2020_03_24","tel":"1435864545","facility_type":"Hospital","lat":50.98192596,"email":"heathfield@priorygroup.com","hospital_name":"Heathfield"},"id":"10618"},{"type":"Feature","geometry":{"type":"Point","coordinates":[0.3984,51.0496]},"properties":{"cc":"UK","country":"United Kingdom","public_private":"private","city":"Wadhurst","postcode":"TN5 7HU","lon":0.398391992,"url":"http:\/\/www.priorygroup.com\/ticehurst","pub_date":"2020_03_24","tel":"1580200391","facility_type":"Hospital","lat":51.04955292,"email":"ticehurst@priorygroup.com","hospital_name":"Priory Hospital Ticehurst "},"id":"10619"},{"type":"Feature","geometry":{"type":"Point","coordinates":[0.4878,51.7432]},"properties":{"cc":"UK","country":"United Kingdom","public_private":"private","city":"Chelmsford","postcode":"CM1 7SJ","lon":0.487775713,"url":"https:\/\/www.priorygroup.com\/locations\/priory-hospital-chelmsford","pub_date":"2020_03_24","tel":"1245345345","facility_type":"Hospital","lat":51.74317932,"email":"chelmsford@priorygroup.com","hospital_name":"Priory Hospital Chelmsford"},"id":"10620"},{"type":"Feature","geometry":{"type":"Point","coordinates":[-1.9558,52.4717]},"properties":{"cc":"UK","country":"United Kingdom","public_private":"private","city":"Birmingham","postcode":"B17 8BY","lon":-1.95580709,"url":"https:\/\/www.priorygroup.com\/locations\/priory-hospital-woodbourne-birmingham","pub_date":"2020_03_24","tel":"1214344343","facility_type":"Hospital","lat":52.47169495,"email":"woodbourne@priorygroup.com","hospital_name":"Woodbourne Priory Hospital"},"id":"10621"},{"type":"Feature","geometry":{"type":"Point","coordinates":[0.0146,51.3731]},"properties":{"cc":"UK","country":"United Kingdom","public_private":"private","city":"Bromley","postcode":"BR2 7AS","lon":0.0146,"url":"https:\/\/www.priorygroup.com\/locations\/priory-hospital-hayes-grove","pub_date":"2020_03_24","tel":"2084627722","facility_type":"Hospital","lat":51.37308121,"email":"hayesgrove@priorygroup.com","hospital_name":"Priory Hospital Hayes Grove"},"id":"10622"},{"type":"Feature","geometry":{"type":"Point","coordinates":[-0.2515,51.4625]},"properties":{"cc":"UK","country":"United Kingdom","public_private":"private","city":"London","postcode":"SW15 5JJ","lon":-0.251494706,"url":"https:\/\/www.priorygroup.com\/locations\/priory-hospital-roehampton-london","pub_date":"2020_03_24","tel":"2088768261","facility_type":"Hospital","lat":51.46253967,"email":"roehampton@priorygroup.com","hospital_name":"Priory Hospital Roehampton"},"id":"10623"},{"type":"Feature","geometry":{"type":"Point","coordinates":[-0.6226,51.3198]},"properties":{"cc":"UK","country":"United Kingdom","public_private":"private","city":"Woking","postcode":"GU21 2QF","lon":-0.622614145,"url":"https:\/\/www.priorygroup.com\/locations\/priory-hospital-woking","pub_date":"2020_03_24","tel":"1483489211","facility_type":"Hospital","lat":51.31982422,"email":"woking@priorygroup.com","hospital_name":"Priory Hospital Woking"},"id":"10624"},{"type":"Feature","geometry":{"type":"Point","coordinates":[-1.4476,50.8796]},"properties":{"cc":"UK","country":"United Kingdom","public_private":"private","city":"Southampton","postcode":"SO40 4WU","lon":-1.447607636,"url":"https:\/\/www.priorygroup.com\/locations\/priory-hospital-southampton","pub_date":"2020_03_24","tel":"2380840044","facility_type":"Hospital","lat":50.87963104,"email":"southampton@priorygroup.com","hospital_name":"Priory Hospital Southampton"},"id":"10625"},{"type":"Feature","geometry":{"type":"Point","coordinates":[-2.332,53.3656]},"properties":{"cc":"UK","country":"United Kingdom","public_private":"private","city":"Altrincham","postcode":"WA15 0NU","lon":-2.331951857,"url":"https:\/\/www.priorygroup.com\/locations\/priory-hospital-altrincham","pub_date":"2020_03_24","tel":"1619040050","facility_type":"Hospital","lat":53.3655777,"email":"altrincham@priorygroup.com","hospital_name":"Priory Hospital Altrincham"},"id":"10626"},{"type":"Feature","geometry":{"type":"Point","coordinates":[-2.7853,53.802]},"properties":{"cc":"UK","country":"United Kingdom","public_private":"private","city":"Preston","postcode":"PR4 0HB","lon":-2.785323381,"url":"http:\/\/www.priorygroup.com\/preston","pub_date":"2020_03_24","tel":"1772691122","facility_type":"Hospital","lat":53.80200577,"email":"preston@priorygroup.com","hospital_name":"Priory Hospital Preston"},"id":"10627"},{"type":"Feature","geometry":{"type":"Point","coordinates":[-0.1203,51.6303]},"properties":{"cc":"UK","country":"United Kingdom","public_private":"private","city":"London","postcode":"N14 6RA","lon":-0.120334625,"url":"https:\/\/www.priorygroup.com\/locations\/priory-hospital-north-london\/north-london","pub_date":"2020_03_24","tel":"2088828191","facility_type":"Hospital","lat":51.63027191,"email":"northlondon@priorygroup.com","hospital_name":"Priory Hospital North London"},"id":"10628"},{"type":"Feature","geometry":{"type":"Point","coordinates":[-2.2215,53.3749]},"properties":{"cc":"UK","country":"United Kingdom","public_private":"private","city":"Cheadle","postcode":"SK8 3DG","lon":-2.221472025,"url":"http:\/\/www.priorygroup.com\/cheadleroyal","pub_date":"2020_03_24","tel":"1614289511","facility_type":"Hospital","lat":53.37493896,"email":"cheadleroyal@priorygroup.com","hospital_name":"Priory Hospital Cheadle Royal"},"id":"10629"},{"type":"Feature","geometry":{"type":"Point","coordinates":[-1.4331,54.5171]},"properties":{"cc":"UK","country":"United Kingdom","public_private":"private","city":"Darlington","postcode":"DL2 1TS","lon":-1.433142424,"url":"http:\/\/www.priorygroup.com\/middletonstgeorge","pub_date":"2020_03_24","tel":"1325333192","facility_type":"Hospital","lat":54.51710892,"email":"middletonstgeorge@priorygroup.com","hospital_name":"Priory Hospital Middleton St George"},"id":"10630"},{"type":"Feature","geometry":{"type":"Point","coordinates":[-2.5668,51.4797]},"properties":{"cc":"UK","country":"United Kingdom","public_private":"private","city":"Bristol","postcode":"BS16 1EQ","lon":-2.566757441,"url":"https:\/\/www.priorygroup.com\/locations\/priory-hospital-bristol","pub_date":"2020_03_24","tel":"1179525255","facility_type":"Hospital","lat":51.47973633,"email":"bristol@priorygroup.com","hospital_name":"Priory Hospital Bristol"},"id":"10631"},{"type":"Feature","geometry":{"type":"Point","coordinates":[-1.3971,50.9124]},"properties":{"cc":"UK","country":"United Kingdom","public_private":"private","city":"Southampton","postcode":"SO14 0YG","lon":-1.397062421,"url":"http:\/\/www.southamptontreatmentcentre.nhs.uk","pub_date":"2020_03_24","tel":"3332001820","facility_type":"Hospital","lat":50.91239166,"hospital_name":"Southampton NHS Treatment Centre"},"id":"10632"},{"type":"Feature","geometry":{"type":"Point","coordinates":[0.1121,51.5805]},"properties":{"cc":"UK","country":"United Kingdom","public_private":"private","city":"Ilford","postcode":"IG3 8YB","lon":0.112121284,"url":"http:\/\/www.nelondontreatmentcentre.nhs.uk","pub_date":"2020_03_24","tel":"3332004069","facility_type":"Hospital","lat":51.58054352,"email":"cuk.enquiriesneltc@nhs.net","hospital_name":"North East London NHS Treatment Centre"},"id":"10633"},{"type":"Feature","geometry":{"type":"Point","coordinates":[-2.6667,53.1592]},"properties":{"cc":"UK","country":"United Kingdom","public_private":"private","city":"Tarporley","postcode":"CW6 0AP","lon":-2.66672349,"pub_date":"2020_03_24","tel":"1829732436","facility_type":"Hospital","lat":53.15922165,"hospital_name":"Tarporley War Memorial Hospital Trust"},"id":"10634"},{"type":"Feature","geometry":{"type":"Point","coordinates":[-1.5047,54.5204]},"properties":{"cc":"UK","country":"United Kingdom","public_private":"private","city":"Darlington","postcode":"DL1 4PL","lon":-1.504655719,"url":"https:\/\/www.bmihealthcare.co.uk\/hospitals\/bmi-woodlands-hospital","pub_date":"2020_03_24","tel":"1325341700","facility_type":"Hospital","lat":54.52036285,"email":"sophie.howey@bmihealthcare.co.uk","hospital_name":"BMI Woodlands Hospital"},"id":"10635"},{"type":"Feature","geometry":{"type":"Point","coordinates":[-1.8909,52.4866]},"properties":{"cc":"UK","country":"United Kingdom","public_private":"private","city":"Birmingham","postcode":"B4 7ET","lon":-1.890937567,"url":"https:\/\/www.optegra.com","pub_date":"2020_03_24","tel":"1212043800","facility_type":"Hospital","lat":52.48664093,"email":"icare.birmingham@optegra.com","hospital_name":"Optegra Eye Hospital Birmingham"},"id":"10636"},{"type":"Feature","geometry":{"type":"Point","coordinates":[-0.6591,51.5188]},"properties":{"cc":"UK","country":"United Kingdom","public_private":"private","city":"Maidenhead","postcode":"SL6 0PQ","lon":-0.659095943,"url":"https:\/\/www.huntercombe.com\/testimonials\/?center=701","pub_date":"2020_03_24","tel":"1628667881","facility_type":"Hospital","lat":51.51879501,"email":"maidenhead@huntercombe.com","hospital_name":"The Huntercombe Hospital Maidenhead"},"id":"10637"},{"type":"Feature","geometry":{"type":"Point","coordinates":[-2.2333,52.6944]},"properties":{"cc":"UK","country":"United Kingdom","public_private":"private","city":"Stafford","postcode":"ST19 9QT","lon":-2.233263016,"url":"http:\/\/www.huntercombe.com","pub_date":"2020_03_24","tel":"1785840000","facility_type":"Hospital","lat":52.69441223,"email":"stafford@huntercombe.com","hospital_name":"The Huntercombe Hospital Stafford"},"id":"10638"},{"type":"Feature","geometry":{"type":"Point","coordinates":[-2.4173,51.3117]},"properties":{"cc":"UK","country":"United Kingdom","public_private":"private","city":"Bath","postcode":"BA2 8SF","lon":-2.41733408,"url":"https:\/\/www.circlehealth.co.uk\/bath\/","pub_date":"2020_03_24","tel":"1761422222","facility_type":"Hospital","lat":51.31171036,"hospital_name":"Circle Bath Hospital"},"id":"10639"},{"type":"Feature","geometry":{"type":"Point","coordinates":[-0.9764,51.4293]},"properties":{"cc":"UK","country":"United Kingdom","public_private":"private","city":"Reading","postcode":"RG2 0NE","lon":-0.976393759,"url":"http:\/\/www.circlereading.co.uk","pub_date":"2020_03_24","tel":"1189226888","facility_type":"Hospital","lat":51.42933273,"email":"enquiries@circlereading.co.uk","hospital_name":"Circle Reading Hospital"},"id":"10640"},{"type":"Feature","geometry":{"type":"Point","coordinates":[-0.1914,51.4951]},"properties":{"cc":"UK","country":"United Kingdom","public_private":"private","city":"London","postcode":"SW5 0TU","lon":-0.19137083,"url":"http:\/\/www.bupacromwellhospital.com\/","pub_date":"2020_03_24","tel":"2074602000","facility_type":"Hospital","lat":51.49510574,"email":"info@cromwellhospital.com","hospital_name":"Bupa Cromwell Hospital"},"id":"10641"},{"type":"Feature","geometry":{"type":"Point","coordinates":[-0.3033,51.3043]},"properties":{"cc":"UK","country":"United Kingdom","public_private":"private","city":"Ashtead","postcode":"KT21 2SB","lon":-0.303277969,"url":"http:\/\/www.ashteadhospital.co.uk","pub_date":"2020_03_24","tel":"1372221421","facility_type":"Hospital","lat":51.30434036,"email":"ashtead.enquiries@ramsayhealth.co.uk","hospital_name":"Ashtead Hospital"},"id":"10642"},{"type":"Feature","geometry":{"type":"Point","coordinates":[-0.9883,51.4445]},"properties":{"cc":"UK","country":"United Kingdom","public_private":"private","city":"Reading","postcode":"RG1 6UZ","lon":-0.988298833,"url":"http:\/\/www.berkshireindependenthospital.co.uk","pub_date":"2020_03_24","tel":"1189028000","facility_type":"Hospital","lat":51.44454956,"email":"berkshire.enquiries@ramsayhealth.co.uk","hospital_name":"The Berkshire Independent Hospital"},"id":"10643"},{"type":"Feature","geometry":{"type":"Point","coordinates":[-5.0936,50.2679]},"properties":{"cc":"UK","country":"United Kingdom","public_private":"private","city":"Truro","postcode":"TR1 3UP","lon":-5.093553543,"url":"http:\/\/www.duchyhospital.co.uk","pub_date":"2020_03_24","tel":"1872226115","facility_type":"Hospital","lat":50.26794434,"email":"duchy.enquiries@ramsayhealth.co.uk","hospital_name":"Duchy Hospital"},"id":"10644"},{"type":"Feature","geometry":{"type":"Point","coordinates":[-2.6763,53.661]},"properties":{"cc":"UK","country":"United Kingdom","public_private":"private","city":"Chorley","postcode":"PR7 6DY","lon":-2.676298857,"url":"http:\/\/www.euxtonhallhospital.co.uk","pub_date":"2020_03_24","tel":"1257276261","facility_type":"Hospital","lat":53.66095352,"email":"euxton.enquiries@ramsayhealth.co.uk","hospital_name":"Euxton Hall Hospital"},"id":"10645"},{"type":"Feature","geometry":{"type":"Point","coordinates":[-0.2975,52.5765]},"properties":{"cc":"UK","country":"United Kingdom","public_private":"private","city":"Peterborough","postcode":"PE3 9AQ","lon":-0.297534764,"url":"http:\/\/www.fitzwilliamhospital.co.uk","pub_date":"2020_03_24","tel":"1733842333","facility_type":"Hospital","lat":52.57646942,"email":"fitzwilliam.enquiries@ramsayhealth.co.uk","hospital_name":"Fitzwilliam Hospital"},"id":"10646"},{"type":"Feature","geometry":{"type":"Point","coordinates":[-2.684,53.7863]},"properties":{"cc":"UK","country":"United Kingdom","public_private":"private","city":"Preston","postcode":"PR2 9SZ","lon":-2.684020996,"url":"http:\/\/www.fulwoodhallhospital.co.uk\/","pub_date":"2020_03_24","tel":"1772704111","facility_type":"Hospital","lat":53.78632355,"email":"fulwood.enquiries@ramsayhealth.co.uk","hospital_name":"Fulwood Hall Hospital"},"id":"10647"},{"type":"Feature","geometry":{"type":"Point","coordinates":[-3.5417,50.4751]},"properties":{"cc":"UK","country":"United Kingdom","public_private":"private","city":"Torquay","postcode":"TQ1 4UP","lon":-3.541743517,"url":"http:\/\/www.mountstuarthospital.co.uk","pub_date":"2020_03_24","tel":"1803313881","facility_type":"Hospital","lat":50.47509766,"email":"mountstuart.enquiries@ramsayhealth.co.uk","hospital_name":"Mount Stuart Hospital"},"id":"10648"},{"type":"Feature","geometry":{"type":"Point","coordinates":[-1.7638,51.0307]},"properties":{"cc":"UK","country":"United Kingdom","public_private":"private","city":"Salisbury","postcode":"SP5 4EY","lon":-1.763829231,"url":"http:\/\/www.new-hallhospital.co.uk","pub_date":"2020_03_24","tel":"1722422333","facility_type":"Hospital","lat":51.03070831,"email":"newhall.enquiries@ramsayhealth.co.uk","hospital_name":"New Hall Hospital"},"id":"10649"},{"type":"Feature","geometry":{"type":"Point","coordinates":[-0.0791,51.2736]},"properties":{"cc":"UK","country":"United Kingdom","public_private":"private","city":"Caterham","postcode":"CR3 6DP","lon":-0.0791,"url":"http:\/\/www.northdownshospital.co.uk","pub_date":"2020_03_24","tel":"1883348981","facility_type":"Hospital","lat":51.27355576,"email":"northdowns.enquiries@ramsayhealth.co.uk","hospital_name":"North Downs Hospital"},"id":"10650"},{"type":"Feature","geometry":{"type":"Point","coordinates":[-2.321,53.4923]},"properties":{"cc":"UK","country":"United Kingdom","public_private":"private","city":"Salford","postcode":"M6 8AQ","lon":-2.321049213,"url":"http:\/\/www.oaklands-hospital.co.uk","pub_date":"2020_03_24","tel":"1617877700","facility_type":"Hospital","lat":53.49230194,"email":"oaklands.enquiries@ramsayhealth.co.uk","hospital_name":"Oaklands Hospital"},"id":"10651"},{"type":"Feature","geometry":{"type":"Point","coordinates":[0.895,51.9063]},"properties":{"cc":"UK","country":"United Kingdom","public_private":"private","city":"Colchester","postcode":"CO4 5XR","lon":0.894992948,"url":"http:\/\/www.oakshospital.co.uk","pub_date":"2020_03_24","tel":"1206752121","facility_type":"Hospital","lat":51.90629959,"email":"oaks.enquiries@ramsayhealth.co.uk","hospital_name":"Oaks Hospital"},"id":"10652"},{"type":"Feature","geometry":{"type":"Point","coordinates":[-1.1116,53.5304]},"properties":{"cc":"UK","country":"United Kingdom","public_private":"private","city":"Doncaster","postcode":"DN2 5TH","lon":-1.111603141,"url":"http:\/\/www.parkhillhospital.co.uk","pub_date":"2020_03_24","tel":"1302730300","facility_type":"Hospital","lat":53.53036499,"email":"parkhill.enquiries@ramsayhealth.co.uk","hospital_name":"Park Hill Hospital"},"id":"10653"},{"type":"Feature","geometry":{"type":"Point","coordinates":[-0.263,51.9503]},"properties":{"cc":"UK","country":"United Kingdom","public_private":"private","city":"Hitchin","postcode":"SG4 9QZ","lon":-0.262984931,"url":"http:\/\/www.pinehillhospital.co.uk","pub_date":"2020_03_24","tel":"1462422822","facility_type":"Hospital","lat":51.95029831,"email":"pinehill.enquiries@ramsayhealth.co.uk","hospital_name":"Pinehill Hospital"},"id":"10654"},{"type":"Feature","geometry":{"type":"Point","coordinates":[-2.9507,53.6001]},"properties":{"cc":"UK","country":"United Kingdom","public_private":"private","city":"Ormskirk","postcode":"L39 8SE","lon":-2.950682878,"url":"http:\/\/www.renacreshospital.co.uk","pub_date":"2020_03_24","tel":"1704841133","facility_type":"Hospital","lat":53.60013199,"email":"renacres.enquiries@ramsayhealth.co.uk","hospital_name":"Renacres Hospital"},"id":"10655"},{"type":"Feature","geometry":{"type":"Point","coordinates":[-2.1263,52.7948]},"properties":{"cc":"UK","country":"United Kingdom","public_private":"private","city":"Stafford","postcode":"ST17 9AQ","lon":-2.126266718,"url":"http:\/\/www.rowleyhospital.co.uk","pub_date":"2020_03_24","tel":"1785238600","facility_type":"Hospital","lat":52.79478073,"email":"rowley.enquiries@ramsayhealth.co.uk","hospital_name":"Rowley Hall Hospital"},"id":"10656"},{"type":"Feature","geometry":{"type":"Point","coordinates":[0.4846,51.7534]},"properties":{"cc":"UK","country":"United Kingdom","public_private":"private","city":"Chelmsford","postcode":"CM1 7GU","lon":0.484612137,"url":"http:\/\/www.springfieldhospital.co.uk","pub_date":"2020_03_24","tel":"1245234000","facility_type":"Hospital","lat":51.75337219,"email":"springfield.enquiries@ramsayhealth.co.uk","hospital_name":"Springfield Hospital"},"id":"10657"},{"type":"Feature","geometry":{"type":"Point","coordinates":[0.1305,51.8071]},"properties":{"cc":"UK","country":"United Kingdom","public_private":"private","city":"Sawbridgeworth","postcode":"CM21 0HH","lon":0.130471587,"url":"https:\/\/www.rivershospital.co.uk","pub_date":"2020_03_24","tel":"1279600282","facility_type":"Hospital","lat":51.80709457,"email":"rivers.enquiries@ramsayhealth.co.uk","hospital_name":"Rivers Hospital"},"id":"10658"},{"type":"Feature","geometry":{"type":"Point","coordinates":[-2.0767,52.4578]},"properties":{"cc":"UK","country":"United Kingdom","public_private":"private","city":"Halesowen","postcode":"B63 2AH","lon":-2.076659679,"url":"http:\/\/www.westmidlandshospital.co.uk","pub_date":"2020_03_24","tel":"1384560123","facility_type":"Hospital","lat":52.45781708,"email":"westmidlands.enquiries@ramsayhealth.co.uk","hospital_name":"West Midlands Hospital"},"id":"10659"},{"type":"Feature","geometry":{"type":"Point","coordinates":[-2.2424,51.8804]},"properties":{"cc":"UK","country":"United Kingdom","public_private":"private","city":"Gloucester","postcode":"GL2 9WH","lon":-2.24241662,"url":"http:\/\/www.winfieldhospital.co.uk","pub_date":"2020_03_24","tel":"1452331111","facility_type":"Hospital","lat":51.88044357,"email":"winfield.enquiries@ramsayhealth.co.uk","hospital_name":"Winfield Hospital"},"id":"10660"},{"type":"Feature","geometry":{"type":"Point","coordinates":[-0.7685,52.4116]},"properties":{"cc":"UK","country":"United Kingdom","public_private":"private","city":"Kettering","postcode":"NN16 8XF","lon":-0.768490613,"url":"http:\/\/www.woodlandhospital.co.uk","pub_date":"2020_03_24","tel":"1536414515","facility_type":"Hospital","lat":52.41162872,"email":"woodland.enquiries@ramsayhealth.co.uk","hospital_name":"Woodland Hospital"},"id":"10661"},{"type":"Feature","geometry":{"type":"Point","coordinates":[-1.3366,52.0535]},"properties":{"cc":"UK","country":"United Kingdom","public_private":"private","city":"Banbury","postcode":"OX16 9FG","lon":-1.336649418,"url":"http:\/\/www.hortontreatmentcentre.co.uk","pub_date":"2020_03_24","tel":"1295755000","facility_type":"Hospital","lat":52.05352402,"email":"horton.enquiries@ramsayhealth.co.uk","hospital_name":"Horton NHS Treatment Centre"},"id":"10662"},{"type":"Feature","geometry":{"type":"Point","coordinates":[-0.0335,52.9759]},"properties":{"cc":"UK","country":"United Kingdom","public_private":"private","city":"Boston","postcode":"PE21 8EG","lon":-0.0335,"url":"http:\/\/www.bostonwesthospital.co.uk","pub_date":"2020_03_24","tel":"1205591860","facility_type":"Hospital","lat":52.97591782,"email":"boston.enquiries@ramsayhealth.co.uk","hospital_name":"Boston West Hospital"},"id":"10663"},{"type":"Feature","geometry":{"type":"Point","coordinates":[-1.1139,53.9779]},"properties":{"cc":"UK","country":"United Kingdom","public_private":"private","city":"York","postcode":"YO30 5RA","lon":-1.113929391,"url":"http:\/\/www.cliftonparkhospital.co.uk","pub_date":"2020_03_24","tel":"1904464550","facility_type":"Hospital","lat":53.9778595,"email":"clifton.enquiries@ramsayhealth.co.uk","hospital_name":"Clifton Park Hospital"},"id":"10664"},{"type":"Feature","geometry":{"type":"Point","coordinates":[-1.5104,55.0241]},"properties":{"cc":"UK","country":"United Kingdom","public_private":"private","city":"Newcastle Upon Tyne","postcode":"NE27 0BY","lon":-1.510449052,"url":"http:\/\/www.cobalthospital.co.uk","pub_date":"2020_03_24","tel":"1912703250","facility_type":"Hospital","lat":55.0240593,"email":"cobalt.enquiries@ramsayhealth.co.uk","hospital_name":"Cobalt Hospital"},"id":"10665"},{"type":"Feature","geometry":{"type":"Point","coordinates":[-0.7427,52.0744]},"properties":{"cc":"UK","country":"United Kingdom","public_private":"private","city":"Milton Keynes","postcode":"MK14 5HR","lon":-0.742682993,"url":"http:\/\/www.blakelandshospital.co.uk","pub_date":"2020_03_24","tel":"1908334200","facility_type":"Hospital","lat":52.07442474,"email":"blakelands.enquiries@ramsayhealth.co.uk","hospital_name":"Blakelands Hospital"},"id":"10666"},{"type":"Feature","geometry":{"type":"Point","coordinates":[-2.2675,53.9433]},"properties":{"cc":"UK","country":"United Kingdom","public_private":"private","city":"Clitheroe","postcode":"BB7 4HX","lon":-2.267543077,"url":"http:\/\/www.ramsayhealth.co.uk\/nhs","pub_date":"2020_03_24","tel":"1200445693","facility_type":"Hospital","lat":53.94332886,"email":"christinebailey@abbeyhospitals.com","hospital_name":"Gisburne Park NHS Treatment Centre"},"id":"10667"},{"type":"Feature","geometry":{"type":"Point","coordinates":[-1.1386,52.9905]},"properties":{"cc":"UK","country":"United Kingdom","public_private":"private","city":"Nottingham","postcode":"NG5 3FZ","lon":-1.138613939,"url":"http:\/\/www.woodthorpehospital.co.uk\/","pub_date":"2020_03_24","tel":"1159209209","facility_type":"Hospital","lat":52.99048233,"hospital_name":"Woodthorpe Hospital"},"id":"10668"},{"type":"Feature","geometry":{"type":"Point","coordinates":[-1.9226,52.4671]},"properties":{"cc":"UK","country":"United Kingdom","public_private":"private","city":"Birmingham","postcode":"B15 3SJ","lon":-1.922581673,"url":"http:\/\/www.westbournecentre.com","pub_date":"2020_03_24","tel":"1214560880","facility_type":"Hospital","lat":52.46707916,"email":"westbourne.admin@nhs.net","hospital_name":"The Westbourne Centre"},"id":"10669"},{"type":"Feature","geometry":{"type":"Point","coordinates":[-2.7501,53.4846]},"properties":{"cc":"UK","country":"United Kingdom","public_private":"private","city":"St. Helens","postcode":"WA11 7RS","lon":-2.750059366,"url":"https:\/\/www.fairfield.org.uk\/","pub_date":"2020_03_24","tel":"1744739311","facility_type":"Hospital","lat":53.48455429,"email":"enquiries@fairfield.org.uk","hospital_name":"Fairfield Independent Hospital"},"id":"10670"},{"type":"Feature","geometry":{"type":"Point","coordinates":[-0.0859,51.5063]},"properties":{"cc":"UK","country":"United Kingdom","public_private":"private","city":"London","postcode":"SE1 2PR","lon":-0.0859,"url":"http:\/\/www.londonbridgehospital.com","pub_date":"2020_03_24","tel":"2074073100","facility_type":"Hospital","lat":51.50632858,"email":"info.lbh@hcahealthcare.co.uk","hospital_name":"London Bridge Hospital"},"id":"10671"},{"type":"Feature","geometry":{"type":"Point","coordinates":[0.6161,51.0866]},"properties":{"cc":"UK","country":"United Kingdom","public_private":"private","city":"Cranbrook","postcode":"TN17 4AX","lon":0.61611402,"url":"https:\/\/www.benendenhospital.org.uk","pub_date":"2020_03_24","tel":"1580240333","facility_type":"Hospital","lat":51.08664703,"hospital_name":"Benenden Hospital"},"id":"10672"},{"type":"Feature","geometry":{"type":"Point","coordinates":[0.1428,51.0637]},"properties":{"cc":"UK","country":"United Kingdom","public_private":"private","city":"Crowborough","postcode":"TN6 1XP","lon":0.142799318,"url":"https:\/\/www.horderhealthcare.co.uk","pub_date":"2020_03_24","tel":"1892665577","facility_type":"Hospital","lat":51.06367493,"email":"info@horder.co.uk","hospital_name":"The Horder Centre "},"id":"10673"},{"type":"Feature","geometry":{"type":"Point","coordinates":[-1.9487,52.0863]},"properties":{"cc":"UK","country":"United Kingdom","public_private":"public","city":"Evesham","postcode":"WR11 1JT","lon":-1.948670626,"url":"https:\/\/www.hacw.nhs.uk\/evesham-community-hospital","pub_date":"2020_03_24","tel":"1386502449","facility_type":"Hospital","lat":52.08626175,"hospital_name":"Evesham Community Hospital"},"id":"10674"},{"type":"Feature","geometry":{"type":"Point","coordinates":[-2.3228,52.1239]},"properties":{"cc":"UK","country":"United Kingdom","public_private":"public","city":"Malvern","postcode":"WR14 1EX","lon":-2.322845221,"url":"https:\/\/www.hacw.nhs.uk\/malvern-community-hospital","pub_date":"2020_03_24","tel":"1684612600","facility_type":"Hospital","lat":52.12385178,"hospital_name":"Malvern Community Hospital"},"id":"10675"},{"type":"Feature","geometry":{"type":"Point","coordinates":[-2.0556,52.3441]},"properties":{"cc":"UK","country":"United Kingdom","public_private":"public","city":"Bromsgrove","postcode":"B61 0BB","lon":-2.055647612,"url":"https:\/\/www.hacw.nhs.uk\/princess-of-wales-community-hospital","pub_date":"2020_03_24","tel":"1527488000","facility_type":"Hospital","lat":52.3441391,"hospital_name":"Princess of Wales Community Hospital - Worcestershire Health and Care NHS Trust"},"id":"10676"},{"type":"Feature","geometry":{"type":"Point","coordinates":[-2.7144,52.3737]},"properties":{"cc":"UK","country":"United Kingdom","public_private":"public","city":"Ludlow","postcode":"SY8 1QX","lon":-2.714434147,"url":"http:\/\/www.shropscommunityhealth.nhs.uk","pub_date":"2020_03_24","tel":"1584872201","facility_type":"Hospital","lat":52.37365723,"email":"shropcom.ludlowadmin@nhs.net","hospital_name":"Ludlow Community Hospital"},"id":"10677"},{"type":"Feature","geometry":{"type":"Point","coordinates":[-2.4215,52.5379]},"properties":{"cc":"UK","country":"United Kingdom","public_private":"public","city":"Bridgnorth","postcode":"WV16 4EU","lon":-2.421488047,"url":"http:\/\/www.shropscommunityhealth.nhs.uk","pub_date":"2020_03_24","tel":"1746762641","facility_type":"Hospital","lat":52.53790283,"email":"shropcom.bridgnorthreception@nhs.net","hospital_name":"Bridgnorth Community Hospital"},"id":"10678"},{"type":"Feature","geometry":{"type":"Point","coordinates":[-2.9996,52.4931]},"properties":{"cc":"UK","country":"United Kingdom","public_private":"public","city":"Bishop's Castle","postcode":"SY9 5AJ","lon":-2.999591112,"url":"http:\/\/www.shropscommunityhealth.nhs.uk","pub_date":"2020_03_24","tel":"1588638220","facility_type":"Hospital","lat":52.4930954,"email":"shropcom.bishopscastlehosp@nhs.net","hospital_name":"Bishop's Castle Community Hospital"},"id":"10679"},{"type":"Feature","geometry":{"type":"Point","coordinates":[-2.6792,52.9727]},"properties":{"cc":"UK","country":"United Kingdom","public_private":"public","city":"Whitchurch","postcode":"SY13 1NT","lon":-2.679201841,"url":"http:\/\/www.shropscommunityhealth.nhs.uk","pub_date":"2020_03_24","tel":"1948666292","facility_type":"Hospital","lat":52.97274017,"email":"shropcom.whitchurchreception@nhs.net","hospital_name":"Whitchurch Community Hospital"},"id":"10680"},{"type":"Feature","geometry":{"type":"Point","coordinates":[0.0347,51.5228]},"properties":{"cc":"UK","country":"United Kingdom","public_private":"public","city":"London","postcode":"E13 8SL","lon":0.0347,"url":"https:\/\/www.bartshealth.nhs.uk\/newham","pub_date":"2020_03_24","tel":"2070555550","facility_type":"Hospital","lat":51.52277756,"hospital_name":"Gateway Surgical Centre"},"id":"10681"},{"type":"Feature","geometry":{"type":"Point","coordinates":[-0.0602,51.5187]},"properties":{"cc":"UK","country":"United Kingdom","public_private":"public","city":"London","postcode":"E1 1FR","lon":-0.0602,"url":"http:\/\/www.bartshealth.nhs.uk\/","pub_date":"2020_03_24","tel":"2073777000","facility_type":"Hospital","lat":51.51869965,"email":"rlhpals@bartshealth.nhs.uk","hospital_name":"The Royal London Hospital"},"id":"10682"},{"type":"Feature","geometry":{"type":"Point","coordinates":[-0.0422,51.525]},"properties":{"cc":"UK","country":"United Kingdom","public_private":"public","city":"London","postcode":"E1 4DG","lon":-0.0422,"url":"http:\/\/www.bartshealth.nhs.uk","pub_date":"2020_03_24","tel":"2073777000","facility_type":"Hospital","lat":51.5250473,"email":"bhnt.pals@nhs.net","hospital_name":"Mile End Hospital"},"id":"10683"},{"type":"Feature","geometry":{"type":"Point","coordinates":[0.0027,51.5788]},"properties":{"cc":"UK","country":"United Kingdom","public_private":"public","city":"London","postcode":"E11 1NR","lon":0.00265,"url":"http:\/\/www.bartshealth.nhs.uk\/","pub_date":"2020_03_24","tel":"2085395522","facility_type":"Hospital","lat":51.57883072,"email":"wxpals@bartshealth.nhs.uk","hospital_name":"Whipps Cross Hospital"},"id":"10684"},{"type":"Feature","geometry":{"type":"Point","coordinates":[-0.1004,51.5177]},"properties":{"cc":"UK","country":"United Kingdom","public_private":"public","city":"City of London","postcode":"EC1A 7BE","lon":-0.10038992,"url":"https:\/\/www.bartshealth.nhs.uk\/st-bartholomews","pub_date":"2020_03_24","tel":"2073777000","facility_type":"Hospital","lat":51.51774979,"email":"sbhpals.bartshealth@nhs.net","hospital_name":"St Bartholomew's Hospital"},"id":"10685"},{"type":"Feature","geometry":{"type":"Point","coordinates":[0.0347,51.5228]},"properties":{"cc":"UK","country":"United Kingdom","public_private":"public","city":"London","postcode":"E13 8SL","lon":0.0347,"url":"http:\/\/www.bartshealth.nhs.uk","pub_date":"2020_03_24","tel":"2074764000","facility_type":"Hospital","lat":51.52277756,"email":"nuhpals@bartshealth.nhs.uk","hospital_name":"Newham Hospital"},"id":"10686"},{"type":"Feature","geometry":{"type":"Point","coordinates":[-0.6074,51.241]},"properties":{"cc":"UK","country":"United Kingdom","public_private":"public","city":"Guildford","postcode":"GU2 7XX","lon":-0.60744828,"url":"http:\/\/www.royalsurrey.nhs.uk","pub_date":"2020_03_24","tel":"1483571122","facility_type":"Hospital","lat":51.24101639,"hospital_name":"Royal Surrey County Hospital"},"id":"10687"},{"type":"Feature","geometry":{"type":"Point","coordinates":[-2.9714,51.3223]},"properties":{"cc":"UK","country":"United Kingdom","public_private":"public","city":"Weston-Super-Mare","postcode":"BS23 4TQ","lon":-2.971384764,"url":"http:\/\/www.waht.nhs.uk","pub_date":"2020_03_24","tel":"1934636363","facility_type":"Hospital","lat":51.32234192,"email":"wnt-tr.pressoffice@nhs.net","hospital_name":"Weston General Hospital"},"id":"10688"},{"type":"Feature","geometry":{"type":"Point","coordinates":[-2.6347,50.9448]},"properties":{"cc":"UK","country":"United Kingdom","public_private":"public","city":"Yeovil","postcode":"BA21 4AT","lon":-2.634698391,"url":"http:\/\/www.yeovilhospital.nhs.uk\/","pub_date":"2020_03_24","tel":"1935475122","facility_type":"Hospital","lat":50.94484711,"email":"communications@ydh.nhs.uk","hospital_name":"Yeovil District Hospital"},"id":"10689"},{"type":"Feature","geometry":{"type":"Point","coordinates":[-2.5961,51.4592]},"properties":{"cc":"UK","country":"United Kingdom","public_private":"public","city":"Bristol","postcode":"BS2 8HW","lon":-2.596124649,"url":"http:\/\/www.uhbristol.nhs.uk\/your-hospitals\/bristol-royal-infirmary.html","pub_date":"2020_03_24","tel":"1179230000","facility_type":"Hospital","lat":51.45918655,"hospital_name":"Bristol Royal Infirmary"},"id":"10690"},{"type":"Feature","geometry":{"type":"Point","coordinates":[-2.5994,51.4591]},"properties":{"cc":"UK","country":"United Kingdom","public_private":"public","city":"Bristol","postcode":"BS2 8EG","lon":-2.599376917,"url":"http:\/\/www.uhbristol.nhs.uk\/your-hospitals\/st-michaels-hospital.html","pub_date":"2020_03_24","tel":"1173425325","facility_type":"Hospital","lat":51.45913696,"hospital_name":"St Michael's Hospital"},"id":"10691"},{"type":"Feature","geometry":{"type":"Point","coordinates":[-2.5945,51.4584]},"properties":{"cc":"UK","country":"United Kingdom","public_private":"public","city":"Bristol","postcode":"BS1 2LX","lon":-2.594531536,"url":"http:\/\/www.uhbristol.nhs.uk\/your-hospitals\/bristol-eye-hospital.html","pub_date":"2020_03_24","tel":"1173424176","facility_type":"Hospital","lat":51.45843887,"hospital_name":"Bristol Eye Hospital"},"id":"10692"},{"type":"Feature","geometry":{"type":"Point","coordinates":[-2.5952,51.4586]},"properties":{"cc":"UK","country":"United Kingdom","public_private":"public","city":"Bristol","postcode":"BS1 2LY","lon":-2.595181704,"url":"http:\/\/www.uhbristol.nhs.uk\/your-hospitals\/university-of-bristol-dental-hospital.html","pub_date":"2020_03_24","tel":"1173424422","facility_type":"Hospital","lat":51.45861816,"hospital_name":"University Of Bristol Dental Hospital"},"id":"10693"},{"type":"Feature","geometry":{"type":"Point","coordinates":[-2.5973,51.4578]},"properties":{"cc":"UK","country":"United Kingdom","public_private":"public","city":"Bristol","postcode":"BS2 8BJ","lon":-2.597314835,"url":"http:\/\/www.uhbristol.nhs.uk\/your-hospitals\/bristol-royal-hospital-for-children.html","pub_date":"2020_03_24","tel":"1173428460","facility_type":"Hospital","lat":51.45775223,"hospital_name":"Bristol Royal Hospital For Children"},"id":"10694"},{"type":"Feature","geometry":{"type":"Point","coordinates":[-2.5849,51.411]},"properties":{"cc":"UK","country":"United Kingdom","public_private":"public","city":"Bristol","postcode":"BS14 0DB","lon":-2.584929228,"url":"http:\/\/www.uhbristol.nhs.uk\/patients-and-visitors\/your-hospitals\/south-bristol-community-hospital\/","pub_date":"2020_03_24","tel":"1179230000","facility_type":"Hospital","lat":51.41099548,"hospital_name":"South Bristol Community Hospital"},"id":"10695"},{"type":"Feature","geometry":{"type":"Point","coordinates":[-3.5538,50.4823]},"properties":{"cc":"UK","country":"United Kingdom","public_private":"public","city":"Torquay","postcode":"TQ2 7AA","lon":-3.553790569,"url":"http:\/\/www.torbayandsouthdevon.nhs.uk\/","pub_date":"2020_03_24","tel":"1803614567","facility_type":"Hospital","lat":50.48232269,"email":"chiefexecutive.sdhct@nhs.net","hospital_name":"Torbay Hospital"},"id":"10696"},{"type":"Feature","geometry":{"type":"Point","coordinates":[-3.5138,50.3895]},"properties":{"cc":"UK","country":"United Kingdom","public_private":"public","city":"Brixham","postcode":"TQ5 9HW","lon":-3.513809919,"url":"https:\/\/www.torbayandsouthdevon.nhs.uk\/visiting-us\/ashburton-and-buckfastleigh-health-and-wellbeing-","pub_date":"2020_03_24","tel":"1803881399","facility_type":"Hospital","lat":50.38945007,"hospital_name":"Brixham Hospital - Torbay and South Devon NHS Foundation Trust"},"id":"10697"},{"type":"Feature","geometry":{"type":"Point","coordinates":[-3.4748,50.5806]},"properties":{"cc":"UK","country":"United Kingdom","public_private":"public","city":"Dawlish","postcode":"EX7 9DH","lon":-3.474774122,"url":"https:\/\/www.torbayandsouthdevon.nhs.uk\/visiting-us\/dawlish-community-hospital\/","pub_date":"2020_03_24","tel":"1626868500","facility_type":"Hospital","lat":50.58058929,"hospital_name":"Dawlish Hospital - Torbay and South Devon NHS Foundation Trust"},"id":"10698"},{"type":"Feature","geometry":{"type":"Point","coordinates":[-3.6122,50.5394]},"properties":{"cc":"UK","country":"United Kingdom","public_private":"public","city":"Newton Abbot","postcode":"TQ12 2TS","lon":-3.612241745,"url":"https:\/\/www.torbayandsouthdevon.nhs.uk\/visiting-us\/newton-abbot-community-hospital\/","pub_date":"2020_03_24","tel":"1626324500","facility_type":"Hospital","lat":50.53936386,"hospital_name":"Newton Abbot Community Hospital - Torbay and South Devon NHS Foundation Trust"},"id":"10699"},{"type":"Feature","geometry":{"type":"Point","coordinates":[-3.5688,50.4371]},"properties":{"cc":"UK","country":"United Kingdom","public_private":"public","city":"Paignton","postcode":"TQ3 3AG","lon":-3.568786621,"url":"https:\/\/www.torbayandsouthdevon.nhs.uk\/visiting-us\/paignton-health-and-wellbeing-centre\/","pub_date":"2020_03_24","tel":"1803547171","facility_type":"Hospital","lat":50.43714523,"hospital_name":"Paignton Health and Welllbeing Centre"},"id":"10700"},{"type":"Feature","geometry":{"type":"Point","coordinates":[-3.5111,50.5484]},"properties":{"cc":"UK","country":"United Kingdom","public_private":"public","city":"Teignmouth","postcode":"TQ14 9BQ","lon":-3.511145592,"url":"https:\/\/www.torbayandsouthdevon.nhs.uk\/visiting-us\/teignmouth-community-hospital\/","pub_date":"2020_03_24","tel":"1626772161","facility_type":"Hospital","lat":50.54837418,"hospital_name":"Teignmouth Hospital"},"id":"10701"},{"type":"Feature","geometry":{"type":"Point","coordinates":[-3.6842,50.4328]},"properties":{"cc":"UK","country":"United Kingdom","public_private":"public","city":"Totnes","postcode":"TQ9 5GH","lon":-3.68417573,"url":"https:\/\/www.torbayandsouthdevon.nhs.uk\/visiting-us\/totnes-community-hospital\/","pub_date":"2020_03_24","tel":"1803862622","facility_type":"Hospital","lat":50.4327774,"hospital_name":"Totnes Hospital - Torbay and South Devon NHS Foundation Trust"},"id":"10702"},{"type":"Feature","geometry":{"type":"Point","coordinates":[-1.7947,53.806]},"properties":{"cc":"UK","country":"United Kingdom","public_private":"public","city":"Bradford","postcode":"BD9 6RJ","lon":-1.794681668,"url":"http:\/\/www.bradfordhospitals.nhs.uk","pub_date":"2020_03_24","tel":"1274542200","facility_type":"Hospital","lat":53.8059845,"hospital_name":"Bradford Royal Infirmary"},"id":"10703"},{"type":"Feature","geometry":{"type":"Point","coordinates":[-1.761,53.7835]},"properties":{"cc":"UK","country":"United Kingdom","public_private":"public","city":"Bradford","postcode":"BD5 0NA","lon":-1.760977983,"url":"http:\/\/www.bradfordhospitals.nhs.uk","pub_date":"2020_03_24","tel":"1274734744","facility_type":"Hospital","lat":53.78348541,"hospital_name":"St Lukes Hospital"},"id":"10704"},{"type":"Feature","geometry":{"type":"Point","coordinates":[-1.7863,53.8334]},"properties":{"cc":"UK","country":"United Kingdom","public_private":"public","city":"Shipley","postcode":"BD18 3LT","lon":-1.786266565,"pub_date":"2020_03_24","tel":"1274773390","facility_type":"Hospital","lat":53.83343506,"hospital_name":"Shipley Hospital"},"id":"10705"},{"type":"Feature","geometry":{"type":"Point","coordinates":[-1.7121,53.8231]},"properties":{"cc":"UK","country":"United Kingdom","public_private":"public","city":"Bradford","postcode":"BD10 0JE","lon":-1.712111712,"pub_date":"2020_03_24","tel":"1274323200","facility_type":"Hospital","lat":53.82307816,"hospital_name":"Eccleshill Community Hospital"},"id":"10706"},{"type":"Feature","geometry":{"type":"Point","coordinates":[0.6886,51.5538]},"properties":{"cc":"UK","country":"United Kingdom","public_private":"public","city":"Westcliff-on-Sea","postcode":"SS0 0RY","lon":0.688631773,"url":"http:\/\/www.southend.nhs.uk","pub_date":"2020_03_24","tel":"1702435555","facility_type":"Hospital","lat":51.55383682,"hospital_name":"Southend Hospital"},"id":"10707"},{"type":"Feature","geometry":{"type":"Point","coordinates":[0.3164,51.6236]},"properties":{"cc":"UK","country":"United Kingdom","public_private":"public","city":"Brentwood","postcode":"CM15 8DR","lon":0.316414982,"pub_date":"2020_03_24","tel":"1277695000","facility_type":"Hospital","lat":51.62355042,"hospital_name":"Brentwood Community Hospital"},"id":"10708"},{"type":"Feature","geometry":{"type":"Point","coordinates":[-0.1653,51.5532]},"properties":{"cc":"UK","country":"United Kingdom","public_private":"public","city":"London","postcode":"NW3 2QG","lon":-0.165309235,"url":"http:\/\/www.royalfree.nhs.uk\/","pub_date":"2020_03_24","tel":"2077940500","facility_type":"Hospital","lat":51.55322266,"email":"rf.pals@nhs.net","hospital_name":"Royal Free Hospital"},"id":"10709"},{"type":"Feature","geometry":{"type":"Point","coordinates":[-0.1766,51.6055]},"properties":{"cc":"UK","country":"United Kingdom","public_private":"public","city":"London","postcode":"N12 0JE","lon":-0.176605821,"pub_date":"2020_03_24","tel":"2083497500","facility_type":"Hospital","lat":51.60545731,"hospital_name":"Finchley Memorial Hospital"},"id":"10710"},{"type":"Feature","geometry":{"type":"Point","coordinates":[-0.2712,51.6065]},"properties":{"cc":"UK","country":"United Kingdom","public_private":"public","city":"Edgware","postcode":"HA8 0AD","lon":-0.271227777,"url":"http:\/\/www.royalfree.nhs.uk","pub_date":"2020_03_24","tel":"2089522381","facility_type":"Hospital","lat":51.6064949,"hospital_name":"Edgware Community Hospital"},"id":"10711"},{"type":"Feature","geometry":{"type":"Point","coordinates":[-0.3104,51.6326]},"properties":{"cc":"UK","country":"United Kingdom","public_private":"public","city":"Stanmore","postcode":"HA7 4LP","lon":-0.31042096,"url":"http:\/\/www.rnoh.nhs.uk\/index.htm","pub_date":"2020_03_24","tel":"2089542300","facility_type":"Hospital","lat":51.63256454,"email":"enquiries@rnoh.nhs.uk","hospital_name":"The Royal National Orthopaedic Hospital (Stanmore)"},"id":"10712"},{"type":"Feature","geometry":{"type":"Point","coordinates":[-0.1433,51.5233]},"properties":{"cc":"UK","country":"United Kingdom","public_private":"public","city":"London","postcode":"W1W 5AQ","lon":-0.143274531,"url":"http:\/\/www.rnoh.nhs.uk\/","pub_date":"2020_03_24","tel":"2089542300","facility_type":"Hospital","lat":51.52331161,"email":"enquiries@rnoh.nhs.uk","hospital_name":"Royal National Orthopaedic Hospital (Bolsover Street)"},"id":"10713"},{"type":"Feature","geometry":{"type":"Point","coordinates":[-0.0737,51.6131]},"properties":{"cc":"UK","country":"United Kingdom","public_private":"public","city":"London","postcode":"N18 1QX","lon":-0.0737,"url":"http:\/\/www.northmid.nhs.uk","pub_date":"2020_03_24","tel":"2088872000","facility_type":"Hospital","lat":51.61309433,"hospital_name":"North Middlesex University Hospital"},"id":"10714"},{"type":"Feature","geometry":{"type":"Point","coordinates":[-0.4612,51.5261]},